{
  "meta": {
    "updated": 1783568789,
    "sources": [
      {
        "source": "厚生労働省 食品衛生申請等システム（オープンデータ）",
        "license": "公共データ利用規約（第1.0版, PDL1.0）"
      }
    ]
  },
  "data": [
    {
      "name": "フタムラ化学株式会社　名古屋工場",
      "name_kana": "フタムラカガクカブシキガイシャ　ナゴヤコウジョウ",
      "business_type": "㉗ 器具、容器包装の製造・加工業（合成樹脂が使用された器具又は容器包装の製造、加工に限る。）",
      "address": "愛知県海部郡大治町大字西條字笠見立1番地1",
      "lat": 35.186651,
      "lng": 136.814661,
      "geocoding_level": null,
      "phone": "0524442731",
      "license_no": "",
      "license_date": null,
      "expire_date": null
    },
    {
      "name": "Ｖ・drug　大治店",
      "name_kana": "ブイ・ドラッグ　オオハルテン",
      "business_type": "⑬ その他の食料・飲料販売業",
      "address": "愛知県海部郡大治町堀之内大堀207番1",
      "lat": 35.172384,
      "lng": 136.822301,
      "geocoding_level": null,
      "phone": "052-414-4736",
      "license_no": "",
      "license_date": null,
      "expire_date": null
    },
    {
      "name": "ピアゴ大治店",
      "name_kana": "ピアゴオオハルテン",
      "business_type": "⑪ 百貨店、総合スーパー",
      "address": "愛知県海部郡大治町大字花常字人見20",
      "lat": 35.183517,
      "lng": 136.823575,
      "geocoding_level": null,
      "phone": "0570-00-9103",
      "license_no": "",
      "license_date": null,
      "expire_date": null
    },
    {
      "name": "スギドラッグ 大治店",
      "name_kana": "スギドラッグ  オオハルテン",
      "business_type": "⑬ その他の食料・飲料販売業",
      "address": "愛知県海部郡大治町中島字深田1番地",
      "lat": 35.172204,
      "lng": 136.8159,
      "geocoding_level": null,
      "phone": "052-449-7747",
      "license_no": "",
      "license_date": null,
      "expire_date": null
    },
    {
      "name": "あまファースト歯科　Ｇカフェ",
      "name_kana": "アマファーストシカ　ジーカフェ",
      "business_type": "⑤ コップ式自動販売機（自動洗浄・屋内設置）",
      "address": "愛知県海部郡大治町堀之内大堀１７０−３",
      "lat": 35.172317,
      "lng": 136.82377,
      "geocoding_level": null,
      "phone": "",
      "license_no": "",
      "license_date": null,
      "expire_date": null
    },
    {
      "name": "ＮＴＰ名古屋トヨペット大治三本木店",
      "name_kana": "エヌティーピーナゴヤトヨペットオオハルサンホンギ",
      "business_type": "⑤ コップ式自動販売機（自動洗浄・屋内設置）",
      "address": "愛知県海部郡大治町三本木前深田１００−１",
      "lat": 35.169183,
      "lng": 136.821991,
      "geocoding_level": null,
      "phone": "0524443121",
      "license_no": "",
      "license_date": null,
      "expire_date": null
    },
    {
      "name": "カネ美食品㈱　大治店",
      "name_kana": "カネミショクヒン　カブ　オオハルテン",
      "business_type": "⑬ その他の食料・飲料販売業",
      "address": "愛知県海部郡大治町大字花常字人見20 ピアゴ大治店内",
      "lat": 35.183517,
      "lng": 136.823575,
      "geocoding_level": null,
      "phone": "052-441-8934",
      "license_no": "",
      "license_date": null,
      "expire_date": null
    },
    {
      "name": "オートバックス大治店シースルー機",
      "name_kana": "オートバックスオオハルテンシースルーキ",
      "business_type": "⑤ コップ式自動販売機（自動洗浄・屋内設置）",
      "address": "愛知県海部郡大治町柳原６０－１",
      "lat": 35.184625,
      "lng": 136.813359,
      "geocoding_level": null,
      "phone": "",
      "license_no": "",
      "license_date": null,
      "expire_date": null
    },
    {
      "name": "愛知トヨタ　大治店",
      "name_kana": "アイチトヨタオオハルテン",
      "business_type": "⑫ 自動販売機による販売業（コップ式自動販売機（自動洗浄・屋内設置）及び営業許可の対象となる自動販売機を除く）",
      "address": "愛知県海部郡大治町長牧10-1",
      "lat": 35.180056,
      "lng": 136.835577,
      "geocoding_level": null,
      "phone": "052-442-4121",
      "license_no": "",
      "license_date": null,
      "expire_date": null
    },
    {
      "name": "ゲンキー西條大辻店",
      "name_kana": "ゲンキーニシジョウオオツジテン",
      "business_type": "⑬ その他の食料・飲料販売業",
      "address": "愛知県海部郡大治町西條大辻100番3",
      "lat": 35.184925,
      "lng": 136.819214,
      "geocoding_level": null,
      "phone": "052-485-8940",
      "license_no": "",
      "license_date": null,
      "expire_date": null
    },
    {
      "name": "ガスト 大治店",
      "name_kana": "ガストオオハルテン",
      "business_type": "⑬ その他の食料・飲料販売業",
      "address": "愛知県海部郡大治町西條字附田６３－１",
      "lat": 35.184292,
      "lng": 136.809651,
      "geocoding_level": null,
      "phone": "052-449-0200",
      "license_no": "",
      "license_date": null,
      "expire_date": null
    },
    {
      "name": "りあん",
      "name_kana": "リアン",
      "business_type": "② 食肉販売業（包装済みの食肉のみの販売）",
      "address": "愛知県海部郡大治町堀之内字大堀204-2",
      "lat": 35.17235,
      "lng": 136.822616,
      "geocoding_level": null,
      "phone": "052-414-4711",
      "license_no": "",
      "license_date": null,
      "expire_date": null
    },
    {
      "name": "すき家　大治西條店",
      "name_kana": "スキヤオオハルニシジョウテン",
      "business_type": "⑬ その他の食料・飲料販売業",
      "address": "愛知県海部郡大治町大字西條字坂牧芝8-1",
      "lat": 35.180278,
      "lng": 136.811966,
      "geocoding_level": null,
      "phone": "",
      "license_no": "",
      "license_date": null,
      "expire_date": null
    },
    {
      "name": "ほまれの家中部",
      "name_kana": "ホマレノイエチュウブ",
      "business_type": "㉗ 器具、容器包装の製造・加工業（合成樹脂が使用された器具又は容器包装の製造、加工に限る。）",
      "address": "愛知県海部郡大治町堀之内20番地2 ウィズネス１ーB",
      "lat": 35.174413,
      "lng": 136.824073,
      "geocoding_level": null,
      "phone": "0524465177",
      "license_no": "",
      "license_date": null,
      "expire_date": null
    },
    {
      "name": "ほまれの家NEXT",
      "name_kana": "ホマレノイエネクスト",
      "business_type": "㉗ 器具、容器包装の製造・加工業（合成樹脂が使用された器具又は容器包装の製造、加工に限る。）",
      "address": "愛知県海部郡大治町北間島字藤田72番地2 ハイツ藤田１C",
      "lat": 35.17753,
      "lng": 136.829116,
      "geocoding_level": null,
      "phone": "0524439993",
      "license_no": "",
      "license_date": null,
      "expire_date": null
    },
    {
      "name": "海部東農業協同組合　大治支店",
      "name_kana": "アマヒガシノウギョウキョウドウクミアイ　オオハルシテン",
      "business_type": "⑧ 米穀類販売業",
      "address": "愛知県海部郡大治町馬島字大道西240番地-1",
      "lat": 35.172576,
      "lng": 136.820163,
      "geocoding_level": null,
      "phone": "052-444-2521",
      "license_no": "",
      "license_date": null,
      "expire_date": null
    },
    {
      "name": "ドラッグコスモス大治店",
      "name_kana": "ドラッグコスモスオオハルテン",
      "business_type": "⑪ 百貨店、総合スーパー",
      "address": "愛知県海部郡大治町堀之内半之返876",
      "lat": 35.177622,
      "lng": 136.823295,
      "geocoding_level": null,
      "phone": "052-462-6101",
      "license_no": "",
      "license_date": null,
      "expire_date": null
    },
    {
      "name": "酒のすぎた　大治店",
      "name_kana": "サケノスギタ　オオハルテン",
      "business_type": "㉙ その他",
      "address": "愛知県海部郡大治町堀之内字大堀194-1",
      "lat": 35.172375,
      "lng": 136.823505,
      "geocoding_level": null,
      "phone": "0524435493",
      "license_no": "",
      "license_date": null,
      "expire_date": null
    },
    {
      "name": "bakeryfanfan",
      "name_kana": "ベーカリーファンファン",
      "business_type": "③ 乳類販売業",
      "address": "愛知県海部郡大治町花常福島87-2",
      "lat": 35.182902,
      "lng": 136.82167,
      "geocoding_level": null,
      "phone": "0524420065",
      "license_no": "",
      "license_date": null,
      "expire_date": null
    },
    {
      "name": "ジョリーパスタ　大治店",
      "name_kana": "ジョリーパスタ　オオハルテン",
      "business_type": "① 飲食店営業",
      "address": "愛知県海部郡大治町大字三本木字西之川１５１番地１",
      "lat": 35.169077,
      "lng": 136.815992,
      "geocoding_level": null,
      "phone": "052-526-2680",
      "license_no": "7津保第３１－１４０号",
      "license_date": "2025-09-26",
      "expire_date": "2031-10-31"
    },
    {
      "name": "ジョリーパスタ　大治店",
      "name_kana": "ジョリーパスタ　オオハルテン",
      "business_type": "⑬ その他の食料・飲料販売業",
      "address": "愛知県海部郡大治町三本木151-1",
      "lat": 35.168857,
      "lng": 136.821651,
      "geocoding_level": null,
      "phone": "052-526-2680",
      "license_no": "",
      "license_date": null,
      "expire_date": null
    },
    {
      "name": "ルミリアおおはる",
      "name_kana": "ルミリアオオハル",
      "business_type": "㉖ 集団給食施設",
      "address": "愛知県海部郡大治町西條尼ヶ須賀40",
      "lat": 35.168976,
      "lng": 136.811116,
      "geocoding_level": null,
      "phone": "052-433-8218",
      "license_no": "",
      "license_date": null,
      "expire_date": null
    }
  ]
}
