{
  "meta": {
    "updated": 1783568789,
    "sources": [
      {
        "source": "厚生労働省 食品衛生申請等システム（オープンデータ）",
        "license": "公共データ利用規約（第1.0版, PDL1.0）"
      }
    ]
  },
  "data": [
    {
      "name": "ダイソー　メリーランド武雄店",
      "name_kana": "ダイソー　メリーランドタケオテン",
      "business_type": "⑬ その他の食料・飲料販売業",
      "address": "佐賀県武雄市朝日町甘久３０８番地",
      "lat": 33.204432,
      "lng": 130.035045,
      "geocoding_level": null,
      "phone": "",
      "license_no": "",
      "license_date": null,
      "expire_date": null
    },
    {
      "name": "スターバックスコーヒー佐賀武雄店",
      "name_kana": "スターバックスコーヒーサガタケオテン",
      "business_type": "⑬ その他の食料・飲料販売業",
      "address": "佐賀県武雄市武雄町昭和277",
      "lat": 33.193455,
      "lng": 130.027476,
      "geocoding_level": null,
      "phone": "0954-20-1711",
      "license_no": "",
      "license_date": null,
      "expire_date": null
    },
    {
      "name": "セブン‐イレブン武雄片白店",
      "name_kana": "セブンイレブンタケオカタジロテン",
      "business_type": "⑩ コンビニエンスストア",
      "address": "佐賀県武雄市橘町片白362-2",
      "lat": 33.190765,
      "lng": 130.060746,
      "geocoding_level": null,
      "phone": "0954223838",
      "license_no": "",
      "license_date": null,
      "expire_date": null
    },
    {
      "name": "マルキョウ武雄店",
      "name_kana": "マルキョウタケオテン",
      "business_type": "⑪ 百貨店、総合スーパー",
      "address": "佐賀県武雄市武雄町昭和7番",
      "lat": 33.192585,
      "lng": 130.023005,
      "geocoding_level": null,
      "phone": "0954236155",
      "license_no": "",
      "license_date": null,
      "expire_date": null
    },
    {
      "name": "社会福祉法人朝日福祉会あさひこども園",
      "name_kana": "シャカイフクシホウジンアサヒフクシカイアサヒコドモエン",
      "business_type": "㉖ 集団給食施設",
      "address": "佐賀県武雄市朝日町1763-1",
      "lat": 33.212989,
      "lng": 130.04843,
      "geocoding_level": null,
      "phone": "0954233939",
      "license_no": "",
      "license_date": null,
      "expire_date": null
    },
    {
      "name": "中村学園事業部27080",
      "name_kana": "ナカムラガクエンジギョウブニナナゼロハチゼロ",
      "business_type": "① 飲食店営業",
      "address": "佐賀県武雄市武雄町大字武雄５８３３－４",
      "lat": 33.189372,
      "lng": 130.010641,
      "geocoding_level": null,
      "phone": "",
      "license_no": "佐賀県指令６杵保福第96号",
      "license_date": "2024-05-31",
      "expire_date": "2030-05-31"
    },
    {
      "name": "もち吉　武雄店",
      "name_kana": "モチキチ　タケオテン",
      "business_type": "⑬ その他の食料・飲料販売業",
      "address": "佐賀県武雄市武雄町昭和61",
      "lat": 33.192572,
      "lng": 130.024747,
      "geocoding_level": null,
      "phone": "0954-26-8212",
      "license_no": "",
      "license_date": null,
      "expire_date": null
    },
    {
      "name": "もち吉武雄店",
      "name_kana": "モチキチタケオテン",
      "business_type": "⑪ 菓子製造業",
      "address": "佐賀県武雄市武雄町大字昭和61",
      "lat": 33.192572,
      "lng": 130.024747,
      "geocoding_level": null,
      "phone": "",
      "license_no": "佐賀県指令7杵保福第98号",
      "license_date": "2025-05-30",
      "expire_date": "2031-05-31"
    },
    {
      "name": "ザ・ビッグ武雄店",
      "name_kana": "ザ・ビッグタケオテン",
      "business_type": "③ 乳類販売業",
      "address": "佐賀県武雄市朝日町甘久字丁ノ坪１３０８",
      "lat": 33.217537,
      "lng": 130.040237,
      "geocoding_level": null,
      "phone": "0954-26-8202",
      "license_no": "",
      "license_date": null,
      "expire_date": null
    },
    {
      "name": "ザ・ビッグ武雄店",
      "name_kana": "ザ・ビッグタケオテン",
      "business_type": "⑪ 百貨店、総合スーパー",
      "address": "佐賀県武雄市朝日町甘久字丁ノ坪１３０８",
      "lat": 33.217537,
      "lng": 130.040237,
      "geocoding_level": null,
      "phone": "0954-26-8202",
      "license_no": "",
      "license_date": null,
      "expire_date": null
    },
    {
      "name": "ザ・ビッグ武雄店",
      "name_kana": "ザ・ビッグタケオテン",
      "business_type": "⑫ 自動販売機による販売業（コップ式自動販売機（自動洗浄・屋内設置）及び営業許可の対象となる自動販売機を除く）",
      "address": "佐賀県武雄市朝日町甘久字丁ノ坪１３０８",
      "lat": 33.217537,
      "lng": 130.040237,
      "geocoding_level": null,
      "phone": "0954-26-8202",
      "license_no": "",
      "license_date": null,
      "expire_date": null
    },
    {
      "name": "ザ・ビッグ武雄店",
      "name_kana": "ザ・ビッグタケオテン",
      "business_type": "⑪ 菓子製造業",
      "address": "佐賀県武雄市朝日町甘久１３０８",
      "lat": 33.205609,
      "lng": 130.037804,
      "geocoding_level": null,
      "phone": "",
      "license_no": "佐賀県指令５杵保福第１８号",
      "license_date": "2023-04-18",
      "expire_date": "2029-05-31"
    },
    {
      "name": "ザ・ビッグ武雄店",
      "name_kana": "ザビッグタケオテン",
      "business_type": "⑪ 菓子製造業",
      "address": "佐賀県武雄市朝日町甘久１３０８",
      "lat": 33.205609,
      "lng": 130.037804,
      "geocoding_level": null,
      "phone": "",
      "license_no": "佐賀県指令６杵保福第169号",
      "license_date": "2024-05-31",
      "expire_date": "2030-05-31"
    },
    {
      "name": "あんくるふじや武雄店",
      "name_kana": "アンクルフジヤタケオテン",
      "business_type": "⑪ 百貨店、総合スーパー",
      "address": "佐賀県武雄市武雄町昭和757",
      "lat": 33.197088,
      "lng": 130.031396,
      "geocoding_level": null,
      "phone": "0954-23-9838",
      "license_no": "",
      "license_date": null,
      "expire_date": null
    },
    {
      "name": "から揚げドンドン　武雄店",
      "name_kana": "カラアゲドンドンタケオテン",
      "business_type": "① 飲食店営業",
      "address": "佐賀県武雄市武雄町武雄５９９－２",
      "lat": 33.190253,
      "lng": 130.006895,
      "geocoding_level": null,
      "phone": "0954224717",
      "license_no": "佐賀県指令３杵保福第２１号",
      "license_date": "2021-06-01",
      "expire_date": "2027-05-31"
    },
    {
      "name": "きんぎょカフェ",
      "name_kana": "キンギョカフェ",
      "business_type": "① 飲食店営業",
      "address": "佐賀県武雄市武雄町昭和１５９",
      "lat": 33.191,
      "lng": 130.026333,
      "geocoding_level": null,
      "phone": "0954237125",
      "license_no": "佐賀県指令３杵保福第25号",
      "license_date": "2021-06-01",
      "expire_date": "2027-05-31"
    },
    {
      "name": "ガスト 佐賀武雄店",
      "name_kana": "ガストサガタケオテン",
      "business_type": "⑬ その他の食料・飲料販売業",
      "address": "佐賀県武雄市武雄町昭和２７７",
      "lat": 33.193455,
      "lng": 130.027476,
      "geocoding_level": null,
      "phone": "0954-20-1700",
      "license_no": "",
      "license_date": null,
      "expire_date": null
    },
    {
      "name": "エレナの移動スーパー　パオパオ号エレナ4号車（波佐見・川棚・嬉野地区巡回）",
      "name_kana": "エレナノイドウスーパー　パオパオゴウヨンゴウシャ",
      "business_type": "㉕ 行商",
      "address": "佐賀県武雄市武雄町昭和265（杵藤保健所管内） エレナ波佐見店母店",
      "lat": 33.194844,
      "lng": 130.02782,
      "geocoding_level": null,
      "phone": "0956-85-7990",
      "license_no": "",
      "license_date": null,
      "expire_date": null
    },
    {
      "name": "お酒と創作料理　hanana",
      "name_kana": "オサケトソウサクリョウリハナナ",
      "business_type": "① 飲食店営業",
      "address": "佐賀県武雄市武雄町昭和１１－１",
      "lat": 33.194128,
      "lng": 130.021845,
      "geocoding_level": null,
      "phone": "",
      "license_no": "佐賀県指令３杵保福第36号",
      "license_date": "2021-06-01",
      "expire_date": "2027-05-31"
    },
    {
      "name": "有限会社中村青果　たけお屋",
      "name_kana": "ユウゲンカイシャナカムラセイカタケオヤ",
      "business_type": "① 飲食店営業",
      "address": "佐賀県武雄市武雄町富岡サキ田７８１８番１",
      "lat": 33.205187,
      "lng": 130.017156,
      "geocoding_level": null,
      "phone": "0954232705",
      "license_no": "佐賀県指令３杵保福第６０号",
      "license_date": "2021-06-01",
      "expire_date": "2027-05-31"
    },
    {
      "name": "房　空路",
      "name_kana": "ボウクウジ",
      "business_type": "① 飲食店営業",
      "address": "佐賀県武雄市山内町宮野１４２６－１",
      "lat": 33.202908,
      "lng": 129.924742,
      "geocoding_level": null,
      "phone": "0945452234",
      "license_no": "佐賀県指令３杵保福第６５号",
      "license_date": "2021-06-01",
      "expire_date": "2027-05-31"
    },
    {
      "name": "にこにこ青果武雄店",
      "name_kana": "ニコニコセイカタケオテン",
      "business_type": "⑦ 野菜果物販売業",
      "address": "佐賀県武雄市武雄町武雄4956",
      "lat": 33.190445,
      "lng": 130.02454,
      "geocoding_level": null,
      "phone": "0954289882",
      "license_no": "",
      "license_date": null,
      "expire_date": null
    },
    {
      "name": "にこにこ青果北方店",
      "name_kana": "ニコニコセイカキタガタテン",
      "business_type": "⑦ 野菜果物販売業",
      "address": "佐賀県武雄市北方町志久1568-3",
      "lat": 33.219591,
      "lng": 130.067234,
      "geocoding_level": null,
      "phone": "0954363868",
      "license_no": "",
      "license_date": null,
      "expire_date": null
    },
    {
      "name": "宮地ハム",
      "name_kana": "ミヤチハム",
      "business_type": "② 食肉販売業（包装済みの食肉のみの販売）",
      "address": "佐賀県武雄市武雄町昭和 県内一円",
      "lat": 33.193473,
      "lng": 130.026133,
      "geocoding_level": null,
      "phone": "",
      "license_no": "",
      "license_date": null,
      "expire_date": null
    },
    {
      "name": "宮地ハム",
      "name_kana": "ミヤチハム",
      "business_type": "⑬ その他の食料・飲料販売業",
      "address": "佐賀県武雄市武雄町昭和 県内一円",
      "lat": 33.193473,
      "lng": 130.026133,
      "geocoding_level": null,
      "phone": "",
      "license_no": "",
      "license_date": null,
      "expire_date": null
    },
    {
      "name": "ゆめタウン武雄",
      "name_kana": "ユメタウンタケオ",
      "business_type": "⑪ 百貨店、総合スーパー",
      "address": "佐賀県武雄市武雄町武雄4992",
      "lat": 33.188743,
      "lng": 130.025011,
      "geocoding_level": null,
      "phone": "0954-22-3000",
      "license_no": "",
      "license_date": null,
      "expire_date": null
    },
    {
      "name": "ゆめタウン武雄",
      "name_kana": "ユメタウンタケオ",
      "business_type": "㉖ 集団給食施設",
      "address": "佐賀県武雄市武雄町武雄4492",
      "lat": 33.190253,
      "lng": 130.006895,
      "geocoding_level": null,
      "phone": "0954223000",
      "license_no": "",
      "license_date": null,
      "expire_date": null
    },
    {
      "name": "スーパーセンタートライアル武雄富岡店",
      "name_kana": "スーパーセンタートライアルタケオトミオカテン",
      "business_type": "① 飲食店営業",
      "address": "佐賀県武雄市武雄町大字富岡１２４３１番地１",
      "lat": 33.201045,
      "lng": 130.034103,
      "geocoding_level": null,
      "phone": "0954-20-0800",
      "license_no": "佐賀県指令６杵保福第99号",
      "license_date": "2024-05-31",
      "expire_date": "2030-05-31"
    },
    {
      "name": "スーパーセンタートライアル武雄富岡店",
      "name_kana": "スーパーセンタートライアルタケオトミオカテン",
      "business_type": "⑪ 百貨店、総合スーパー",
      "address": "佐賀県武雄市武雄町大字富岡１２４３１番地１",
      "lat": 33.201045,
      "lng": 130.034103,
      "geocoding_level": null,
      "phone": "095-420-0800",
      "license_no": "",
      "license_date": null,
      "expire_date": null
    },
    {
      "name": "スーパーセンタートライアル武雄富岡店",
      "name_kana": "スーパーセンタートライアルタケオトミオカテン",
      "business_type": "③ 食肉販売業",
      "address": "佐賀県武雄市武雄町大字富岡１２４３１番地１",
      "lat": 33.201045,
      "lng": 130.034103,
      "geocoding_level": null,
      "phone": "0954-20-0800",
      "license_no": "佐賀県指令６杵保福第161号",
      "license_date": "2024-05-31",
      "expire_date": "2030-05-31"
    },
    {
      "name": "スーパーセンタートライアル武雄富岡店",
      "name_kana": "スーパーセンタートライアルタケオトミオカテン",
      "business_type": "④ 魚介類販売業",
      "address": "佐賀県武雄市武雄町大字富岡１２４３１番地１",
      "lat": 33.201045,
      "lng": 130.034103,
      "geocoding_level": null,
      "phone": "0954-20-0800",
      "license_no": "佐賀県指令６杵保福第163号",
      "license_date": "2024-05-31",
      "expire_date": "2030-05-31"
    },
    {
      "name": "スーパーセンタートライアル武雄富岡店",
      "name_kana": "スーパーセンタートライアルタケオトミオカテン",
      "business_type": "① 飲食店営業",
      "address": "佐賀県武雄市武雄町大字富岡１２４３１番地１",
      "lat": 33.201045,
      "lng": 130.034103,
      "geocoding_level": null,
      "phone": "0954-20-0800",
      "license_no": "佐賀県指令６杵保福第100号",
      "license_date": "2024-05-31",
      "expire_date": "2030-05-31"
    },
    {
      "name": "合同会社Relation Tea",
      "name_kana": "ゴウドウガイシャリレーションティー",
      "business_type": "⑬ その他の食料・飲料販売業",
      "address": "佐賀県武雄市山内町三間坂甲１３３５０－１",
      "lat": 33.198921,
      "lng": 129.951964,
      "geocoding_level": null,
      "phone": "0954-45-2167",
      "license_no": "",
      "license_date": null,
      "expire_date": null
    },
    {
      "name": "合同会社Relation Tea",
      "name_kana": "ゴウドウガイシャリレーションティー",
      "business_type": "⑱ 調味料製造・加工業",
      "address": "佐賀県武雄市山内町三間坂甲１３３５０－１",
      "lat": 33.198921,
      "lng": 129.951964,
      "geocoding_level": null,
      "phone": "0954-45-2167",
      "license_no": "",
      "license_date": null,
      "expire_date": null
    },
    {
      "name": "合同会社Relation Tea",
      "name_kana": "ゴウドウガイシャリレーションティー",
      "business_type": "㉑ 製茶業",
      "address": "佐賀県武雄市山内町三間坂甲１３３５０－１",
      "lat": 33.198921,
      "lng": 129.951964,
      "geocoding_level": null,
      "phone": "0954-45-2167",
      "license_no": "",
      "license_date": null,
      "expire_date": null
    },
    {
      "name": "武雄温泉森のリゾートホテル",
      "name_kana": "タケオオンセンモリノリゾートホテル",
      "business_type": "㉙ その他",
      "address": "佐賀県武雄市武雄町永島15750-1",
      "lat": 33.183685,
      "lng": 130.034622,
      "geocoding_level": null,
      "phone": "0954234477",
      "license_no": "",
      "license_date": null,
      "expire_date": null
    },
    {
      "name": "とりよし",
      "name_kana": "トリヨシ",
      "business_type": "① 飲食店営業",
      "address": "佐賀県武雄市北方町大字志久４２９７",
      "lat": 33.216097,
      "lng": 130.085746,
      "geocoding_level": null,
      "phone": "0954-36-4457",
      "license_no": "佐賀県指令３杵保福第１５７号",
      "license_date": "2021-07-06",
      "expire_date": "2028-05-31"
    },
    {
      "name": "ＣＨＡＮＯＫＯ",
      "name_kana": "チャノコ",
      "business_type": "① 飲食店営業",
      "address": "佐賀県武雄市　県内一円",
      "lat": 33.212859,
      "lng": 130.047548,
      "geocoding_level": null,
      "phone": "",
      "license_no": "佐賀県指令３杵保福第１５６号",
      "license_date": "2021-07-01",
      "expire_date": "2027-05-31"
    },
    {
      "name": "江北町商工会Ｂ",
      "name_kana": "コウホクチョウショウコウカイビー",
      "business_type": "① 飲食店営業",
      "address": "佐賀県武雄市武雄町昭和 県内一円",
      "lat": 33.193473,
      "lng": 130.026133,
      "geocoding_level": null,
      "phone": "",
      "license_no": "佐賀県指令３杵保福第１５５号",
      "license_date": "2021-07-01",
      "expire_date": "2027-05-31"
    },
    {
      "name": "とくし丸",
      "name_kana": "トクシマル",
      "business_type": "㉕ 行商",
      "address": "佐賀県武雄市朝日町甘久県内一円",
      "lat": 33.217537,
      "lng": 130.040237,
      "geocoding_level": null,
      "phone": "",
      "license_no": "",
      "license_date": null,
      "expire_date": null
    },
    {
      "name": "川登サービスエリア売店",
      "name_kana": "カワノボリサービスエリアバイテン",
      "business_type": "⑬ その他の食料・飲料販売業",
      "address": "佐賀県武雄市東川登町永野3962-1 長崎自動車道川登ｻｰﾋﾞｽｴﾘｱ内",
      "lat": 33.159698,
      "lng": 130.017693,
      "geocoding_level": null,
      "phone": "0954224070",
      "license_no": "",
      "license_date": null,
      "expire_date": null
    },
    {
      "name": "ゆめタウン武雄",
      "name_kana": "ユメタウンタケオ",
      "business_type": "① 飲食店営業",
      "address": "佐賀県武雄市武雄町武雄４９９２",
      "lat": 33.188743,
      "lng": 130.025011,
      "geocoding_level": null,
      "phone": "0954223000",
      "license_no": "佐賀県指令３杵保福第180号",
      "license_date": "2021-08-13",
      "expire_date": "2028-05-31"
    },
    {
      "name": "日清医療食品(株)老健コスモス事業所",
      "name_kana": "ニッシンイリョウショクヒンカブシキガイシャ　ロウケンコスモスジギョウショ",
      "business_type": "① 飲食店営業",
      "address": "佐賀県武雄市武雄町永島13821",
      "lat": 33.185939,
      "lng": 130.036976,
      "geocoding_level": null,
      "phone": "",
      "license_no": "佐賀県指令７杵保福第538号",
      "license_date": "2026-03-18",
      "expire_date": "2032-05-31"
    },
    {
      "name": "スマートNICO　武雄アジア大学",
      "name_kana": "スマートニコ　タケオアジアダイガク",
      "business_type": "⑬ その他の食料・飲料販売業",
      "address": "佐賀県武雄市武雄町武雄４８１４",
      "lat": 33.190138,
      "lng": 130.010976,
      "geocoding_level": null,
      "phone": "",
      "license_no": "",
      "license_date": null,
      "expire_date": null
    },
    {
      "name": "スシロー武雄店",
      "name_kana": "スシロータケオテン",
      "business_type": "① 飲食店営業",
      "address": "佐賀県武雄市武雄町富岡12672-1",
      "lat": 33.202129,
      "lng": 130.039546,
      "geocoding_level": null,
      "phone": "0954-26-8557",
      "license_no": "佐賀県指令5杵保福第76号",
      "license_date": "2023-05-31",
      "expire_date": "2029-05-31"
    },
    {
      "name": "スターバックスコーヒー蔦屋書店武雄市図書館店",
      "name_kana": "スターバックスコーヒーツタヤショテンタケオシトショカンテン",
      "business_type": "⑬ その他の食料・飲料販売業",
      "address": "佐賀県武雄市武雄町武雄5304－1",
      "lat": 33.188804,
      "lng": 130.022852,
      "geocoding_level": null,
      "phone": "0954200313",
      "license_no": "",
      "license_date": null,
      "expire_date": null
    },
    {
      "name": "奥武雄温泉　風の森",
      "name_kana": "オクタケオオンセンカゼノモリ",
      "business_type": "① 飲食店営業",
      "address": "佐賀県武雄市西川登町小田志17275",
      "lat": 33.12317,
      "lng": 129.978668,
      "geocoding_level": null,
      "phone": "",
      "license_no": "佐賀県指令６杵保福第93号",
      "license_date": "2024-05-31",
      "expire_date": "2030-05-31"
    },
    {
      "name": "肉のゴーマルイチ",
      "name_kana": "ニクノゴーマルイチ",
      "business_type": "① 飲食店営業",
      "address": "佐賀県武雄市北方町大字大崎２０８２－１４",
      "lat": 33.22338,
      "lng": 130.056401,
      "geocoding_level": null,
      "phone": "",
      "license_no": "佐賀県指令３杵保福第211号",
      "license_date": "2021-09-27",
      "expire_date": "2028-05-31"
    },
    {
      "name": "肉のゴーマルイチ",
      "name_kana": "ニクノゴーマルイチ",
      "business_type": "③ 食肉販売業",
      "address": "佐賀県武雄市北方町大字大崎２０８２－１４",
      "lat": 33.22338,
      "lng": 130.056401,
      "geocoding_level": null,
      "phone": "",
      "license_no": "佐賀県指令３杵保福第210号",
      "license_date": "2021-09-27",
      "expire_date": "2028-05-31"
    },
    {
      "name": "北方温泉四季の里　七彩の湯　大浴場",
      "name_kana": "キタガタオンセンシキノサト  ナナイロノユ　ダイヨクジョウ",
      "business_type": "⑫ 自動販売機による販売業（コップ式自動販売機（自動洗浄・屋内設置）及び営業許可の対象となる自動販売機を除く）",
      "address": "佐賀県武雄市北方町大崎４３００－１",
      "lat": 33.220346,
      "lng": 130.056356,
      "geocoding_level": null,
      "phone": "",
      "license_no": "",
      "license_date": null,
      "expire_date": null
    },
    {
      "name": "ケーズデンキ武雄店",
      "name_kana": "ケーズデンキタケオテン",
      "business_type": "⑫ 自動販売機による販売業（コップ式自動販売機（自動洗浄・屋内設置）及び営業許可の対象となる自動販売機を除く）",
      "address": "佐賀県武雄市武雄町富岡１２６９７",
      "lat": 33.202421,
      "lng": 130.038482,
      "geocoding_level": null,
      "phone": "0954-20-1550",
      "license_no": "",
      "license_date": null,
      "expire_date": null
    },
    {
      "name": "モスバーガー武雄店",
      "name_kana": "モスバーガータケオテン",
      "business_type": "⑬ その他の食料・飲料販売業",
      "address": "佐賀県武雄市武雄町富岡２７７番地",
      "lat": 33.205187,
      "lng": 130.017156,
      "geocoding_level": null,
      "phone": "0954239300",
      "license_no": "",
      "license_date": null,
      "expire_date": null
    },
    {
      "name": "花島保育園",
      "name_kana": "ハナシマホイクエン",
      "business_type": "㉖ 集団給食施設",
      "address": "佐賀県武雄市武雄町永島１４８００－５",
      "lat": 33.189501,
      "lng": 130.035902,
      "geocoding_level": null,
      "phone": "0954-23-0588",
      "license_no": "",
      "license_date": null,
      "expire_date": null
    },
    {
      "name": "工房ピュアハート",
      "name_kana": "コウボウピュアハート",
      "business_type": "⑪ 菓子製造業",
      "address": "佐賀県武雄市東川登町永野7803番地1",
      "lat": 33.17252,
      "lng": 129.99983,
      "geocoding_level": null,
      "phone": "",
      "license_no": "佐賀県指令６杵保福第168号",
      "license_date": "2024-05-31",
      "expire_date": "2030-05-31"
    },
    {
      "name": "神六亭",
      "name_kana": "ジンロクテイ",
      "business_type": "⑬ その他の食料・飲料販売業",
      "address": "佐賀県武雄市山内町三間坂甲13915ｰ4",
      "lat": 33.195165,
      "lng": 129.947902,
      "geocoding_level": null,
      "phone": "",
      "license_no": "",
      "license_date": null,
      "expire_date": null
    },
    {
      "name": "スマイル",
      "name_kana": "スマイル",
      "business_type": "③ 食肉販売業",
      "address": "佐賀県武雄市山内町三間坂甲14710番地",
      "lat": 33.192461,
      "lng": 129.95813,
      "geocoding_level": null,
      "phone": "0954-45-5320",
      "license_no": "佐賀県指令6杵保福第7号",
      "license_date": "2024-04-04",
      "expire_date": "2030-05-31"
    },
    {
      "name": "ファミリーマート北方大崎店",
      "name_kana": "ファミリーマートキタガタオオサキテン",
      "business_type": "① 飲食店営業",
      "address": "佐賀県武雄市北方町大崎1801-1",
      "lat": 33.220346,
      "lng": 130.056356,
      "geocoding_level": null,
      "phone": "",
      "license_no": "佐賀県指令６杵保福第62号",
      "license_date": "2024-05-31",
      "expire_date": "2030-05-31"
    },
    {
      "name": "楽園計画株式会社",
      "name_kana": "ラクエンケイカク",
      "business_type": "⑬ その他の食料・飲料販売業",
      "address": "佐賀県武雄市武雄町大字武雄4100",
      "lat": 33.182629,
      "lng": 130.016074,
      "geocoding_level": null,
      "phone": "",
      "license_no": "",
      "license_date": null,
      "expire_date": null
    },
    {
      "name": "移動スーパーとくし丸",
      "name_kana": "イドウスーパートクシマル",
      "business_type": "⑨ 通信販売・訪問販売による販売業",
      "address": "佐賀県武雄市西川登町大字神六県内一円",
      "lat": 33.139906,
      "lng": 129.965833,
      "geocoding_level": null,
      "phone": "08017076109",
      "license_no": "",
      "license_date": null,
      "expire_date": null
    },
    {
      "name": "ケンタッキーフライドチキンアクロスプラザ武雄店",
      "name_kana": "ケンタッキーフライドチキンアクロスプラザタケオテン",
      "business_type": "⑬ その他の食料・飲料販売業",
      "address": "佐賀県武雄市武雄町富岡12516",
      "lat": 33.198808,
      "lng": 130.03492,
      "geocoding_level": null,
      "phone": "0954-20-0005",
      "license_no": "",
      "license_date": null,
      "expire_date": null
    },
    {
      "name": "ドラッグコスモス武雄店",
      "name_kana": "ドラッグコスモスタケオテン",
      "business_type": "⑪ 百貨店、総合スーパー",
      "address": "佐賀県武雄市武雄町富岡１２５２０－２",
      "lat": 33.199602,
      "lng": 130.035385,
      "geocoding_level": null,
      "phone": "0954-20-1300",
      "license_no": "",
      "license_date": null,
      "expire_date": null
    },
    {
      "name": "ドラッグコスモス下西山店",
      "name_kana": "ドラッグコスモスシモニシヤマテン",
      "business_type": "⑪ 百貨店、総合スーパー",
      "address": "佐賀県武雄市武雄町武雄5737",
      "lat": 33.18972,
      "lng": 130.013507,
      "geocoding_level": null,
      "phone": "0954-26-8060",
      "license_no": "",
      "license_date": null,
      "expire_date": null
    },
    {
      "name": "ドラッグコスモス武雄北方店",
      "name_kana": "ドラッグコスモスタケオキタガタテン",
      "business_type": "⑪ 百貨店、総合スーパー",
      "address": "佐賀県武雄市北方町志久2042-5",
      "lat": 33.220609,
      "lng": 130.062521,
      "geocoding_level": null,
      "phone": "0954-27-8900",
      "license_no": "",
      "license_date": null,
      "expire_date": null
    },
    {
      "name": "すき家　34号武雄店",
      "name_kana": "スキヤ　サンジュウヨンゴウタケオテン",
      "business_type": "⑬ その他の食料・飲料販売業",
      "address": "佐賀県武雄市武雄町昭和795-1",
      "lat": 33.193473,
      "lng": 130.026133,
      "geocoding_level": null,
      "phone": "",
      "license_no": "",
      "license_date": null,
      "expire_date": null
    },
    {
      "name": "すき家　34号武雄店",
      "name_kana": "スキヤ　サンジュウヨンゴウタケオテン",
      "business_type": "① 飲食店営業",
      "address": "佐賀県武雄市武雄町昭和795-1",
      "lat": 33.193473,
      "lng": 130.026133,
      "geocoding_level": null,
      "phone": "",
      "license_no": "佐賀県指令8杵保福第42号",
      "license_date": "2026-05-29",
      "expire_date": "2032-05-31"
    },
    {
      "name": "岩崎本舗",
      "name_kana": "イワサキホンポ",
      "business_type": "① 飲食店営業",
      "address": "佐賀県武雄市武雄町昭和 県内一円",
      "lat": 33.193473,
      "lng": 130.026133,
      "geocoding_level": null,
      "phone": "",
      "license_no": "佐賀県指令６杵保福第131号",
      "license_date": "2024-05-31",
      "expire_date": "2029-05-31"
    },
    {
      "name": "ゆめタウン武雄　ミスタードーナツ",
      "name_kana": "ユメタウンタケオ　ミスタードーナツ",
      "business_type": "⑬ その他の食料・飲料販売業",
      "address": "佐賀県武雄市武雄町4992 ゆめタウン武雄",
      "lat": 33.188743,
      "lng": 130.025011,
      "geocoding_level": null,
      "phone": "0954201477",
      "license_no": "",
      "license_date": null,
      "expire_date": null
    },
    {
      "name": "ありあけ酒店",
      "name_kana": "アリアケサケテン",
      "business_type": "① 飲食店営業",
      "address": "佐賀県武雄市武雄町昭和 鹿島市一円",
      "lat": 33.193473,
      "lng": 130.026133,
      "geocoding_level": null,
      "phone": "",
      "license_no": "佐賀県指令６杵保福第141号",
      "license_date": "2024-05-31",
      "expire_date": "2029-05-31"
    },
    {
      "name": "ホームプラザナフコ　武雄店",
      "name_kana": "ホームプラザナフコ　タケオテン",
      "business_type": "⑬ その他の食料・飲料販売業",
      "address": "佐賀県武雄市武雄町大字武雄３９２１番地",
      "lat": 33.190138,
      "lng": 130.010976,
      "geocoding_level": null,
      "phone": "0954-22-0725",
      "license_no": "",
      "license_date": null,
      "expire_date": null
    },
    {
      "name": "スマイル",
      "name_kana": "スマイル",
      "business_type": "④ 魚介類販売業",
      "address": "佐賀県武雄市山内町大字三間坂甲14710番地",
      "lat": 33.192461,
      "lng": 129.95813,
      "geocoding_level": null,
      "phone": "",
      "license_no": "佐賀県指令6杵保福第165号",
      "license_date": "2024-05-31",
      "expire_date": "2030-05-31"
    },
    {
      "name": "焼肉　松阪屋",
      "name_kana": "ヤキニク　マツザカヤ",
      "business_type": "① 飲食店営業",
      "address": "佐賀県武雄市武雄町富岡８５５０－１",
      "lat": 33.197998,
      "lng": 130.024921,
      "geocoding_level": null,
      "phone": "0954-23-6604",
      "license_no": "佐賀県指令３杵保福第４１４号",
      "license_date": "2022-01-07",
      "expire_date": "2028-05-31"
    },
    {
      "name": "焼肉　松阪屋",
      "name_kana": "ヤキニク　マツザカヤ",
      "business_type": "③ 食肉販売業",
      "address": "佐賀県武雄市大字武雄町富岡８５５０－１",
      "lat": 33.197998,
      "lng": 130.024921,
      "geocoding_level": null,
      "phone": "0954-23-6604",
      "license_no": "佐賀県指令３杵保福第４３１号",
      "license_date": "2022-02-04",
      "expire_date": "2028-05-31"
    },
    {
      "name": "RougeⅡ",
      "name_kana": "ルージュツー",
      "business_type": "① 飲食店営業",
      "address": "佐賀県武雄市武雄町昭和 県内一円",
      "lat": 33.193473,
      "lng": 130.026133,
      "geocoding_level": null,
      "phone": "",
      "license_no": "佐賀県指令６杵保福第138号",
      "license_date": "2024-05-31",
      "expire_date": "2029-05-31"
    },
    {
      "name": "長崎からあげ初代たかまさ",
      "name_kana": "ナガサキカラアゲショダイタカマサ",
      "business_type": "① 飲食店営業",
      "address": "佐賀県武雄市武雄町昭和 県内一円",
      "lat": 33.193473,
      "lng": 130.026133,
      "geocoding_level": null,
      "phone": "",
      "license_no": "佐賀県指令６杵保福第190号",
      "license_date": "2024-06-27",
      "expire_date": "2030-05-31"
    },
    {
      "name": "キヨスク新武雄温泉",
      "name_kana": "キヨスクシンタケオオンセン",
      "business_type": "② 食肉販売業（包装済みの食肉のみの販売）",
      "address": "佐賀県武雄市武雄町富岡８２６０JR武雄温泉駅構内",
      "lat": 33.196354,
      "lng": 130.023191,
      "geocoding_level": null,
      "phone": "",
      "license_no": "",
      "license_date": null,
      "expire_date": null
    },
    {
      "name": "キヨスク新武雄温泉",
      "name_kana": "キヨスクシンタケオオンセン",
      "business_type": "③ 乳類販売業",
      "address": "佐賀県武雄市武雄町富岡８２６０JR武雄温泉駅構内",
      "lat": 33.196354,
      "lng": 130.023191,
      "geocoding_level": null,
      "phone": "",
      "license_no": "",
      "license_date": null,
      "expire_date": null
    },
    {
      "name": "キヨスク新武雄温泉",
      "name_kana": "キヨスクシンタケオオンセン",
      "business_type": "⑬ その他の食料・飲料販売業",
      "address": "佐賀県武雄市武雄町富岡８２６０JR武雄温泉駅構内",
      "lat": 33.196354,
      "lng": 130.023191,
      "geocoding_level": null,
      "phone": "",
      "license_no": "",
      "license_date": null,
      "expire_date": null
    },
    {
      "name": "Ｍａｈａｌｏ",
      "name_kana": "マハロ",
      "business_type": "① 飲食店営業",
      "address": "佐賀県武雄市武雄町昭和 県内一円",
      "lat": 33.193473,
      "lng": 130.026133,
      "geocoding_level": null,
      "phone": "",
      "license_no": "佐賀県指令３杵保福第５３２号",
      "license_date": "2022-03-18",
      "expire_date": "2027-11-30"
    },
    {
      "name": "かねすえキッチン",
      "name_kana": "カネスエキッチン",
      "business_type": "① 飲食店営業",
      "address": "佐賀県武雄市武雄町昭和265 県内一円",
      "lat": 33.194734,
      "lng": 130.027936,
      "geocoding_level": null,
      "phone": "",
      "license_no": "佐賀県指令5杵保福第427号",
      "license_date": "2023-12-08",
      "expire_date": "2029-05-31"
    },
    {
      "name": "かねすえキッチン",
      "name_kana": "カネスエキッチン",
      "business_type": "⑬ その他の食料・飲料販売業",
      "address": "佐賀県武雄市武雄町昭和265 県内一円",
      "lat": 33.194734,
      "lng": 130.027936,
      "geocoding_level": null,
      "phone": "",
      "license_no": "",
      "license_date": null,
      "expire_date": null
    },
    {
      "name": "創作キッチンＲａｎａ",
      "name_kana": "ソウサクキッチンラーナ",
      "business_type": "① 飲食店営業",
      "address": "佐賀県武雄市武雄町昭和 県内一円",
      "lat": 33.193473,
      "lng": 130.026133,
      "geocoding_level": null,
      "phone": "",
      "license_no": "佐賀県指令５杵保福第３５号",
      "license_date": "2023-05-11",
      "expire_date": "2028-05-31"
    },
    {
      "name": "創作キッチンRana",
      "name_kana": "ソウサクキッチンラーナ",
      "business_type": "⑥ 弁当販売業",
      "address": "佐賀県武雄市武雄町昭和 県内一円",
      "lat": 33.193473,
      "lng": 130.026133,
      "geocoding_level": null,
      "phone": "",
      "license_no": "",
      "license_date": null,
      "expire_date": null
    },
    {
      "name": "創作キッチンRana",
      "name_kana": "ソウサクキッチンラーナ",
      "business_type": "⑬ その他の食料・飲料販売業",
      "address": "佐賀県武雄市武雄町昭和 県内一円",
      "lat": 33.193473,
      "lng": 130.026133,
      "geocoding_level": null,
      "phone": "",
      "license_no": "",
      "license_date": null,
      "expire_date": null
    },
    {
      "name": "合同会社蓮華　mimi3",
      "name_kana": "レンゲ　ミミスリー",
      "business_type": "① 飲食店営業",
      "address": "佐賀県武雄市武雄町昭和265 県内一円",
      "lat": 33.194734,
      "lng": 130.027936,
      "geocoding_level": null,
      "phone": "",
      "license_no": "佐賀県指令4杵保福第20号",
      "license_date": "2022-04-22",
      "expire_date": "2027-05-31"
    },
    {
      "name": "極丸水産",
      "name_kana": "キワマルスイサン",
      "business_type": "① 飲食店営業",
      "address": "佐賀県武雄市武雄町昭和 県内一円",
      "lat": 33.193473,
      "lng": 130.026133,
      "geocoding_level": null,
      "phone": "",
      "license_no": "佐賀県指令４杵保福第３６８号",
      "license_date": "2022-11-15",
      "expire_date": "2028-05-31"
    },
    {
      "name": "ケーズデンキ武雄店",
      "name_kana": "ケーズデンキタケオテン",
      "business_type": "③ 乳類販売業",
      "address": "佐賀県武雄市武雄町富岡12697",
      "lat": 33.202421,
      "lng": 130.038482,
      "geocoding_level": null,
      "phone": "0954-20-1550",
      "license_no": "",
      "license_date": null,
      "expire_date": null
    },
    {
      "name": "鶴橋キムチ　(黒岩商店)",
      "name_kana": "ツルハシキムチ　クロイワシヨウテン",
      "business_type": "⑬ その他の食料・飲料販売業",
      "address": "佐賀県武雄市武雄町武雄4992 　ゆめタウン武雄 1階村田屋横区画",
      "lat": 33.188736,
      "lng": 130.025108,
      "geocoding_level": null,
      "phone": "090-9070-0302",
      "license_no": "",
      "license_date": null,
      "expire_date": null
    },
    {
      "name": "神六園",
      "name_kana": "ジンロクエン",
      "business_type": "⑪ 菓子製造業",
      "address": "佐賀県武雄市山内町大字鳥海20269",
      "lat": 33.178493,
      "lng": 129.949404,
      "geocoding_level": null,
      "phone": "",
      "license_no": "佐賀県指令4杵保福第189号",
      "license_date": "2022-06-28",
      "expire_date": "2029-05-31"
    },
    {
      "name": "国際市場　金ちゃんチキン",
      "name_kana": "コクサイイチバ　キンチャンチキン",
      "business_type": "① 飲食店営業",
      "address": "佐賀県武雄市武雄町武雄4992　ゆめタウン武雄店1F",
      "lat": 33.188331,
      "lng": 130.025081,
      "geocoding_level": null,
      "phone": "",
      "license_no": "佐賀県指令4杵保福第201号",
      "license_date": "2022-07-14",
      "expire_date": "2029-05-31"
    },
    {
      "name": "まるてつ",
      "name_kana": "マルテツ",
      "business_type": "① 飲食店営業",
      "address": "佐賀県武雄市武雄町昭和265 県内一円",
      "lat": 33.194734,
      "lng": 130.027936,
      "geocoding_level": null,
      "phone": "",
      "license_no": "佐賀県指令５杵保福第521号",
      "license_date": "2024-03-11",
      "expire_date": "2029-11-30"
    },
    {
      "name": "まるてつ",
      "name_kana": "マルテツ",
      "business_type": "① 飲食店営業",
      "address": "佐賀県武雄市武雄町昭和265 県内一円",
      "lat": 33.194734,
      "lng": 130.027936,
      "geocoding_level": null,
      "phone": "0954-43-8010",
      "license_no": "佐賀県指令6杵保福第16号",
      "license_date": "2024-04-18",
      "expire_date": "2029-11-30"
    },
    {
      "name": "Renar",
      "name_kana": "ルノアール",
      "business_type": "① 飲食店営業",
      "address": "佐賀県武雄市武雄町大字富岡221番地 エタニティビル４F",
      "lat": 33.194214,
      "lng": 130.01882,
      "geocoding_level": null,
      "phone": "080-2038-4413",
      "license_no": "佐賀県指令5杵保福第452号",
      "license_date": "2024-01-23",
      "expire_date": "2030-05-31"
    },
    {
      "name": "株式会社峠の豆腐や若木屋",
      "name_kana": "トウゲノトウフヤワカキヤ",
      "business_type": "⑭ 清涼飲料水製造業",
      "address": "佐賀県武雄市若木町大字川古１０６番地５",
      "lat": 33.23983,
      "lng": 130.011068,
      "geocoding_level": null,
      "phone": "0954-26-2626",
      "license_no": "佐賀県指令４杵保福第２１７号",
      "license_date": "2022-08-03",
      "expire_date": "2029-05-31"
    },
    {
      "name": "TOMMY　BEEF",
      "name_kana": "トミービーフ",
      "business_type": "⑬ その他の食料・飲料販売業",
      "address": "佐賀県武雄市武雄町昭和２６５ 県内一円",
      "lat": 33.194734,
      "lng": 130.027936,
      "geocoding_level": null,
      "phone": "",
      "license_no": "",
      "license_date": null,
      "expire_date": null
    },
    {
      "name": "ゆめランチ",
      "name_kana": "ユメランチ",
      "business_type": "⑪ 菓子製造業",
      "address": "佐賀県武雄市武雄町大字富岡字門町１２４２２番地１",
      "lat": 33.205187,
      "lng": 130.017156,
      "geocoding_level": null,
      "phone": "0954-23-8870",
      "license_no": "佐賀県指令４杵保福第３０３号",
      "license_date": "2022-09-22",
      "expire_date": "2029-05-31"
    },
    {
      "name": "ゆめランチ",
      "name_kana": "ユメランチ",
      "business_type": "㉕ そうざい製造業",
      "address": "佐賀県武雄市武雄町大字富岡字門町１２４２２番地１",
      "lat": 33.205187,
      "lng": 130.017156,
      "geocoding_level": null,
      "phone": "0954-23-8870",
      "license_no": "佐賀県指令４杵保福第３０４号",
      "license_date": "2022-09-22",
      "expire_date": "2029-05-31"
    },
    {
      "name": "とのみの　HOKAO COFFEE",
      "name_kana": "トノミノ　ホカオ　コーヒー",
      "business_type": "⑬ その他の食料・飲料販売業",
      "address": "佐賀県武雄市山内町大字鳥海8219",
      "lat": 33.198955,
      "lng": 129.968841,
      "geocoding_level": null,
      "phone": "080-3980-8219",
      "license_no": "",
      "license_date": null,
      "expire_date": null
    },
    {
      "name": "のごみふれあいフェスタ",
      "name_kana": "ノゴミフレアイフェスタ",
      "business_type": "① 飲食店営業",
      "address": "佐賀県武雄市武雄町昭和 県内一円",
      "lat": 33.193473,
      "lng": 130.026133,
      "geocoding_level": null,
      "phone": "",
      "license_no": "佐賀県指令４杵保福第３２１号",
      "license_date": "2022-10-12",
      "expire_date": "2028-05-31"
    },
    {
      "name": "ALLIO",
      "name_kana": "アリオ",
      "business_type": "⑬ その他の食料・飲料販売業",
      "address": "佐賀県武雄市武雄町武雄5304-1 武雄図書館・歴史資料館",
      "lat": 33.188804,
      "lng": 130.022852,
      "geocoding_level": null,
      "phone": "0954200222",
      "license_no": "",
      "license_date": null,
      "expire_date": null
    },
    {
      "name": "星の華",
      "name_kana": "ホシノハナ",
      "business_type": "① 飲食店営業",
      "address": "佐賀県武雄市武雄町大字武雄３６８８番地",
      "lat": 33.184989,
      "lng": 130.012052,
      "geocoding_level": null,
      "phone": "0954-27-8530",
      "license_no": "佐賀県指令4杵保福第335号",
      "license_date": "2022-10-21",
      "expire_date": "2029-05-31"
    },
    {
      "name": "大崎こども園",
      "name_kana": "オオサキコドモエン",
      "business_type": "㉖ 集団給食施設",
      "address": "佐賀県武雄市北方町大崎1665番地3",
      "lat": 33.220346,
      "lng": 130.056356,
      "geocoding_level": null,
      "phone": "0954363282",
      "license_no": "",
      "license_date": null,
      "expire_date": null
    },
    {
      "name": "Bloom burger",
      "name_kana": "ブルームバーガー",
      "business_type": "① 飲食店営業",
      "address": "佐賀県武雄市武雄町昭和 県内一円",
      "lat": 33.193473,
      "lng": 130.026133,
      "geocoding_level": null,
      "phone": "",
      "license_no": "佐賀県指令５杵保福第556号",
      "license_date": "2024-03-28",
      "expire_date": "2029-05-31"
    },
    {
      "name": "RAKUYA",
      "name_kana": "ラクヤ",
      "business_type": "⑬ その他の食料・飲料販売業",
      "address": "佐賀県武雄市武雄町昭和県内一円",
      "lat": 33.193473,
      "lng": 130.026133,
      "geocoding_level": null,
      "phone": "",
      "license_no": "",
      "license_date": null,
      "expire_date": null
    },
    {
      "name": "５２４’ｓ　ｃｏｆｆｅｅ．＋ｏｎｅ",
      "name_kana": "コニシコーヒー　プラスワン",
      "business_type": "① 飲食店営業",
      "address": "佐賀県武雄市武雄町昭和 県内一円",
      "lat": 33.193473,
      "lng": 130.026133,
      "geocoding_level": null,
      "phone": "080-2692-3318",
      "license_no": "佐賀県指令５杵保福第229号",
      "license_date": "2023-09-04",
      "expire_date": "2029-05-31"
    },
    {
      "name": "５２４’ｓ　ｃｏｆｆｅｅ．＋ｏｎｅ",
      "name_kana": "コニシコーヒー　プラスワン",
      "business_type": "⑬ その他の食料・飲料販売業",
      "address": "佐賀県武雄市武雄町昭和 県内一円",
      "lat": 33.193473,
      "lng": 130.026133,
      "geocoding_level": null,
      "phone": "080-2692-3318",
      "license_no": "",
      "license_date": null,
      "expire_date": null
    },
    {
      "name": "５２４’ｓ　ｃｏｆｆｅｅ．＋ｏｎｅ",
      "name_kana": "コニシコーヒー　プラスワン",
      "business_type": "⑯ コーヒー製造・加工業（飲料の製造を除く。）",
      "address": "佐賀県武雄市武雄町昭和 県内一円",
      "lat": 33.193473,
      "lng": 130.026133,
      "geocoding_level": null,
      "phone": "080-2692-3318",
      "license_no": "",
      "license_date": null,
      "expire_date": null
    },
    {
      "name": "もみじ屋",
      "name_kana": "モミジヤ",
      "business_type": "⑬ その他の食料・飲料販売業",
      "address": "佐賀県武雄市武雄町昭和265 県内一円",
      "lat": 33.194734,
      "lng": 130.027936,
      "geocoding_level": null,
      "phone": "",
      "license_no": "",
      "license_date": null,
      "expire_date": null
    },
    {
      "name": "うれしの紅茶振興協議会",
      "name_kana": "ウレシノコウチャシンコウキョウギカイ",
      "business_type": "① 飲食店営業",
      "address": "佐賀県武雄市武雄町昭和 県内一円",
      "lat": 33.193473,
      "lng": 130.026133,
      "geocoding_level": null,
      "phone": "",
      "license_no": "佐賀県指令４杵保福第５０５号",
      "license_date": "2022-12-20",
      "expire_date": "2028-05-31"
    },
    {
      "name": "うれしの紅茶振興協議会",
      "name_kana": "ウレシノコウチャシンコウキョウギカイ",
      "business_type": "⑬ その他の食料・飲料販売業",
      "address": "佐賀県武雄市武雄町昭和 県内一円",
      "lat": 33.193473,
      "lng": 130.026133,
      "geocoding_level": null,
      "phone": "",
      "license_no": "",
      "license_date": null,
      "expire_date": null
    },
    {
      "name": "YOU　KITCHEN",
      "name_kana": "ユウ　キッチン",
      "business_type": "① 飲食店営業",
      "address": "佐賀県武雄市武雄町昭和 県内一円",
      "lat": 33.193473,
      "lng": 130.026133,
      "geocoding_level": null,
      "phone": "",
      "license_no": "佐賀県指令４杵保福第５０７号",
      "license_date": "2022-12-27",
      "expire_date": "2028-02-29"
    },
    {
      "name": "YOU　KITCHEN　２",
      "name_kana": "ユウキッチンニ",
      "business_type": "① 飲食店営業",
      "address": "佐賀県武雄市武雄町昭和 県内一円",
      "lat": 33.193473,
      "lng": 130.026133,
      "geocoding_level": null,
      "phone": "",
      "license_no": "佐賀県指令６杵保福第321号",
      "license_date": "2024-10-23",
      "expire_date": "2030-02-28"
    },
    {
      "name": "YOU　KITCHEN　３",
      "name_kana": "ユウキッチンサン",
      "business_type": "① 飲食店営業",
      "address": "佐賀県武雄市武雄町昭和 県内一円",
      "lat": 33.193473,
      "lng": 130.026133,
      "geocoding_level": null,
      "phone": "",
      "license_no": "佐賀県指令７杵保福第29号",
      "license_date": "2025-04-24",
      "expire_date": "2030-05-31"
    },
    {
      "name": "医療法人敬和会持田病院",
      "name_kana": "イリョウホウジンケイワカイモチダビョウイン",
      "business_type": "㉖ 集団給食施設",
      "address": "佐賀県武雄市武雄町武雄５８５８番地１",
      "lat": 33.189567,
      "lng": 130.009381,
      "geocoding_level": null,
      "phone": "0954223138",
      "license_no": "",
      "license_date": null,
      "expire_date": null
    },
    {
      "name": "株式会社一心　きむいち",
      "name_kana": "カブシキカイシャイッシン　キムイチ",
      "business_type": "⑬ その他の食料・飲料販売業",
      "address": "佐賀県武雄市武雄町武雄4992 ゆめタウン武雄　催事場",
      "lat": 33.189363,
      "lng": 130.025246,
      "geocoding_level": null,
      "phone": "",
      "license_no": "",
      "license_date": null,
      "expire_date": null
    },
    {
      "name": "chiiji",
      "name_kana": "チージ",
      "business_type": "⑬ その他の食料・飲料販売業",
      "address": "佐賀県武雄市武雄町昭和265 県内一円",
      "lat": 33.194734,
      "lng": 130.027936,
      "geocoding_level": null,
      "phone": "",
      "license_no": "",
      "license_date": null,
      "expire_date": null
    },
    {
      "name": "地域共生カフェ笑美屋",
      "name_kana": "チイキキョウセイカフェエミヤ",
      "business_type": "① 飲食店営業",
      "address": "佐賀県武雄市北方町大字大崎７６１－２",
      "lat": 33.231085,
      "lng": 130.047929,
      "geocoding_level": null,
      "phone": "",
      "license_no": "佐賀県指令４杵保福第５３１号",
      "license_date": "2023-02-10",
      "expire_date": "2029-05-31"
    },
    {
      "name": "TAKORU",
      "name_kana": "タコル",
      "business_type": "⑬ その他の食料・飲料販売業",
      "address": "佐賀県武雄市武雄町昭和 県内一円",
      "lat": 33.193473,
      "lng": 130.026133,
      "geocoding_level": null,
      "phone": "",
      "license_no": "",
      "license_date": null,
      "expire_date": null
    },
    {
      "name": "御食事処　がねび",
      "name_kana": "ガネビ",
      "business_type": "① 飲食店営業",
      "address": "佐賀県武雄市武雄町大字富岡7751-28",
      "lat": 33.195322,
      "lng": 130.018871,
      "geocoding_level": null,
      "phone": "",
      "license_no": "佐賀県指令6杵保福第67号",
      "license_date": "2024-05-31",
      "expire_date": "2030-05-31"
    },
    {
      "name": "御食事処　がねび",
      "name_kana": "ガネビ",
      "business_type": "㉕ そうざい製造業",
      "address": "佐賀県武雄市武雄町大字富岡7751-28",
      "lat": 33.195322,
      "lng": 130.018871,
      "geocoding_level": null,
      "phone": "",
      "license_no": "佐賀県指令6杵保福第174号",
      "license_date": "2024-05-31",
      "expire_date": "2030-05-31"
    },
    {
      "name": "サンキューハニー号",
      "name_kana": "サンキューハニーゴウ",
      "business_type": "① 飲食店営業",
      "address": "佐賀県武雄市武雄町昭和 県内一円",
      "lat": 33.193473,
      "lng": 130.026133,
      "geocoding_level": null,
      "phone": "",
      "license_no": "佐賀県指令４杵保福第６０６号",
      "license_date": "2023-03-08",
      "expire_date": "2028-08-31"
    },
    {
      "name": "⻄九州スバル　武雄店",
      "name_kana": "ニシキュウシュウスバル　タケオテン",
      "business_type": "⑦ 野菜果物販売業",
      "address": "佐賀県武雄市武雄町⼤字昭和88",
      "lat": 33.190253,
      "lng": 130.006895,
      "geocoding_level": null,
      "phone": "",
      "license_no": "",
      "license_date": null,
      "expire_date": null
    },
    {
      "name": "AOMOMO　KITCHEN",
      "name_kana": "アオモモ　キッチン",
      "business_type": "① 飲食店営業",
      "address": "佐賀県武雄市武雄町昭和 県内一円",
      "lat": 33.193473,
      "lng": 130.026133,
      "geocoding_level": null,
      "phone": "",
      "license_no": "佐賀県指令５杵保福第８号",
      "license_date": "2023-04-12",
      "expire_date": "2028-05-31"
    },
    {
      "name": "おやつ屋シュークル",
      "name_kana": "オヤツヤシュークル",
      "business_type": "⑬ その他の食料・飲料販売業",
      "address": "佐賀県武雄市武雄町昭和265県内一円",
      "lat": 33.194734,
      "lng": 130.027936,
      "geocoding_level": null,
      "phone": "",
      "license_no": "",
      "license_date": null,
      "expire_date": null
    },
    {
      "name": "アバディーン",
      "name_kana": "アバディーン",
      "business_type": "① 飲食店営業",
      "address": "佐賀県武雄市武雄町昭和 県内一円",
      "lat": 33.193473,
      "lng": 130.026133,
      "geocoding_level": null,
      "phone": "",
      "license_no": "佐賀県指令５杵保福第３４号",
      "license_date": "2023-04-26",
      "expire_date": "2028-05-31"
    },
    {
      "name": "china　kitchen　蘭蘭",
      "name_kana": "チャイナキッチンランラン",
      "business_type": "⑪ 菓子製造業",
      "address": "佐賀県武雄市朝日町甘久2233-2",
      "lat": 33.211174,
      "lng": 130.046948,
      "geocoding_level": null,
      "phone": "",
      "license_no": "佐賀県指令5杵保福第38号",
      "license_date": "2023-05-15",
      "expire_date": "2029-05-31"
    },
    {
      "name": "白山どおり　Kaya",
      "name_kana": "ハクサンドオリ　カヤ",
      "business_type": "① 飲食店営業",
      "address": "佐賀県武雄市北方町大字志久3409-1",
      "lat": 33.221868,
      "lng": 130.071901,
      "geocoding_level": null,
      "phone": "",
      "license_no": "佐賀県指令５杵保福第56号",
      "license_date": "2023-05-30",
      "expire_date": "2029-05-31"
    },
    {
      "name": "タイヤキBOY　STAND",
      "name_kana": "タイヤキボーイスタンド",
      "business_type": "① 飲食店営業",
      "address": "佐賀県武雄市武雄町昭和 県内一円",
      "lat": 33.193473,
      "lng": 130.026133,
      "geocoding_level": null,
      "phone": "",
      "license_no": "佐賀県指令５杵保福第184号",
      "license_date": "2023-07-12",
      "expire_date": "2029-05-31"
    },
    {
      "name": "ヘルシー武雄薬局",
      "name_kana": "ヘルシータケオヤッキョク",
      "business_type": "⑮ いわゆる健康食品の製造・加工業",
      "address": "佐賀県武雄市武雄町昭和8-8",
      "lat": 33.192879,
      "lng": 130.023508,
      "geocoding_level": null,
      "phone": "",
      "license_no": "",
      "license_date": null,
      "expire_date": null
    },
    {
      "name": "HAMA　BAR",
      "name_kana": "ハマバー",
      "business_type": "① 飲食店営業",
      "address": "佐賀県武雄市武雄町昭和 県内一円",
      "lat": 33.193473,
      "lng": 130.026133,
      "geocoding_level": null,
      "phone": "",
      "license_no": "佐賀県指令５杵保福第210号",
      "license_date": "2023-08-04",
      "expire_date": "2029-05-31"
    },
    {
      "name": "ボンジュルネ焼菓子店",
      "name_kana": "ボンジュルネヤキガシテン",
      "business_type": "⑪ 菓子製造業",
      "address": "佐賀県武雄市山内町大字鳥海19211-1",
      "lat": 33.179986,
      "lng": 129.954488,
      "geocoding_level": null,
      "phone": "090-5926-9000",
      "license_no": "佐賀県指令５杵保福第２３７号",
      "license_date": "2023-09-08",
      "expire_date": "2030-05-31"
    },
    {
      "name": "ボンジュルネ焼菓子店",
      "name_kana": "ボンジュルネヤキガシテン",
      "business_type": "⑬ その他の食料・飲料販売業",
      "address": "佐賀県武雄市山内町大字鳥海19211-1",
      "lat": 33.179986,
      "lng": 129.954488,
      "geocoding_level": null,
      "phone": "090-5926-9000",
      "license_no": "",
      "license_date": null,
      "expire_date": null
    },
    {
      "name": "Crape Merrily",
      "name_kana": "クレープ　メリリー",
      "business_type": "① 飲食店営業",
      "address": "佐賀県武雄市武雄町昭和 県内一円",
      "lat": 33.193473,
      "lng": 130.026133,
      "geocoding_level": null,
      "phone": "090-3410-0336",
      "license_no": "佐賀県指令５杵保福第331号",
      "license_date": "2023-11-06",
      "expire_date": "2029-05-31"
    },
    {
      "name": "ＯＮＤ　ＣＡＦＥ",
      "name_kana": "オンド　カフェ",
      "business_type": "① 飲食店営業",
      "address": "佐賀県武雄市武雄町大字永島18202番地1",
      "lat": 33.177926,
      "lng": 130.03573,
      "geocoding_level": null,
      "phone": "",
      "license_no": "佐賀県指令５杵保福第421号",
      "license_date": "2023-12-06",
      "expire_date": "2030-05-31"
    },
    {
      "name": "炭火　ＳＵＭＩＫＡ",
      "name_kana": "スミカ",
      "business_type": "① 飲食店営業",
      "address": "佐賀県武雄市武雄町大字永島18091",
      "lat": 33.17697,
      "lng": 130.036257,
      "geocoding_level": null,
      "phone": "0954-23-8151",
      "license_no": "佐賀県指令５杵保福第356号",
      "license_date": "2023-11-24",
      "expire_date": "2030-05-31"
    },
    {
      "name": "炭火　ＳＵＭＩＫＡ",
      "name_kana": "スミカ",
      "business_type": "⑪ 菓子製造業",
      "address": "佐賀県武雄市武雄町大字永島18091",
      "lat": 33.17697,
      "lng": 130.036257,
      "geocoding_level": null,
      "phone": "0954-23-8151",
      "license_no": "佐賀県指令５杵保福第357号",
      "license_date": "2023-11-24",
      "expire_date": "2030-05-31"
    },
    {
      "name": "OND　CAFE",
      "name_kana": "オンドカフェ",
      "business_type": "⑦ 野菜果物販売業",
      "address": "佐賀県武雄市武雄町大字永島18202番地1",
      "lat": 33.177926,
      "lng": 130.03573,
      "geocoding_level": null,
      "phone": "",
      "license_no": "",
      "license_date": null,
      "expire_date": null
    },
    {
      "name": "OND　CAFE",
      "name_kana": "オンドカフェ",
      "business_type": "⑬ その他の食料・飲料販売業",
      "address": "佐賀県武雄市武雄町大字永島18202番地1",
      "lat": 33.177926,
      "lng": 130.03573,
      "geocoding_level": null,
      "phone": "",
      "license_no": "",
      "license_date": null,
      "expire_date": null
    },
    {
      "name": "ＯＮＤ　ＣＡＦＥ",
      "name_kana": "オンドカフェ",
      "business_type": "⑬ その他の食料・飲料販売業",
      "address": "佐賀県武雄市武雄町昭和 県内一円",
      "lat": 33.193473,
      "lng": 130.026133,
      "geocoding_level": null,
      "phone": "",
      "license_no": "",
      "license_date": null,
      "expire_date": null
    },
    {
      "name": "白川製茶園",
      "name_kana": "シラカワセイチャエン",
      "business_type": "① 飲食店営業",
      "address": "佐賀県武雄市武雄町昭和 県内一円",
      "lat": 33.193473,
      "lng": 130.026133,
      "geocoding_level": null,
      "phone": "080-8586-0334",
      "license_no": "佐賀県指令５杵保福第323号",
      "license_date": "2023-10-20",
      "expire_date": "2029-05-31"
    },
    {
      "name": "わか菜",
      "name_kana": "ワカナ",
      "business_type": "㉕ そうざい製造業",
      "address": "佐賀県武雄市武雄町昭和39-12 サンコーポ3-102",
      "lat": 33.196859,
      "lng": 130.028496,
      "geocoding_level": null,
      "phone": "",
      "license_no": "佐賀県指令5杵保福第第334号",
      "license_date": "2023-11-06",
      "expire_date": "2030-05-31"
    },
    {
      "name": "わか菜",
      "name_kana": "ワカナ",
      "business_type": "⑥ 弁当販売業",
      "address": "佐賀県武雄市武雄町昭和265 県内一円",
      "lat": 33.194734,
      "lng": 130.027936,
      "geocoding_level": null,
      "phone": "",
      "license_no": "",
      "license_date": null,
      "expire_date": null
    },
    {
      "name": "ニャントト屋",
      "name_kana": "ニャントトヤ",
      "business_type": "⑬ その他の食料・飲料販売業",
      "address": "佐賀県武雄市武雄町昭和265 県内一円",
      "lat": 33.194734,
      "lng": 130.027936,
      "geocoding_level": null,
      "phone": "",
      "license_no": "",
      "license_date": null,
      "expire_date": null
    },
    {
      "name": "ロード　エクスプレス",
      "name_kana": "ロード　エクスプレス",
      "business_type": "① 飲食店営業",
      "address": "佐賀県武雄市武雄町昭和265 県内一円",
      "lat": 33.194734,
      "lng": 130.027936,
      "geocoding_level": null,
      "phone": "",
      "license_no": "佐賀県指令５杵保福第339号",
      "license_date": "2023-11-08",
      "expire_date": "2029-08-31"
    },
    {
      "name": "カラオケ喫茶　谺",
      "name_kana": "カラオケキッサ　コダマ",
      "business_type": "① 飲食店営業",
      "address": "佐賀県武雄市武内町大字梅野乙12502-1",
      "lat": 33.2141,
      "lng": 129.963265,
      "geocoding_level": null,
      "phone": "",
      "license_no": "佐賀県指令5杵保福第363号",
      "license_date": "2023-12-01",
      "expire_date": "2030-05-31"
    },
    {
      "name": "やぶれ",
      "name_kana": "ヤブレ",
      "business_type": "① 飲食店営業",
      "address": "佐賀県武雄市武雄町大字富岡7772－5 中町ビル101号",
      "lat": 33.195594,
      "lng": 130.018562,
      "geocoding_level": null,
      "phone": "09037182519",
      "license_no": "佐賀県指令5杵保福第366号",
      "license_date": "2023-12-01",
      "expire_date": "2030-05-31"
    },
    {
      "name": "大正館Café",
      "name_kana": "タイショウカンカフェ",
      "business_type": "① 飲食店営業",
      "address": "佐賀県武雄市武雄町武雄7385番地",
      "lat": 33.196629,
      "lng": 130.01534,
      "geocoding_level": null,
      "phone": "",
      "license_no": "佐賀県指令5杵保福第424号",
      "license_date": "2023-12-07",
      "expire_date": "2030-05-31"
    },
    {
      "name": "すみと",
      "name_kana": "スミト",
      "business_type": "① 飲食店営業",
      "address": "佐賀県武雄市武雄町大字昭和9番地1 TMGビル1階",
      "lat": 33.193389,
      "lng": 130.022807,
      "geocoding_level": null,
      "phone": "080-1737-2019",
      "license_no": "佐賀県指令5杵保福第431号",
      "license_date": "2023-12-13",
      "expire_date": "2030-05-31"
    },
    {
      "name": "ご当地グルメセレクション佐賀武雄店",
      "name_kana": "ゴトウチグルメセレクションサガタケテン",
      "business_type": "⑬ その他の食料・飲料販売業",
      "address": "佐賀県武雄市朝日町甘久1457-4",
      "lat": 33.207109,
      "lng": 130.040244,
      "geocoding_level": null,
      "phone": "",
      "license_no": "",
      "license_date": null,
      "expire_date": null
    },
    {
      "name": "Wing Factory",
      "name_kana": "ウイング　ファクトリー",
      "business_type": "① 飲食店営業",
      "address": "佐賀県武雄市武雄町昭和265 県内一円",
      "lat": 33.194734,
      "lng": 130.027936,
      "geocoding_level": null,
      "phone": "080-1775-6743",
      "license_no": "佐賀県指令5杵保福第442号",
      "license_date": "2024-01-15",
      "expire_date": "2029-11-30"
    },
    {
      "name": "武雄蓬莱町　雲水",
      "name_kana": "タケオホウライマチウンスイ",
      "business_type": "① 飲食店営業",
      "address": "佐賀県武雄市武雄町富岡7484-3",
      "lat": 33.19695,
      "lng": 130.015523,
      "geocoding_level": null,
      "phone": "080-9301-5297",
      "license_no": "佐賀県指令５杵保福第458号",
      "license_date": "2024-02-01",
      "expire_date": "2030-05-31"
    },
    {
      "name": "とあり",
      "name_kana": "トアリ",
      "business_type": "⑬ その他の食料・飲料販売業",
      "address": "佐賀県武雄市武雄町昭和265 県内一円",
      "lat": 33.194734,
      "lng": 130.027936,
      "geocoding_level": null,
      "phone": "",
      "license_no": "",
      "license_date": null,
      "expire_date": null
    },
    {
      "name": "合同会社ヤマリュウ商事",
      "name_kana": "ヤマリュウショウジ",
      "business_type": "⑦ 野菜果物販売業",
      "address": "佐賀県武雄市武雄町大字武雄5590番地22",
      "lat": 33.190304,
      "lng": 130.01582,
      "geocoding_level": null,
      "phone": "",
      "license_no": "",
      "license_date": null,
      "expire_date": null
    },
    {
      "name": "合同会社ヤマリュウ商事",
      "name_kana": "ヤマリュウショウジ",
      "business_type": "⑰ 農産保存食料品製造・加工業",
      "address": "佐賀県武雄市武雄町大字武雄5590番地22",
      "lat": 33.190304,
      "lng": 130.01582,
      "geocoding_level": null,
      "phone": "",
      "license_no": "",
      "license_date": null,
      "expire_date": null
    },
    {
      "name": "焼肉どすこい",
      "name_kana": "ヤキニクドスコイ",
      "business_type": "① 飲食店営業",
      "address": "佐賀県武雄市武雄町大字富岡7771番地8 平成ビル1F",
      "lat": 33.19551,
      "lng": 130.018271,
      "geocoding_level": null,
      "phone": "",
      "license_no": "佐賀県指令６杵保福第105号",
      "license_date": "2024-05-31",
      "expire_date": "2030-05-31"
    },
    {
      "name": "ダイレックス北方店",
      "name_kana": "ダイレックスキタガタテン",
      "business_type": "⑪ 百貨店、総合スーパー",
      "address": "佐賀県武雄市北方町大字志久１５６８－３",
      "lat": 33.218736,
      "lng": 130.066401,
      "geocoding_level": null,
      "phone": "0954-36-0570",
      "license_no": "",
      "license_date": null,
      "expire_date": null
    },
    {
      "name": "ダイレックス武雄店",
      "name_kana": "ダイレックスタケオテン",
      "business_type": "⑪ 百貨店、総合スーパー",
      "address": "佐賀県武雄市武雄町大字武雄4956",
      "lat": 33.190351,
      "lng": 130.024431,
      "geocoding_level": null,
      "phone": "0954-22-6211",
      "license_no": "",
      "license_date": null,
      "expire_date": null
    },
    {
      "name": "そばの実　咲",
      "name_kana": "ソバノミ　サキ",
      "business_type": "① 飲食店営業",
      "address": "佐賀県武雄市武雄町橘町片白9023-1",
      "lat": 33.18731,
      "lng": 130.059092,
      "geocoding_level": null,
      "phone": "",
      "license_no": "佐賀県指令６杵保福第240号",
      "license_date": "2024-08-21",
      "expire_date": "2031-05-31"
    },
    {
      "name": "Fluffy",
      "name_kana": "フラフィー",
      "business_type": "⑦ 野菜果物販売業",
      "address": "佐賀県武雄市武雄町昭和 県内一円",
      "lat": 33.193473,
      "lng": 130.026133,
      "geocoding_level": null,
      "phone": "",
      "license_no": "",
      "license_date": null,
      "expire_date": null
    },
    {
      "name": "Fluffy",
      "name_kana": "フラフィー",
      "business_type": "⑬ その他の食料・飲料販売業",
      "address": "佐賀県武雄市武雄町昭和 県内一円",
      "lat": 33.193473,
      "lng": 130.026133,
      "geocoding_level": null,
      "phone": "",
      "license_no": "",
      "license_date": null,
      "expire_date": null
    },
    {
      "name": "ばってん餃子",
      "name_kana": "バッテンギョウザ",
      "business_type": "① 飲食店営業",
      "address": "佐賀県武雄市武雄町昭和265 県内一円",
      "lat": 33.194734,
      "lng": 130.027936,
      "geocoding_level": null,
      "phone": "",
      "license_no": "佐賀県指令6杵保福第42号",
      "license_date": "2024-05-16",
      "expire_date": "2029-05-31"
    },
    {
      "name": "Aスタ",
      "name_kana": "エースタ",
      "business_type": "① 飲食店営業",
      "address": "佐賀県武雄市武雄町昭和 県内一円",
      "lat": 33.193473,
      "lng": 130.026133,
      "geocoding_level": null,
      "phone": "",
      "license_no": "佐賀県指令６杵保福第121号",
      "license_date": "2024-05-31",
      "expire_date": "2029-05-31"
    },
    {
      "name": "エルミタージュ",
      "name_kana": "エルミタージュ",
      "business_type": "① 飲食店営業",
      "address": "佐賀県武雄市武雄町富岡7763-5 飛鳥ビル2F　1号",
      "lat": 33.194487,
      "lng": 130.019371,
      "geocoding_level": null,
      "phone": "0954-23-5988",
      "license_no": "佐賀県指令6杵保福第81号",
      "license_date": "2024-05-31",
      "expire_date": "2030-05-31"
    },
    {
      "name": "有限会社牟田酒造場",
      "name_kana": "ムタシュゾウジョウ",
      "business_type": "㉙ 漬物製造業",
      "address": "佐賀県武雄市若木町大字本部4588",
      "lat": 33.261404,
      "lng": 129.97304,
      "geocoding_level": null,
      "phone": "0954-26-2001",
      "license_no": "佐賀県指令6杵保福第191号",
      "license_date": "2024-06-27",
      "expire_date": "2031-05-31"
    },
    {
      "name": "EL COLOMBIANO",
      "name_kana": "エル　コロンビアーノ",
      "business_type": "① 飲食店営業",
      "address": "佐賀県武雄市武雄町武雄7266-28",
      "lat": 33.194401,
      "lng": 130.016339,
      "geocoding_level": null,
      "phone": "",
      "license_no": "佐賀県指令６杵保福第226号",
      "license_date": "2024-07-30",
      "expire_date": "2031-05-31"
    },
    {
      "name": "ケーブルワン・スポーツパーク",
      "name_kana": "ケーブルワン・スポーツパーク",
      "business_type": "⑬ その他の食料・飲料販売業",
      "address": "佐賀県武雄市武雄町大字武雄4866番地",
      "lat": 33.192637,
      "lng": 130.030391,
      "geocoding_level": null,
      "phone": "",
      "license_no": "",
      "license_date": null,
      "expire_date": null
    },
    {
      "name": "ぎんが倶楽部",
      "name_kana": "ギンガクラブ",
      "business_type": "⑯ コーヒー製造・加工業（飲料の製造を除く。）",
      "address": "佐賀県武雄市武雄町富岡9341-3",
      "lat": 33.198795,
      "lng": 130.017075,
      "geocoding_level": null,
      "phone": "",
      "license_no": "",
      "license_date": null,
      "expire_date": null
    },
    {
      "name": "ＯＮＤ　ＳＴＲＥＡＭ",
      "name_kana": "オンド　ストリーム",
      "business_type": "① 飲食店営業",
      "address": "佐賀県武雄市武雄町大字永島池ノ上18302",
      "lat": 33.185976,
      "lng": 130.036937,
      "geocoding_level": null,
      "phone": "0954-23-8151",
      "license_no": "佐賀県指令６杵保福第239号",
      "license_date": "2024-08-21",
      "expire_date": "2031-05-31"
    },
    {
      "name": "メリーランドタケオボウルわたがし自販機",
      "name_kana": "メリーランドタケオボウルワタガシジハンキ",
      "business_type": "⑫ 自動販売機による販売業（コップ式自動販売機（自動洗浄・屋内設置）及び営業許可の対象となる自動販売機を除く）",
      "address": "佐賀県武雄市甘久1331 メリーランドタケオボウル店内",
      "lat": 33.204065,
      "lng": 130.034822,
      "geocoding_level": null,
      "phone": "",
      "license_no": "",
      "license_date": null,
      "expire_date": null
    },
    {
      "name": "Dwarf Brewery",
      "name_kana": "ドワーフ ブルワリー",
      "business_type": "㉑ 酒類製造業",
      "address": "佐賀県武雄市朝日町大字中野字伏原10164番",
      "lat": 33.224063,
      "lng": 130.017156,
      "geocoding_level": null,
      "phone": "",
      "license_no": "佐賀県指令7杵保福第431号",
      "license_date": "2025-12-09",
      "expire_date": "2032-05-31"
    },
    {
      "name": "カニの武丸",
      "name_kana": "カニノタケマル",
      "business_type": "① 飲食店営業",
      "address": "佐賀県武雄市武雄町大字昭和19-5",
      "lat": 33.194877,
      "lng": 130.024182,
      "geocoding_level": null,
      "phone": "050-8883-6007",
      "license_no": "佐賀県指令６杵保福第295号",
      "license_date": "2024-09-25",
      "expire_date": "2031-05-31"
    },
    {
      "name": "武雄市図書館 ガーデンスペース",
      "name_kana": "タケオシトショカン ガーデンスペース",
      "business_type": "⑬ その他の食料・飲料販売業",
      "address": "佐賀県武雄市武雄町大字武雄5304番地1",
      "lat": 33.188804,
      "lng": 130.022852,
      "geocoding_level": null,
      "phone": "",
      "license_no": "",
      "license_date": null,
      "expire_date": null
    },
    {
      "name": "ビッグウッド㈱",
      "name_kana": "ビッグウッド",
      "business_type": "⑬ その他の食料・飲料販売業",
      "address": "佐賀県武雄市武雄町武雄4992 ゆめタウン武雄",
      "lat": 33.188743,
      "lng": 130.025011,
      "geocoding_level": null,
      "phone": "0954-22-3000",
      "license_no": "",
      "license_date": null,
      "expire_date": null
    },
    {
      "name": "株式会社九州トリシマ",
      "name_kana": "カブシキガイシャキュウシュウトリシマ",
      "business_type": "㉗ 器具、容器包装の製造・加工業（合成樹脂が使用された器具又は容器包装の製造、加工に限る。）",
      "address": "佐賀県武雄市若木町川古9857-13",
      "lat": 33.2515,
      "lng": 129.995601,
      "geocoding_level": null,
      "phone": "0954-26-3081",
      "license_no": "",
      "license_date": null,
      "expire_date": null
    },
    {
      "name": "コメリパワー武雄店",
      "name_kana": "コメリパワータケオテン",
      "business_type": "⑧ 米穀類販売業",
      "address": "佐賀県武雄市武雄町大字富岡１２７０４番地",
      "lat": 33.201294,
      "lng": 130.037099,
      "geocoding_level": null,
      "phone": "0954-26-8511",
      "license_no": "",
      "license_date": null,
      "expire_date": null
    }
  ]
}
