{
  "meta": {
    "updated": 1783568789,
    "sources": [
      {
        "source": "厚生労働省 食品衛生申請等システム（オープンデータ）",
        "license": "公共データ利用規約（第1.0版, PDL1.0）"
      }
    ]
  },
  "data": [
    {
      "name": "株式会社藤本商店",
      "name_kana": "カブシキカイシャフジモトショウテン",
      "business_type": "㉑ 製茶業",
      "address": "京都府木津川市山城町上狛東石垣外6番地2",
      "lat": 34.747096,
      "lng": 135.816425,
      "geocoding_level": null,
      "phone": "0774-86-3004",
      "license_no": "",
      "license_date": null,
      "expire_date": null
    },
    {
      "name": "ダイソー　京都木津店",
      "name_kana": "ダイソー　キョウトキヅテン",
      "business_type": "⑬ その他の食料・飲料販売業",
      "address": "京都府木津川市相楽小字丸塚３－１",
      "lat": 34.735093,
      "lng": 135.802952,
      "geocoding_level": null,
      "phone": "",
      "license_no": "",
      "license_date": null,
      "expire_date": null
    },
    {
      "name": "ダイソー　中村屋梅美台店",
      "name_kana": "ダイソー　ナカムラヤウメミダイテン",
      "business_type": "⑬ その他の食料・飲料販売業",
      "address": "京都府木津川市梅美台８－１－５",
      "lat": 34.71396,
      "lng": 135.834165,
      "geocoding_level": null,
      "phone": "",
      "license_no": "",
      "license_date": null,
      "expire_date": null
    },
    {
      "name": "コーナン木津店",
      "name_kana": "コーナンキヅテン",
      "business_type": "⑪ 百貨店、総合スーパー",
      "address": "京都府木津川市市坂宮の内19",
      "lat": 36.504085,
      "lng": 139.876487,
      "geocoding_level": null,
      "phone": "0774-71-8057",
      "license_no": "",
      "license_date": null,
      "expire_date": null
    },
    {
      "name": "スターバックスコーヒーイオンモール高の原店",
      "name_kana": "スターバックスコーヒーイオンモールタカノハラテン",
      "business_type": "⑬ その他の食料・飲料販売業",
      "address": "京都府木津川市相楽台1-1-1",
      "lat": 34.725679,
      "lng": 135.790465,
      "geocoding_level": null,
      "phone": "0774-75-1603",
      "license_no": "",
      "license_date": null,
      "expire_date": null
    },
    {
      "name": "バロー木津川店",
      "name_kana": "バローキヅガワテン",
      "business_type": "⑪ 百貨店、総合スーパー",
      "address": "京都府木津川市梅美台1-1-1",
      "lat": 34.714933,
      "lng": 135.835733,
      "geocoding_level": null,
      "phone": "0774-75-2666",
      "license_no": "",
      "license_date": null,
      "expire_date": null
    },
    {
      "name": "お茶の玉宗園",
      "name_kana": "オチャノギョクソウエン",
      "business_type": "⑬ その他の食料・飲料販売業",
      "address": "京都府木津川市相楽城西15 アルプラザ木津1F",
      "lat": 34.738571,
      "lng": 135.791968,
      "geocoding_level": null,
      "phone": "0774-73-9547",
      "license_no": "",
      "license_date": null,
      "expire_date": null
    },
    {
      "name": "ANYTIME FITNESS木津川梅美台店",
      "name_kana": "エニタイムフィットネスキヅガワウメミダイテン",
      "business_type": "⑫ 自動販売機による販売業（コップ式自動販売機（自動洗浄・屋内設置）及び営業許可の対象となる自動販売機を除く）",
      "address": "京都府木津川市梅美台1-1-1 フォレストモール木津川内1F",
      "lat": 34.714933,
      "lng": 135.835733,
      "geocoding_level": null,
      "phone": "0774469133",
      "license_no": "",
      "license_date": null,
      "expire_date": null
    },
    {
      "name": "京都大学大学院農学研究科附属農場",
      "name_kana": "キョウトダイガクノウガクブ・ノウガクケンキュウカフゾクノウジョウ",
      "business_type": "㉙ その他",
      "address": "京都府木津川市城山台４丁目２－１",
      "lat": 34.734089,
      "lng": 135.841597,
      "geocoding_level": null,
      "phone": "0774-94-6405",
      "license_no": "",
      "license_date": null,
      "expire_date": null
    },
    {
      "name": "株式会社宇治安",
      "name_kana": "カブシキガイシャウジヤス",
      "business_type": "⑬ その他の食料・飲料販売業",
      "address": "京都府木津川市山城町綺田高島２１番地",
      "lat": 34.782488,
      "lng": 135.807714,
      "geocoding_level": null,
      "phone": "0774-86-2671",
      "license_no": "",
      "license_date": null,
      "expire_date": null
    },
    {
      "name": "春日恭二",
      "name_kana": "カスガキョウジ",
      "business_type": "① 魚介類販売業（包装済みの魚介類のみの販売）",
      "address": "京都府木津川市加茂町",
      "lat": 34.74773,
      "lng": 135.876644,
      "geocoding_level": null,
      "phone": "090-4003-4935",
      "license_no": "",
      "license_date": null,
      "expire_date": null
    },
    {
      "name": "春日恭二",
      "name_kana": "カスガキョウジ",
      "business_type": "② 食肉販売業（包装済みの食肉のみの販売）",
      "address": "京都府木津川市加茂町",
      "lat": 34.74773,
      "lng": 135.876644,
      "geocoding_level": null,
      "phone": "090-4003-4935",
      "license_no": "",
      "license_date": null,
      "expire_date": null
    },
    {
      "name": "春日恭二",
      "name_kana": "カスガキョウジ",
      "business_type": "③ 乳類販売業",
      "address": "京都府木津川市加茂町",
      "lat": 34.74773,
      "lng": 135.876644,
      "geocoding_level": null,
      "phone": "090-4003-4935",
      "license_no": "",
      "license_date": null,
      "expire_date": null
    },
    {
      "name": "春日恭二",
      "name_kana": "カスガキョウジ",
      "business_type": "⑥ 弁当販売業",
      "address": "京都府木津川市加茂町",
      "lat": 34.74773,
      "lng": 135.876644,
      "geocoding_level": null,
      "phone": "090-4003-4935",
      "license_no": "",
      "license_date": null,
      "expire_date": null
    },
    {
      "name": "春日恭二",
      "name_kana": "カスガキョウジ",
      "business_type": "⑦ 野菜果物販売業",
      "address": "京都府木津川市加茂町",
      "lat": 34.74773,
      "lng": 135.876644,
      "geocoding_level": null,
      "phone": "090-4003-4935",
      "license_no": "",
      "license_date": null,
      "expire_date": null
    },
    {
      "name": "春日恭二",
      "name_kana": "カスガキョウジ",
      "business_type": "⑧ 米穀類販売業",
      "address": "京都府木津川市加茂町",
      "lat": 34.74773,
      "lng": 135.876644,
      "geocoding_level": null,
      "phone": "090-4003-4935",
      "license_no": "",
      "license_date": null,
      "expire_date": null
    },
    {
      "name": "サンドラッグ木津川店",
      "name_kana": "サンドラッグキヅガワテン",
      "business_type": "⑪ 百貨店、総合スーパー",
      "address": "京都府木津川市梅美台１丁目１－１",
      "lat": 34.714933,
      "lng": 135.835733,
      "geocoding_level": null,
      "phone": "0774-71-8227",
      "license_no": "",
      "license_date": null,
      "expire_date": null
    },
    {
      "name": "サンディ木津店",
      "name_kana": "サンディキヅテン",
      "business_type": "⑪ 百貨店、総合スーパー",
      "address": "京都府木津川市木津駅前１丁目１９番地",
      "lat": 34.735614,
      "lng": 135.822965,
      "geocoding_level": null,
      "phone": "077-471-8053",
      "license_no": "",
      "license_date": null,
      "expire_date": null
    },
    {
      "name": "とくし丸１４号車",
      "name_kana": "トクシマル　ジュウヨンゴウシャ",
      "business_type": "① 魚介類販売業（包装済みの魚介類のみの販売）",
      "address": "京都府木津川市木津",
      "lat": 34.73646,
      "lng": 135.819757,
      "geocoding_level": null,
      "phone": "070-1268-1381",
      "license_no": "",
      "license_date": null,
      "expire_date": null
    },
    {
      "name": "とくし丸１４号車",
      "name_kana": "トクシマル　ジュウヨンゴウシャ",
      "business_type": "② 食肉販売業（包装済みの食肉のみの販売）",
      "address": "京都府木津川市木津",
      "lat": 34.73646,
      "lng": 135.819757,
      "geocoding_level": null,
      "phone": "070-1268-1381",
      "license_no": "",
      "license_date": null,
      "expire_date": null
    },
    {
      "name": "とくし丸１４号車",
      "name_kana": "トクシマル　ジュウヨンゴウシャ",
      "business_type": "③ 乳類販売業",
      "address": "京都府木津川市木津",
      "lat": 34.73646,
      "lng": 135.819757,
      "geocoding_level": null,
      "phone": "070-1268-1381",
      "license_no": "",
      "license_date": null,
      "expire_date": null
    },
    {
      "name": "とくし丸１４号車",
      "name_kana": "トクシマル　ジュウヨンゴウシャ",
      "business_type": "⑬ その他の食料・飲料販売業",
      "address": "京都府木津川市木津",
      "lat": 34.73646,
      "lng": 135.819757,
      "geocoding_level": null,
      "phone": "070-1268-1381",
      "license_no": "",
      "license_date": null,
      "expire_date": null
    },
    {
      "name": "ハーベス木津川台店",
      "name_kana": "ハーベス　キヅガワダイテン",
      "business_type": "⑪ 百貨店、総合スーパー",
      "address": "京都府木津川市木津川台1-12-1",
      "lat": 34.745427,
      "lng": 135.792941,
      "geocoding_level": null,
      "phone": "0774736460",
      "license_no": "",
      "license_date": null,
      "expire_date": null
    },
    {
      "name": "スギドラッグ 梅美台店",
      "name_kana": "スギドラッグ  ウメミダイテン",
      "business_type": "⑬ その他の食料・飲料販売業",
      "address": "京都府木津川市梅美台八丁目１番地5 中村屋梅美台店内",
      "lat": 34.713912,
      "lng": 135.834144,
      "geocoding_level": null,
      "phone": "0774-39-8527",
      "license_no": "",
      "license_date": null,
      "expire_date": null
    },
    {
      "name": "京滋ヤクルト販売(株)木津センター",
      "name_kana": "ケイジヤクルトハンバイカブシキガイシャキヅセンター",
      "business_type": "③ 乳類販売業",
      "address": "京都府木津川市相楽川の尻87-1",
      "lat": 34.734917,
      "lng": 135.801877,
      "geocoding_level": null,
      "phone": "0774-73-2505",
      "license_no": "",
      "license_date": null,
      "expire_date": null
    },
    {
      "name": "京滋ヤクルト販売株式会社　木津センター",
      "name_kana": "ケイジヤクルトハンバイカブシキガイシャ　キヅセンター",
      "business_type": "③ 乳類販売業",
      "address": "京都府木津川市相楽川の尻８７－１",
      "lat": 34.734917,
      "lng": 135.801877,
      "geocoding_level": null,
      "phone": "0774-73-2505",
      "license_no": "",
      "license_date": null,
      "expire_date": null
    },
    {
      "name": "京都大学大学院農学研究科附属農場木津農場",
      "name_kana": "キョウトダイガクダイガクインノウガクケンキュウカフゾクノウジョウキヅノウジョウ",
      "business_type": "⑫ 自動販売機による販売業（コップ式自動販売機（自動洗浄・屋内設置）及び営業許可の対象となる自動販売機を除く）",
      "address": "京都府木津川市城山台4丁目2番地1",
      "lat": 34.734263,
      "lng": 135.838266,
      "geocoding_level": null,
      "phone": "0774-94-6405",
      "license_no": "",
      "license_date": null,
      "expire_date": null
    },
    {
      "name": "社会福祉法人楽慈会藍咲学園",
      "name_kana": "シャカイフクシホウジンラクジカイアイサキガクエン",
      "business_type": "⑫ 自動販売機による販売業（コップ式自動販売機（自動洗浄・屋内設置）及び営業許可の対象となる自動販売機を除く）",
      "address": "京都府木津川市木津川台5丁目4-5",
      "lat": 34.742496,
      "lng": 135.78374,
      "geocoding_level": null,
      "phone": "0774-73-8300",
      "license_no": "",
      "license_date": null,
      "expire_date": null
    },
    {
      "name": "イオン高の原",
      "name_kana": "イオンタカノハラ",
      "business_type": "③ 乳類販売業",
      "address": "京都府木津川市相楽台１丁目１－１",
      "lat": 34.725347,
      "lng": 135.790537,
      "geocoding_level": null,
      "phone": "0774-75-1700",
      "license_no": "",
      "license_date": null,
      "expire_date": null
    },
    {
      "name": "特別養護老人ホームゆりのき",
      "name_kana": "トクベツヨウゴロウジンホーム　ユリノキ",
      "business_type": "㉖ 集団給食施設",
      "address": "京都府木津川市木津川台１丁目１９番地１",
      "lat": 34.746879,
      "lng": 135.792732,
      "geocoding_level": null,
      "phone": "0774-75-1132",
      "license_no": "",
      "license_date": null,
      "expire_date": null
    },
    {
      "name": "イオンリテール株式会社 イオンモール高の原 １Ｆ平安コートエスカホール",
      "name_kana": "イオンリテールカブシキガイシャイオンモールタカノハライッカイヘイアンコートエスカホール",
      "business_type": "⑤ コップ式自動販売機（自動洗浄・屋内設置）",
      "address": "京都府木津川市相楽台１丁目１番１",
      "lat": 34.725679,
      "lng": 135.790465,
      "geocoding_level": null,
      "phone": "",
      "license_no": "",
      "license_date": null,
      "expire_date": null
    },
    {
      "name": "イオンリテール㈱　イオン高の原店　３F従業員休憩室",
      "name_kana": "イオンリテールカブ　イオンタカノハラテン　サンエフジュウギョウインキュウケイシツ",
      "business_type": "⑤ コップ式自動販売機（自動洗浄・屋内設置）",
      "address": "京都府木津川市相楽台1-1-1",
      "lat": 34.725679,
      "lng": 135.790465,
      "geocoding_level": null,
      "phone": "",
      "license_no": "",
      "license_date": null,
      "expire_date": null
    },
    {
      "name": "イオンリテール㈱　イオンモール高の原店　３F従業員休憩室",
      "name_kana": "イオンリテールカブ　イオンモールタカノハラテン　サンエフジュウギョウインキュウケイシツ",
      "business_type": "⑤ コップ式自動販売機（自動洗浄・屋内設置）",
      "address": "京都府木津川市相楽台1-1-1",
      "lat": 34.725679,
      "lng": 135.790465,
      "geocoding_level": null,
      "phone": "",
      "license_no": "",
      "license_date": null,
      "expire_date": null
    },
    {
      "name": "山城木津郵便局",
      "name_kana": "ヤマシロキヅユウビンキョク",
      "business_type": "⑤ コップ式自動販売機（自動洗浄・屋内設置）",
      "address": "京都府木津川市相楽丸塚4-1",
      "lat": 34.735252,
      "lng": 135.803585,
      "geocoding_level": null,
      "phone": "",
      "license_no": "",
      "license_date": null,
      "expire_date": null
    },
    {
      "name": "MK石油株式会社　スズキカーズ木津川店内",
      "name_kana": "エムケイセキユカブシキガイシャ　スズキカーズキヅカワテンナイ",
      "business_type": "⑤ コップ式自動販売機（自動洗浄・屋内設置）",
      "address": "京都府木津川市州見台1-6-10",
      "lat": 34.716125,
      "lng": 135.821129,
      "geocoding_level": null,
      "phone": "",
      "license_no": "",
      "license_date": null,
      "expire_date": null
    },
    {
      "name": "オムロン株式会社オムロン京阪奈研究所１F自動販売機コーナーCCW",
      "name_kana": "オムロンカブシキガイシャオムロンケイハンナケンキュウショ　イッカイ　ジハンキコーナー　シーシーダブリュー",
      "business_type": "⑤ コップ式自動販売機（自動洗浄・屋内設置）",
      "address": "京都府木津川市木津川台９－１",
      "lat": 34.742524,
      "lng": 135.776981,
      "geocoding_level": null,
      "phone": "",
      "license_no": "",
      "license_date": null,
      "expire_date": null
    },
    {
      "name": "オムロン株式会社オムロン京阪奈研究所プロムナード①CCW",
      "name_kana": "オムロンカブシキガイシャオムロンケイハンナケンキュウショプロムナード　マルイチ　シーシーダブリュー",
      "business_type": "⑤ コップ式自動販売機（自動洗浄・屋内設置）",
      "address": "京都府木津川市木津川台９－１",
      "lat": 34.742524,
      "lng": 135.776981,
      "geocoding_level": null,
      "phone": "",
      "license_no": "",
      "license_date": null,
      "expire_date": null
    },
    {
      "name": "オムロン株式会社オムロン京阪奈研究所プロムナード②CCW",
      "name_kana": "オムロンカブシキガイシャオムロンケイハンナケンキュウショプロムナード　マルニ　シーシーダブリュー",
      "business_type": "⑤ コップ式自動販売機（自動洗浄・屋内設置）",
      "address": "京都府木津川市木津川台９－１",
      "lat": 34.742524,
      "lng": 135.776981,
      "geocoding_level": null,
      "phone": "",
      "license_no": "",
      "license_date": null,
      "expire_date": null
    },
    {
      "name": "オムロン株式会社オムロン京阪奈研究所　２Fラウンジ　CCW",
      "name_kana": "オムロンカブシキガイシャオムロンケイハンナケンキュウショ　ニカイラウンジ　シーシーダブリュー",
      "business_type": "⑤ コップ式自動販売機（自動洗浄・屋内設置）",
      "address": "京都府木津川市木津川台９－１",
      "lat": 34.742524,
      "lng": 135.776981,
      "geocoding_level": null,
      "phone": "",
      "license_no": "",
      "license_date": null,
      "expire_date": null
    },
    {
      "name": "株式会社花駒　イマージュホール木津川　1F休憩室（SBS受託）",
      "name_kana": "カブシキガイシャハナコマ　イマージュホールキズガワ　イッカイキュウケイシツ　エスビーエスジュタク",
      "business_type": "⑤ コップ式自動販売機（自動洗浄・屋内設置）",
      "address": "京都府木津川市相楽一新堂21",
      "lat": 34.735952,
      "lng": 135.802619,
      "geocoding_level": null,
      "phone": "0120248750",
      "license_no": "",
      "license_date": null,
      "expire_date": null
    },
    {
      "name": "(株)平和堂　ガーデンモール木津川　1F店内トイレ前（CCW単受）",
      "name_kana": "カブシキガイシャヘイワドウ　ガーデンモールキズガワ　イッカイテンナイトイレマエ",
      "business_type": "⑤ コップ式自動販売機（自動洗浄・屋内設置）",
      "address": "京都府木津川市州見台１丁目１番地1-1",
      "lat": 34.720607,
      "lng": 135.817592,
      "geocoding_level": null,
      "phone": "",
      "license_no": "",
      "license_date": null,
      "expire_date": null
    },
    {
      "name": "(株)バローホールディングス　バロー木津川店　イートインCCW",
      "name_kana": "カブシキガイシャバローホールディングス　バローキズガワテンイートインシーシーダブリュウ",
      "business_type": "⑤ コップ式自動販売機（自動洗浄・屋内設置）",
      "address": "京都府木津川市梅美台1-1",
      "lat": 34.715138,
      "lng": 135.838059,
      "geocoding_level": null,
      "phone": "",
      "license_no": "",
      "license_date": null,
      "expire_date": null
    },
    {
      "name": "株式会社平和堂フレンドマート木津川店",
      "name_kana": "カブシキカイシャヘイワドウフレンドマートキヅガワテン",
      "business_type": "⑦ 野菜果物販売業",
      "address": "京都府木津川市州見台1丁目1-1",
      "lat": 34.720297,
      "lng": 135.818673,
      "geocoding_level": null,
      "phone": "0774-71-3860",
      "license_no": "",
      "license_date": null,
      "expire_date": null
    },
    {
      "name": "株式会社平和堂フレンドマート木津川店",
      "name_kana": "カブシキカイシャヘイワドウフレンドマートキヅガワテン",
      "business_type": "⑪ 百貨店、総合スーパー",
      "address": "京都府木津川市州見台1丁目1-1",
      "lat": 34.720297,
      "lng": 135.818673,
      "geocoding_level": null,
      "phone": "0774-71-3860",
      "license_no": "",
      "license_date": null,
      "expire_date": null
    },
    {
      "name": "株式会社平和堂フレンドマート木津川店",
      "name_kana": "カブシキカイシャヘイワドウフレンドマートキヅガワテン",
      "business_type": "⑫ 自動販売機による販売業（コップ式自動販売機（自動洗浄・屋内設置）及び営業許可の対象となる自動販売機を除く）",
      "address": "京都府木津川市州見台1丁目1-1",
      "lat": 34.720297,
      "lng": 135.818673,
      "geocoding_level": null,
      "phone": "0774-71-3860",
      "license_no": "",
      "license_date": null,
      "expire_date": null
    },
    {
      "name": "フレンドマート木津川店　精肉作業場",
      "name_kana": "フレンドマートキヅガワテン　セイニクサギョウジョウ",
      "business_type": "① 飲食店営業",
      "address": "京都府木津川市州見台１丁目１番地１－１",
      "lat": 34.720607,
      "lng": 135.817592,
      "geocoding_level": null,
      "phone": "0774-71-3860",
      "license_no": "京都府山城南保健所指令５山南保環第１号の２２２",
      "license_date": "2023-11-06",
      "expire_date": "2029-11-30"
    },
    {
      "name": "フレンドマート木津川店　カットフルーツ菓子加工場",
      "name_kana": "フレンドマートキヅガワテン　カットフルーツカシカコウジョウ",
      "business_type": "⑪ 菓子製造業",
      "address": "京都府木津川市州見台１丁目１番地１－１",
      "lat": 34.720607,
      "lng": 135.817592,
      "geocoding_level": null,
      "phone": "0774-71-3860",
      "license_no": "京都府山城南保健所指令５山南保環第１号の２２３",
      "license_date": "2023-11-06",
      "expire_date": "2029-11-30"
    },
    {
      "name": "フレンドマート木津川店　魚介類",
      "name_kana": "フレンドマートキヅガワテンギョカイルイ",
      "business_type": "① 飲食店営業",
      "address": "京都府木津川市州見台１丁目１番地１－１",
      "lat": 34.720607,
      "lng": 135.817592,
      "geocoding_level": null,
      "phone": "0774-71-3860",
      "license_no": "京都府山城南保健所指令７山南保環第１号の２６５",
      "license_date": "2025-12-23",
      "expire_date": "2032-11-30"
    },
    {
      "name": "PLANT木津川店 従食ｶｯﾌﾟ",
      "name_kana": "プラントキヅガワテン　ジュウショクカップ",
      "business_type": "⑤ コップ式自動販売機（自動洗浄・屋内設置）",
      "address": "京都府木津川市城山台2-1",
      "lat": 34.73525,
      "lng": 135.835686,
      "geocoding_level": null,
      "phone": "",
      "license_no": "",
      "license_date": null,
      "expire_date": null
    },
    {
      "name": "ｽｰﾊﾟｰﾄﾞｰﾑ木津店(ﾎｰﾙ内)",
      "name_kana": "スーパードームキヅテンホールナイ",
      "business_type": "⑤ コップ式自動販売機（自動洗浄・屋内設置）",
      "address": "京都府木津川市吐師松葉11",
      "lat": 34.741612,
      "lng": 135.79669,
      "geocoding_level": null,
      "phone": "",
      "license_no": "",
      "license_date": null,
      "expire_date": null
    },
    {
      "name": "ｽｰﾊﾟｰﾄﾞｰﾑ木津店",
      "name_kana": "スーパードームキヅテン",
      "business_type": "⑤ コップ式自動販売機（自動洗浄・屋内設置）",
      "address": "京都府木津川市吐師松葉11",
      "lat": 34.741612,
      "lng": 135.79669,
      "geocoding_level": null,
      "phone": "",
      "license_no": "",
      "license_date": null,
      "expire_date": null
    },
    {
      "name": "ﾊﾟﾗﾀﾞｲｽ木津駅前店　休憩ｺｰﾅｰｶｯﾌﾟ",
      "name_kana": "パラダイスキズエキマエテンキュウケイコーナーカップ",
      "business_type": "⑤ コップ式自動販売機（自動洗浄・屋内設置）",
      "address": "京都府木津川市木津町雲村92",
      "lat": 34.740463,
      "lng": 135.822634,
      "geocoding_level": null,
      "phone": "",
      "license_no": "",
      "license_date": null,
      "expire_date": null
    },
    {
      "name": "イオンモール高の原",
      "name_kana": "イオンモールタカノハラ",
      "business_type": "⑬ その他の食料・飲料販売業",
      "address": "京都府木津川市相楽台1-1-1",
      "lat": 34.725347,
      "lng": 135.790537,
      "geocoding_level": null,
      "phone": "",
      "license_no": "",
      "license_date": null,
      "expire_date": null
    },
    {
      "name": "炎どり",
      "name_kana": "エンドリ",
      "business_type": "① 飲食店営業",
      "address": "京都府木津川市京都府内一円",
      "lat": 34.737179,
      "lng": 135.820058,
      "geocoding_level": 2,
      "phone": "",
      "license_no": "京都府山城南保健所指令８山南保環第１号の３７",
      "license_date": "2026-04-27",
      "expire_date": "2031-07-31"
    },
    {
      "name": "C・O・P上品寺",
      "name_kana": "シー・オー・ピージョウボンジ",
      "business_type": "㉔ その他の食料品製造・加工業",
      "address": "京都府木津川市府内一円(京都市を除く)",
      "lat": 34.810184,
      "lng": 134.992422,
      "geocoding_level": null,
      "phone": "0744221946",
      "license_no": "",
      "license_date": null,
      "expire_date": null
    },
    {
      "name": "ナチュラルフレンチ　ビストロ・ヨシムラ",
      "name_kana": "ナチュラルフレンチ　ビストロ・ヨシムラ",
      "business_type": "⑪ 菓子製造業",
      "address": "京都府木津川市相楽新堂前５－２",
      "lat": 34.73451,
      "lng": 135.800955,
      "geocoding_level": null,
      "phone": "0774469900",
      "license_no": "京都府山城南保健所指令３山南保環第１号の９",
      "license_date": "2021-06-18",
      "expire_date": "2027-11-30"
    },
    {
      "name": "ナチュラルフレンチ　ビストロ・ヨシムラ",
      "name_kana": "ナチュラルフレンチ　ビストロ・ヨシムラ",
      "business_type": "㉕ そうざい製造業",
      "address": "京都府木津川市相楽新堂前５－２",
      "lat": 34.73451,
      "lng": 135.800955,
      "geocoding_level": null,
      "phone": "0774469900",
      "license_no": "京都府山城南保健所指令３山南保環第１号の１０",
      "license_date": "2021-06-18",
      "expire_date": "2027-11-30"
    },
    {
      "name": "きづいち　Sweetstime",
      "name_kana": "キヅイチスイーツタイム",
      "business_type": "① 飲食店営業",
      "address": "京都府木津川市相楽城西15",
      "lat": 34.738574,
      "lng": 135.791962,
      "geocoding_level": null,
      "phone": "0774-84-9181",
      "license_no": "京都府山城南保健所指令３山南保環第1号の１３",
      "license_date": "2021-07-07",
      "expire_date": "2027-11-30"
    },
    {
      "name": "木馬　Cafe　＆　Restaurant",
      "name_kana": "モクバカフェアンドレストラン",
      "business_type": "① 飲食店営業",
      "address": "京都府木津川市城山台10丁目4-11",
      "lat": 34.730216,
      "lng": 135.835056,
      "geocoding_level": null,
      "phone": "070-8560-1656",
      "license_no": "京都府山城南保健所指令３山南保環第１号の２",
      "license_date": "2021-06-04",
      "expire_date": "2027-11-30"
    },
    {
      "name": "㈱正木牧場 MASAKI FARMのお菓子な仲間たち １号車",
      "name_kana": "マサキボクジョウ",
      "business_type": "㉕ 行商",
      "address": "京都府木津川市市内一円 及び 山城南保健所管轄内一円(相楽郡)",
      "lat": 34.769276,
      "lng": 135.961044,
      "geocoding_level": null,
      "phone": "",
      "license_no": "",
      "license_date": null,
      "expire_date": null
    },
    {
      "name": "㈱正木牧場 MASAKI FARMのお菓子な仲間たち ２号車",
      "name_kana": "マサキボクジョウ",
      "business_type": "㉕ 行商",
      "address": "京都府木津川市市内一円 及び 山城南保健所管轄内一円(相楽郡)",
      "lat": 34.769276,
      "lng": 135.961044,
      "geocoding_level": null,
      "phone": "",
      "license_no": "",
      "license_date": null,
      "expire_date": null
    },
    {
      "name": "㈱正木牧場 MASAKI FARMのお菓子な仲間たち ３号車",
      "name_kana": "マサキボクジョウ",
      "business_type": "㉕ 行商",
      "address": "京都府木津川市市内一円 及び 山城南保健所管轄内一円(相楽郡)",
      "lat": 34.769276,
      "lng": 135.961044,
      "geocoding_level": null,
      "phone": "",
      "license_no": "",
      "license_date": null,
      "expire_date": null
    },
    {
      "name": "株式会社　丸又園",
      "name_kana": "マルマタエン",
      "business_type": "㉔ その他の食料品製造・加工業",
      "address": "京都府木津川市山城町上狛東岸下21",
      "lat": 34.745312,
      "lng": 135.816369,
      "geocoding_level": null,
      "phone": "0774-86-2069",
      "license_no": "",
      "license_date": null,
      "expire_date": null
    },
    {
      "name": "鎌倉パスタ　イオンモール高の原店",
      "name_kana": "カマクラパスタ　イオンモールタカノハラテン",
      "business_type": "① 飲食店営業",
      "address": "京都府木津川市相楽台1丁目1番1 イオンモール高の原２Ｆ",
      "lat": 34.725679,
      "lng": 135.790465,
      "geocoding_level": null,
      "phone": "0774-75-1541",
      "license_no": "京都府山城南保健所指令４山南保環第１号の１６５",
      "license_date": "2022-11-01",
      "expire_date": "2028-11-30"
    },
    {
      "name": "ホリーズカフェ　イオンモール高の原店",
      "name_kana": "ホリーズカフェイオンモールタカノハラテン",
      "business_type": "① 飲食店営業",
      "address": "京都府木津川市相楽台1丁目1番１ イオンモール高の原店　４階",
      "lat": 34.725347,
      "lng": 135.790537,
      "geocoding_level": null,
      "phone": "",
      "license_no": "京都府山城南保健所指令３山南保環第1号の４",
      "license_date": "2021-06-10",
      "expire_date": "2027-11-30"
    },
    {
      "name": "株式会社ブルーワンダー(屋号　アマリア）",
      "name_kana": "カブシキガイシャブルーワンダー　アマリア",
      "business_type": "⑬ その他の食料・飲料販売業",
      "address": "京都府木津川市相楽台1丁目１－１ イオンモール高の原　２階平安コート横　催事",
      "lat": 34.725347,
      "lng": 135.790537,
      "geocoding_level": null,
      "phone": "",
      "license_no": "",
      "license_date": null,
      "expire_date": null
    },
    {
      "name": "はぢめちゃん",
      "name_kana": "ハヂメチャン",
      "business_type": "① 飲食店営業",
      "address": "京都府木津川市京都府内一円（京都市を除く。）",
      "lat": 34.737144,
      "lng": 135.820081,
      "geocoding_level": null,
      "phone": "080-3105-2328",
      "license_no": "京都府山城南保健所指令３山南保環第１号の５",
      "license_date": "2021-06-09",
      "expire_date": "2026-11-30"
    },
    {
      "name": "バーミヤン 京都木津川店",
      "name_kana": "バーミヤンキョウトキヅガワテン",
      "business_type": "⑬ その他の食料・飲料販売業",
      "address": "京都府木津川市州見台３丁目２－８",
      "lat": 34.716151,
      "lng": 135.827639,
      "geocoding_level": null,
      "phone": "0774-75-2233",
      "license_no": "",
      "license_date": null,
      "expire_date": null
    },
    {
      "name": "ガスト  イオンモール高の原店",
      "name_kana": "ガスト  イオンモールタカノハラテン",
      "business_type": "⑬ その他の食料・飲料販売業",
      "address": "京都府木津川市相楽台1丁目1番1",
      "lat": 34.726128,
      "lng": 135.790171,
      "geocoding_level": 3,
      "phone": "0774-34-0178",
      "license_no": "",
      "license_date": null,
      "expire_date": null
    },
    {
      "name": "ガスト  イオンモール高の原店",
      "name_kana": "ガスト  イオンモールタカノハラテン",
      "business_type": "① 飲食店営業",
      "address": "京都府木津川市相楽台1丁目1番1",
      "lat": 34.726128,
      "lng": 135.790171,
      "geocoding_level": 3,
      "phone": "0774-34-0178",
      "license_no": "京都府山城南保健所指令６山南保環第１号の２３３",
      "license_date": "2024-12-25",
      "expire_date": "2031-11-30"
    },
    {
      "name": "肉バル　キザキ",
      "name_kana": "ニクバル　キザキ",
      "business_type": "① 飲食店営業",
      "address": "京都府木津川市加茂町駅東２－５－３ プレステ加茂タワー１０３－２号",
      "lat": 34.752472,
      "lng": 135.871334,
      "geocoding_level": null,
      "phone": "0774762911",
      "license_no": "京都府山城南保健所指令３山南保環第１号の６",
      "license_date": "2021-06-11",
      "expire_date": "2027-11-30"
    },
    {
      "name": "株式会社平和堂アル・プラザ木津",
      "name_kana": "カブシキガイシャヘイワドウアル・プラザキヅ",
      "business_type": "⑪ 百貨店、総合スーパー",
      "address": "京都府木津川市相楽城西１５番地",
      "lat": 34.738574,
      "lng": 135.791962,
      "geocoding_level": null,
      "phone": "0774715800",
      "license_no": "",
      "license_date": null,
      "expire_date": null
    },
    {
      "name": "グリーンハ～モニー",
      "name_kana": "グリーンハーモニー",
      "business_type": "① 飲食店営業",
      "address": "京都府木津川市京都府内一円",
      "lat": 35.011564,
      "lng": 135.768148,
      "geocoding_level": null,
      "phone": "0774-73-0824",
      "license_no": "京都府山城南保健所指令５山南保環第１号の１４５",
      "license_date": "2023-08-04",
      "expire_date": "2029-07-31"
    },
    {
      "name": "Ｓａｌｌｙ’ｓ",
      "name_kana": "サリーズ",
      "business_type": "① 飲食店営業",
      "address": "京都府木津川市城山台５丁目２６番地１",
      "lat": 34.728622,
      "lng": 135.839266,
      "geocoding_level": null,
      "phone": "",
      "license_no": "京都府山城南保健所指令３山南保環第１号の７",
      "license_date": "2021-06-16",
      "expire_date": "2027-11-30"
    },
    {
      "name": "株式会社ＴＭフードラボ",
      "name_kana": "カブシキガイシャティーエムフードラボ",
      "business_type": "㉚ 密封包装食品製造業",
      "address": "京都府木津川市梅美台８丁目１番２３号",
      "lat": 34.710208,
      "lng": 135.844214,
      "geocoding_level": null,
      "phone": "0774-71-8414",
      "license_no": "京都府山城南保健所指令３山南保環第１号の８",
      "license_date": "2021-06-16",
      "expire_date": "2027-11-30"
    },
    {
      "name": "Kao's Kitchen",
      "name_kana": "カオズキッチン",
      "business_type": "⑪ 菓子製造業",
      "address": "京都府木津川市相楽台5丁目2-3",
      "lat": 34.728413,
      "lng": 135.793096,
      "geocoding_level": null,
      "phone": "08014902603",
      "license_no": "京都府山城南保健所指令３山南保環第１号の４１",
      "license_date": "2021-07-15",
      "expire_date": "2027-11-30"
    },
    {
      "name": "イオン高の原店",
      "name_kana": "イオンタカノハラテン",
      "business_type": "⑪ 百貨店、総合スーパー",
      "address": "京都府木津川市相楽台１丁目１番地１",
      "lat": 34.725679,
      "lng": 135.790465,
      "geocoding_level": null,
      "phone": "0774-75-1700",
      "license_no": "",
      "license_date": null,
      "expire_date": null
    },
    {
      "name": "スムージースタンド　サボテン",
      "name_kana": "スムージースタンド　サボテン",
      "business_type": "① 飲食店営業",
      "address": "京都府木津川市京都府内一円（京都市を除く。）",
      "lat": 34.737144,
      "lng": 135.820081,
      "geocoding_level": null,
      "phone": "",
      "license_no": "京都府山城南保健所指令３山南保環第１号の１１",
      "license_date": "2021-06-22",
      "expire_date": "2026-07-31"
    },
    {
      "name": "木津化成工業株式会社",
      "name_kana": "キヅカセイコウギョウカブシキガイシャ",
      "business_type": "㉗ 器具、容器包装の製造・加工業（合成樹脂が使用された器具又は容器包装の製造、加工に限る。）",
      "address": "京都府木津川市木津八色12番地１",
      "lat": 34.731903,
      "lng": 135.824191,
      "geocoding_level": null,
      "phone": "0774720201",
      "license_no": "",
      "license_date": null,
      "expire_date": null
    },
    {
      "name": "お伊勢たい焼　縁屋",
      "name_kana": "オイセタイヤキユカリヤ",
      "business_type": "① 飲食店営業",
      "address": "京都府木津川市京都府一円（京都市を除く）",
      "lat": 34.73791,
      "lng": 135.826139,
      "geocoding_level": null,
      "phone": "080-3656-4627",
      "license_no": "京都府山城南保健所指令３山南保環第1号の12",
      "license_date": "2021-07-05",
      "expire_date": "2026-11-30"
    },
    {
      "name": "NAVY WAGON KITCHEN",
      "name_kana": "ネービーワゴンキッチン",
      "business_type": "① 飲食店営業",
      "address": "京都府木津川市京都府内一円（京都市を除く。）",
      "lat": 34.737144,
      "lng": 135.820081,
      "geocoding_level": null,
      "phone": "090-9399-1479",
      "license_no": "京都府山城南保健所指令3山南保環第1号の22",
      "license_date": "2021-07-05",
      "expire_date": "2026-11-30"
    },
    {
      "name": "クスリのアオキ木津川台店",
      "name_kana": "クスリノアオキキヅガワダイテン",
      "business_type": "⑪ 百貨店、総合スーパー",
      "address": "京都府木津川市木津川台六丁目1番地1",
      "lat": 34.742454,
      "lng": 135.78605,
      "geocoding_level": null,
      "phone": "0774-75-1177",
      "license_no": "",
      "license_date": null,
      "expire_date": null
    },
    {
      "name": "クスリのアオキ西木津店",
      "name_kana": "クスリノアオキニシキヅテン",
      "business_type": "⑪ 百貨店、総合スーパー",
      "address": "京都府木津川市木津南後背106番地4",
      "lat": 34.736365,
      "lng": 135.807191,
      "geocoding_level": null,
      "phone": "0774-39-3075",
      "license_no": "",
      "license_date": null,
      "expire_date": null
    },
    {
      "name": "えとね",
      "name_kana": "エトネ",
      "business_type": "① 飲食店営業",
      "address": "京都府木津川市京都府内一円（京都市を除く。）",
      "lat": 34.737144,
      "lng": 135.820081,
      "geocoding_level": null,
      "phone": "",
      "license_no": "京都府山城南保健所指令３山南保環第1号の２３",
      "license_date": "2021-07-07",
      "expire_date": "2027-07-31"
    },
    {
      "name": "ＪＰ－ＦＩＥＬＤＦｉｅｌｄ　Ｃａｆｅ",
      "name_kana": "ジェイピーフィールド　カフェ",
      "business_type": "⑬ その他の食料・飲料販売業",
      "address": "京都府木津川市梅美台1丁目1-4",
      "lat": 34.717245,
      "lng": 135.836411,
      "geocoding_level": null,
      "phone": "",
      "license_no": "",
      "license_date": null,
      "expire_date": null
    },
    {
      "name": "三菱東京ＵＦＪ銀行関西ビジネスセンター",
      "name_kana": "ミツビシトウキョウユーエフジェイギンコウカンサイビジネスセンター",
      "business_type": "⑬ その他の食料・飲料販売業",
      "address": "京都府木津川市木津川台9-5-4",
      "lat": 34.742524,
      "lng": 135.776981,
      "geocoding_level": null,
      "phone": "",
      "license_no": "",
      "license_date": null,
      "expire_date": null
    },
    {
      "name": "ボンジュール神戸",
      "name_kana": "ボンジュールコウベ",
      "business_type": "㉕ 行商",
      "address": "京都府木津川市木津京都府一円（京都市を除く）",
      "lat": 34.739293,
      "lng": 135.806934,
      "geocoding_level": null,
      "phone": "090-6901-5361",
      "license_no": "",
      "license_date": null,
      "expire_date": null
    },
    {
      "name": "イオンモール高の原",
      "name_kana": "イオンモールタカノハラ",
      "business_type": "⑬ その他の食料・飲料販売業",
      "address": "京都府木津川市相楽台１丁目１番1",
      "lat": 34.725679,
      "lng": 135.790465,
      "geocoding_level": null,
      "phone": "",
      "license_no": "",
      "license_date": null,
      "expire_date": null
    },
    {
      "name": "平田製菓",
      "name_kana": "ヒラタセイカ",
      "business_type": "㉕ 行商",
      "address": "京都府木津川市京都府内一円（京都市を除く）",
      "lat": 34.810184,
      "lng": 134.992422,
      "geocoding_level": null,
      "phone": "",
      "license_no": "",
      "license_date": null,
      "expire_date": null
    },
    {
      "name": "とみやま米穀店",
      "name_kana": "トミヤマベイコクテン",
      "business_type": "⑧ 米穀類販売業",
      "address": "京都府木津川市木津町西垣外３１",
      "lat": 34.736658,
      "lng": 135.817833,
      "geocoding_level": null,
      "phone": "0774-72-0040",
      "license_no": "",
      "license_date": null,
      "expire_date": null
    },
    {
      "name": "Cafe CUO",
      "name_kana": "カフェ　クオ",
      "business_type": "① 飲食店営業",
      "address": "京都府木津川市市坂弊羅坂７７番地",
      "lat": 34.721514,
      "lng": 135.825523,
      "geocoding_level": null,
      "phone": "",
      "license_no": "京都府山城南保健所指令３山南保環第１号の３５",
      "license_date": "2021-07-15",
      "expire_date": "2027-11-30"
    },
    {
      "name": "Cafe CUO",
      "name_kana": "カフェ　クオ",
      "business_type": "⑪ 菓子製造業",
      "address": "京都府木津川市市坂弊羅坂７７番地",
      "lat": 34.721514,
      "lng": 135.825523,
      "geocoding_level": null,
      "phone": "",
      "license_no": "京都府山城南保健所指令３山南保環第１号の３６",
      "license_date": "2021-07-15",
      "expire_date": "2027-11-30"
    },
    {
      "name": "カインズ木津川店",
      "name_kana": "カインズキヅガワテン",
      "business_type": "⑧ 米穀類販売業",
      "address": "京都府木津川市州見台1丁目１番地１",
      "lat": 34.720625,
      "lng": 135.817666,
      "geocoding_level": null,
      "phone": "0774-72-2000",
      "license_no": "",
      "license_date": null,
      "expire_date": null
    },
    {
      "name": "米　COME・HOUSE　ふじばやし",
      "name_kana": "コメカムハウスフジバヤシ",
      "business_type": "⑧ 米穀類販売業",
      "address": "京都府木津川市相楽城下１４４－７",
      "lat": 34.737761,
      "lng": 135.799821,
      "geocoding_level": null,
      "phone": "0774-72-3626",
      "license_no": "",
      "license_date": null,
      "expire_date": null
    },
    {
      "name": "シニアライフ木津川",
      "name_kana": "シニアライフキヅガワ",
      "business_type": "㉖ 集団給食施設",
      "address": "京都府木津川市城山台１丁目２８番地１",
      "lat": 34.740067,
      "lng": 135.835736,
      "geocoding_level": null,
      "phone": "0774-75-2082",
      "license_no": "",
      "license_date": null,
      "expire_date": null
    },
    {
      "name": "株式会社　駒食品　加工所",
      "name_kana": "カブシキガイシャ　コマショクヒン　カコウショ",
      "business_type": "㉚ 密封包装食品製造業",
      "address": "京都府木津川市市坂久保川３８",
      "lat": 34.724019,
      "lng": 135.822986,
      "geocoding_level": null,
      "phone": "0774728603",
      "license_no": "京都府山城南保健所指令５山南保環第１号の２１３",
      "license_date": "2023-11-06",
      "expire_date": "2029-11-30"
    },
    {
      "name": "石田長栄堂",
      "name_kana": "イシダチョウエイドウ",
      "business_type": "① 飲食店営業",
      "address": "京都府木津川市京都府内一円",
      "lat": 34.810184,
      "lng": 134.992422,
      "geocoding_level": null,
      "phone": "",
      "license_no": "京都府山城南保健所指令５山南保環第１号の１８２",
      "license_date": "2023-10-04",
      "expire_date": "2029-07-31"
    },
    {
      "name": "焼肉やまだ　木津川店",
      "name_kana": "ヤキニクヤマダ　キヅガワテン",
      "business_type": "① 飲食店営業",
      "address": "京都府木津川市城山台１０－３６－２",
      "lat": 34.727815,
      "lng": 135.830626,
      "geocoding_level": null,
      "phone": "0774-75-1339",
      "license_no": "京都府山城南保健所指令３山南保環第１号の４８",
      "license_date": "2021-07-26",
      "expire_date": "2027-11-30"
    },
    {
      "name": "焼肉やまだ　木津川店",
      "name_kana": "ヤキニクヤマダ　キヅガワテン",
      "business_type": "③ 食肉販売業",
      "address": "京都府木津川市城山台１０－３６－２",
      "lat": 34.727815,
      "lng": 135.830626,
      "geocoding_level": null,
      "phone": "0774-75-1339",
      "license_no": "京都府山城南保健所指令８山南保環第１号の３２",
      "license_date": "2026-04-10",
      "expire_date": "2032-11-30"
    },
    {
      "name": "かもめ保育園",
      "name_kana": "カモメホイクエン",
      "business_type": "㉖ 集団給食施設",
      "address": "京都府木津川市城山台7-42-4",
      "lat": 34.732525,
      "lng": 135.832033,
      "geocoding_level": null,
      "phone": "",
      "license_no": "",
      "license_date": null,
      "expire_date": null
    },
    {
      "name": "かもめ保育園",
      "name_kana": "カモメホイクエン",
      "business_type": "㉙ その他",
      "address": "京都府木津川市城山台7-42-4",
      "lat": 34.732525,
      "lng": 135.832033,
      "geocoding_level": null,
      "phone": "",
      "license_no": "",
      "license_date": null,
      "expire_date": null
    },
    {
      "name": "株式会社Total health design",
      "name_kana": "カブシキカイシャトータルヘルスデザイン",
      "business_type": "⑨ 通信販売・訪問販売による販売業",
      "address": "京都府木津川市相楽台9丁目1番1号",
      "lat": 34.724638,
      "lng": 135.793762,
      "geocoding_level": null,
      "phone": "0774-72-5889",
      "license_no": "",
      "license_date": null,
      "expire_date": null
    },
    {
      "name": "和束茶カフェ",
      "name_kana": "ワヅカチャカフェ",
      "business_type": "① 飲食店営業",
      "address": "京都府木津川市京都府内一円",
      "lat": 34.737179,
      "lng": 135.820058,
      "geocoding_level": 2,
      "phone": "",
      "license_no": "京都府山城南保健所指令８山南保環第１号の２５",
      "license_date": "2026-03-10",
      "expire_date": "2031-07-31"
    },
    {
      "name": "なか卯　フォレストモール木津川店",
      "name_kana": "ナカウ　フォレストモールキヅガワテン",
      "business_type": "① 飲食店営業",
      "address": "京都府木津川市梅美台1-1-2",
      "lat": 34.715793,
      "lng": 135.835194,
      "geocoding_level": null,
      "phone": "",
      "license_no": "京都府山城南保健所指令７山南保環第１号の２４０",
      "license_date": "2025-11-20",
      "expire_date": "2031-11-30"
    },
    {
      "name": "なか卯フォレストモール木津川店",
      "name_kana": "ナカウフォレストモールキヅガワテン",
      "business_type": "⑬ その他の食料・飲料販売業",
      "address": "京都府木津川市梅美台1-1-2",
      "lat": 34.715081,
      "lng": 135.834944,
      "geocoding_level": null,
      "phone": "",
      "license_no": "",
      "license_date": null,
      "expire_date": null
    },
    {
      "name": "駒倉",
      "name_kana": "コマクラ",
      "business_type": "⑦ 野菜果物販売業",
      "address": "京都府木津川市市坂北畑１４",
      "lat": 34.723737,
      "lng": 135.821809,
      "geocoding_level": null,
      "phone": "0774-72-2106",
      "license_no": "",
      "license_date": null,
      "expire_date": null
    },
    {
      "name": "駒倉",
      "name_kana": "コマクラ",
      "business_type": "⑰ 農産保存食料品製造・加工業",
      "address": "京都府木津川市市坂北畑１４",
      "lat": 34.723737,
      "lng": 135.821809,
      "geocoding_level": null,
      "phone": "0774-72-2106",
      "license_no": "",
      "license_date": null,
      "expire_date": null
    },
    {
      "name": "創業明治29年 一心堂",
      "name_kana": "ソウギョウメイジニジュウキュウネン イッシンドウ",
      "business_type": "⑧ 米穀類販売業",
      "address": "京都府木津川市木津町西垣外23番地",
      "lat": 34.736271,
      "lng": 135.817231,
      "geocoding_level": null,
      "phone": "0774-72-1111",
      "license_no": "",
      "license_date": null,
      "expire_date": null
    },
    {
      "name": "中島整形外科通所リハビリテーション",
      "name_kana": "ナカジマセイケイゲカツウショリハビリテーション",
      "business_type": "㉖ 集団給食施設",
      "address": "京都府木津川市吐師南ノ中条15番地",
      "lat": 34.748319,
      "lng": 135.794223,
      "geocoding_level": null,
      "phone": "",
      "license_no": "",
      "license_date": null,
      "expire_date": null
    },
    {
      "name": "小倉商店",
      "name_kana": "オグラショウテン",
      "business_type": "① 飲食店営業",
      "address": "京都府木津川市京都府内一円（京都市を除く。）",
      "lat": 34.810184,
      "lng": 134.992422,
      "geocoding_level": null,
      "phone": "070-6549-7444",
      "license_no": "京都府山城南保健所指令３山南保環第１号の６１",
      "license_date": "2021-08-10",
      "expire_date": "2026-11-30"
    },
    {
      "name": "Genie",
      "name_kana": "ジーニー",
      "business_type": "① 飲食店営業",
      "address": "京都府木津川市京都府内一円（京都市を除く。）",
      "lat": 34.737144,
      "lng": 135.820081,
      "geocoding_level": null,
      "phone": "080-3957-1960",
      "license_no": "京都府山城南保健所指令３山南保環第１号の６２",
      "license_date": "2021-08-10",
      "expire_date": "2026-11-30"
    },
    {
      "name": "オルト",
      "name_kana": "オルト",
      "business_type": "⑦ 野菜果物販売業",
      "address": "京都府木津川市加茂町西城垣外37番地",
      "lat": 34.74773,
      "lng": 135.876644,
      "geocoding_level": null,
      "phone": "0774768199",
      "license_no": "",
      "license_date": null,
      "expire_date": null
    },
    {
      "name": "曽根商店",
      "name_kana": "ソネショウテン",
      "business_type": "⑧ 米穀類販売業",
      "address": "京都府木津川市木津町宮ノ内６６",
      "lat": 34.732296,
      "lng": 135.81955,
      "geocoding_level": null,
      "phone": "0774-72-0121",
      "license_no": "",
      "license_date": null,
      "expire_date": null
    },
    {
      "name": "笹西保夫",
      "name_kana": "ササニシヤスオ",
      "business_type": "⑰ 農産保存食料品製造・加工業",
      "address": "京都府木津川市梅谷上ノ平１２９",
      "lat": 34.713133,
      "lng": 135.849246,
      "geocoding_level": null,
      "phone": "0774-72-2607",
      "license_no": "",
      "license_date": null,
      "expire_date": null
    },
    {
      "name": "福寿園　山城工場",
      "name_kana": "フクジュエン　ヤマシロコウジョウ",
      "business_type": "㉑ 製茶業",
      "address": "京都府木津川市山城町上狛東作り道１１",
      "lat": 34.747048,
      "lng": 135.818816,
      "geocoding_level": null,
      "phone": "0774-86-3906",
      "license_no": "",
      "license_date": null,
      "expire_date": null
    },
    {
      "name": "福寿園　山城東工場",
      "name_kana": "フクジュエン　ヤマシロヒガシコウジョウ",
      "business_type": "㉑ 製茶業",
      "address": "京都府木津川市山城町上狛４丁目１－１０",
      "lat": 34.748015,
      "lng": 135.820855,
      "geocoding_level": null,
      "phone": "050-3152-2970",
      "license_no": "",
      "license_date": null,
      "expire_date": null
    },
    {
      "name": "なごみ園",
      "name_kana": "ナゴミエン",
      "business_type": "⑰ 農産保存食料品製造・加工業",
      "address": "京都府木津川市加茂町兎並船屋９",
      "lat": 34.757779,
      "lng": 135.871448,
      "geocoding_level": null,
      "phone": "0774-76-4320",
      "license_no": "",
      "license_date": null,
      "expire_date": null
    },
    {
      "name": "なごみ園",
      "name_kana": "ナゴミエン",
      "business_type": "㉔ その他の食料品製造・加工業",
      "address": "京都府木津川市加茂町兎並船屋９",
      "lat": 34.757779,
      "lng": 135.871448,
      "geocoding_level": null,
      "phone": "0774-76-4320",
      "license_no": "",
      "license_date": null,
      "expire_date": null
    },
    {
      "name": "ぎん",
      "name_kana": "ギン",
      "business_type": "① 飲食店営業",
      "address": "京都府木津川市京都府内一円（京都市を除く。）",
      "lat": 34.737144,
      "lng": 135.820081,
      "geocoding_level": null,
      "phone": "",
      "license_no": "京都府山城南保健所指令３山南保環第１号の６５",
      "license_date": "2021-08-19",
      "expire_date": "2026-11-30"
    },
    {
      "name": "タニファー",
      "name_kana": "タニファー",
      "business_type": "① 飲食店営業",
      "address": "京都府木津川市京都府一円（京都市を除く）",
      "lat": 34.737144,
      "lng": 135.820081,
      "geocoding_level": null,
      "phone": "080-3839-2599",
      "license_no": "京都府山城南保健所指令４山南保環第１号の１１",
      "license_date": "2022-03-02",
      "expire_date": "2027-11-30"
    },
    {
      "name": "タニファー（自動車）",
      "name_kana": "タニファー（ジドウシャ）",
      "business_type": "① 飲食店営業",
      "address": "京都府木津川市京都府内一円",
      "lat": 34.737179,
      "lng": 135.820058,
      "geocoding_level": 2,
      "phone": "",
      "license_no": "京都府山城南保健所指令６山南保環第１号の１５２",
      "license_date": "2024-09-26",
      "expire_date": "2029-11-30"
    },
    {
      "name": "株式会社HALLE JAPON",
      "name_kana": "カブシキガイシャアルジャポン",
      "business_type": "㉕ 行商",
      "address": "京都府木津川市市内一円",
      "lat": 34.735683,
      "lng": 135.834526,
      "geocoding_level": null,
      "phone": "",
      "license_no": "",
      "license_date": null,
      "expire_date": null
    },
    {
      "name": "5丁目キッチン",
      "name_kana": "ゴチョウメキッチン",
      "business_type": "① 飲食店営業",
      "address": "京都府木津川市城山台5-27-1",
      "lat": 34.729239,
      "lng": 135.839554,
      "geocoding_level": null,
      "phone": "09038243926",
      "license_no": "京都府山城南保健所指令３山南保環第１号の６７",
      "license_date": "2021-09-01",
      "expire_date": "2027-11-30"
    },
    {
      "name": "岸畑米酒店",
      "name_kana": "キシハタコメサケテン",
      "business_type": "⑧ 米穀類販売業",
      "address": "京都府木津川市山城町綺田西ノ口56",
      "lat": 34.784432,
      "lng": 135.811828,
      "geocoding_level": null,
      "phone": "0774862534",
      "license_no": "",
      "license_date": null,
      "expire_date": null
    },
    {
      "name": "やまぼうし",
      "name_kana": "ヤマボウシ",
      "business_type": "⑰ 農産保存食料品製造・加工業",
      "address": "京都府木津川市相楽台５－１７－１１",
      "lat": 34.727073,
      "lng": 135.797829,
      "geocoding_level": null,
      "phone": "0774-72-6322",
      "license_no": "",
      "license_date": null,
      "expire_date": null
    },
    {
      "name": "やまぼうし",
      "name_kana": "ヤマボウシ",
      "business_type": "① 飲食店営業",
      "address": "京都府木津川市相楽台５丁目１７－１１",
      "lat": 34.727086,
      "lng": 135.797866,
      "geocoding_level": null,
      "phone": "0774-72-6322",
      "license_no": "京都府山城南保健所指令７山南保環第１号の１９３",
      "license_date": "2025-10-24",
      "expire_date": "2031-11-30"
    },
    {
      "name": "大成園",
      "name_kana": "タイセイエン",
      "business_type": "㉑ 製茶業",
      "address": "京都府木津川市山城町上狛西下９",
      "lat": 34.745825,
      "lng": 135.819236,
      "geocoding_level": null,
      "phone": "0774-86-2054",
      "license_no": "",
      "license_date": null,
      "expire_date": null
    },
    {
      "name": "才治商店",
      "name_kana": "サイジショウテン",
      "business_type": "① 飲食店営業",
      "address": "京都府木津川市京都府内一円",
      "lat": 34.737179,
      "lng": 135.820058,
      "geocoding_level": 2,
      "phone": "",
      "license_no": "京都府山城南保健所指令８山南保環第１号の２６",
      "license_date": "2026-03-10",
      "expire_date": "2031-11-30"
    },
    {
      "name": "幼保連携型認定こども園　藍咲学園",
      "name_kana": "ヨウホレンケイガタニンテイコドモエン　アイサキガクエン",
      "business_type": "㉖ 集団給食施設",
      "address": "京都府木津川市木津川台５丁目４－５",
      "lat": 34.742514,
      "lng": 135.78376,
      "geocoding_level": null,
      "phone": "0774-73-8300",
      "license_no": "",
      "license_date": null,
      "expire_date": null
    },
    {
      "name": "株式会社西村幸太郎商店　城山台工場",
      "name_kana": "カブシキガイシャニシムラコウタロウショウテン　シロヤマダイコウジョウ",
      "business_type": "㉑ 製茶業",
      "address": "京都府木津川市城山台2-2-4",
      "lat": 34.73525,
      "lng": 135.835686,
      "geocoding_level": null,
      "phone": "090-5013-2600",
      "license_no": "",
      "license_date": null,
      "expire_date": null
    },
    {
      "name": "京都茶農業協同組合",
      "name_kana": "キョウトチャノウギョウキョウドウクミアイ",
      "business_type": "㉑ 製茶業",
      "address": "京都府木津川市山城町上狛南野田芝４－１",
      "lat": 34.750159,
      "lng": 135.820743,
      "geocoding_level": null,
      "phone": "0774-86-2139",
      "license_no": "",
      "license_date": null,
      "expire_date": null
    },
    {
      "name": "SUPER CENTER PLANT　木津川店",
      "name_kana": "スーパーセンター プラント キヅガワテン",
      "business_type": "⑪ 百貨店、総合スーパー",
      "address": "京都府木津川市城山台2丁目1番地",
      "lat": 34.734737,
      "lng": 135.835009,
      "geocoding_level": null,
      "phone": "0774752180",
      "license_no": "",
      "license_date": null,
      "expire_date": null
    },
    {
      "name": "和食さと　木津店",
      "name_kana": "ワショクサト　キヅテン",
      "business_type": "① 飲食店営業",
      "address": "京都府木津川市相楽高下22-1",
      "lat": 34.736608,
      "lng": 135.803565,
      "geocoding_level": null,
      "phone": "0774-73-2912",
      "license_no": "京都府山城南保健所指令４山南保環第１号の１７",
      "license_date": "2022-03-17",
      "expire_date": "2028-11-30"
    },
    {
      "name": "和食さと　木津店",
      "name_kana": "ワショクサト　キヅテン",
      "business_type": "③ 食肉販売業",
      "address": "京都府木津川市相楽高下22-1",
      "lat": 34.736608,
      "lng": 135.803565,
      "geocoding_level": null,
      "phone": "0774-73-2912",
      "license_no": "京都府山城南保健所指令４山南保環第１号の１８",
      "license_date": "2022-03-17",
      "expire_date": "2028-11-30"
    },
    {
      "name": "特別養護老人ホーム　きはだの郷",
      "name_kana": "トクベツヨウゴロウジンホーム　キハダノサト",
      "business_type": "㉖ 集団給食施設",
      "address": "京都府木津川市梅美台一丁目２番地２",
      "lat": 34.71513,
      "lng": 135.836736,
      "geocoding_level": null,
      "phone": "0774-66-2112",
      "license_no": "",
      "license_date": null,
      "expire_date": null
    },
    {
      "name": "みるら　メロンパン",
      "name_kana": "ミルラ　メロンパン",
      "business_type": "① 飲食店営業",
      "address": "京都府木津川市京都府内一円",
      "lat": 34.810184,
      "lng": 134.992422,
      "geocoding_level": null,
      "phone": "",
      "license_no": "京都府山城南保健所指令５山南保環第１号の２４０",
      "license_date": "2023-11-20",
      "expire_date": "2028-11-30"
    },
    {
      "name": "ハルニレカフェ",
      "name_kana": "ハルニレカフェ",
      "business_type": "① 飲食店営業",
      "address": "京都府木津川市京都府内一円",
      "lat": 34.737179,
      "lng": 135.820058,
      "geocoding_level": 2,
      "phone": "",
      "license_no": "京都府山城南保健所指令７山南保環第１号の５７",
      "license_date": "2025-06-04",
      "expire_date": "2030-07-31"
    },
    {
      "name": "お菓子のアトリエ　Cocotte.",
      "name_kana": "オカシノアトリエ　ココット",
      "business_type": "⑪ 菓子製造業",
      "address": "京都府木津川市相楽台７丁目２－８",
      "lat": 34.723003,
      "lng": 135.798607,
      "geocoding_level": null,
      "phone": "0774-73-9337",
      "license_no": "京都府山城南保健所指令３山南保環第１号の70",
      "license_date": "2021-09-15",
      "expire_date": "2027-11-30"
    },
    {
      "name": "ケアセンターハッピーコスモス　通所介護事業所",
      "name_kana": "ケアセンターハッピーコスモス　ツウショカイゴジギョウショ",
      "business_type": "㉖ 集団給食施設",
      "address": "京都府木津川市相楽山松川４２番地２",
      "lat": 34.724802,
      "lng": 135.802501,
      "geocoding_level": null,
      "phone": "0774-73-2080",
      "license_no": "",
      "license_date": null,
      "expire_date": null
    },
    {
      "name": "筒井伴子",
      "name_kana": "ツツイトモコ",
      "business_type": "㉔ その他の食料品製造・加工業",
      "address": "京都府木津川市鹿背山鹿曲田５３",
      "lat": 34.74462,
      "lng": 135.840235,
      "geocoding_level": null,
      "phone": "0774-72-2717",
      "license_no": "",
      "license_date": null,
      "expire_date": null
    },
    {
      "name": "カレーハウス　ＤＯＮ",
      "name_kana": "カレーハウス　ドン",
      "business_type": "① 飲食店営業",
      "address": "京都府木津川市京都府内一円",
      "lat": 34.737179,
      "lng": 135.820058,
      "geocoding_level": 2,
      "phone": "059-370-9328",
      "license_no": "京都府山城南保健所指令６山南保環第１号の２０２",
      "license_date": "2024-11-13",
      "expire_date": "2029-11-30"
    },
    {
      "name": "yayoi marché",
      "name_kana": "ヤヨイ　マルシェ",
      "business_type": "① 飲食店営業",
      "address": "京都府木津川市京都府内一円（京都市を除く。）",
      "lat": 34.737144,
      "lng": 135.820081,
      "geocoding_level": null,
      "phone": "090-1679-3555",
      "license_no": "京都府山城南保健所指令３山南保環第１号の７１",
      "license_date": "2021-09-21",
      "expire_date": "2027-07-31"
    },
    {
      "name": "はま寿司　フォレストモール木津川店",
      "name_kana": "ハマズシ　フォレストモールキヅガワテン",
      "business_type": "① 飲食店営業",
      "address": "京都府木津川市梅美台1-1-2",
      "lat": 34.715081,
      "lng": 135.834944,
      "geocoding_level": null,
      "phone": "0570-020-590",
      "license_no": "京都府山城南保健所指令７山南保環第１号の２２２",
      "license_date": "2025-11-06",
      "expire_date": "2031-11-30"
    },
    {
      "name": "石修堂",
      "name_kana": "セキシュウドウ",
      "business_type": "① 飲食店営業",
      "address": "京都府木津川市京都府内一円",
      "lat": 34.810184,
      "lng": 134.992422,
      "geocoding_level": null,
      "phone": "",
      "license_no": "京都府山城南保健所指令５山南保環第１号の４０",
      "license_date": "2023-04-17",
      "expire_date": "2028-11-30"
    },
    {
      "name": "イオンシネマ高の原",
      "name_kana": "イオンシネマタカノハラ",
      "business_type": "⑫ 自動販売機による販売業（コップ式自動販売機（自動洗浄・屋内設置）及び営業許可の対象となる自動販売機を除く）",
      "address": "京都府木津川市相楽台１－１－１",
      "lat": 34.725347,
      "lng": 135.790537,
      "geocoding_level": null,
      "phone": "",
      "license_no": "",
      "license_date": null,
      "expire_date": null
    },
    {
      "name": "利休プリン・さかい屋本舗",
      "name_kana": "リキュウプリン・サカイヤホンポ",
      "business_type": "⑬ その他の食料・飲料販売業",
      "address": "京都府木津川市相楽台１丁目１番1 イオンモール高の原",
      "lat": 34.725347,
      "lng": 135.790537,
      "geocoding_level": null,
      "phone": "",
      "license_no": "",
      "license_date": null,
      "expire_date": null
    },
    {
      "name": "丸寿青果株式会社",
      "name_kana": "マルジュセイカカブシキガイシャ",
      "business_type": "⑦ 野菜果物販売業",
      "address": "京都府木津川市山城町上狛日詰20",
      "lat": 34.747906,
      "lng": 135.820165,
      "geocoding_level": null,
      "phone": "",
      "license_no": "",
      "license_date": null,
      "expire_date": null
    },
    {
      "name": "鹿背山柿出荷組合直売所",
      "name_kana": "カセヤマカキシュッカクミアイチョクバイジョ",
      "business_type": "⑦ 野菜果物販売業",
      "address": "京都府木津川市木津白口２６の２",
      "lat": 34.743487,
      "lng": 135.833883,
      "geocoding_level": null,
      "phone": "0774-72-5421",
      "license_no": "",
      "license_date": null,
      "expire_date": null
    },
    {
      "name": "ウエルシア木津川州見台店",
      "name_kana": "ウエルシアキヅガワクニミダイテン",
      "business_type": "⑪ 百貨店、総合スーパー",
      "address": "京都府木津川市州見台８丁目4-12",
      "lat": 34.71753,
      "lng": 135.817173,
      "geocoding_level": null,
      "phone": "0774-75-2565",
      "license_no": "",
      "license_date": null,
      "expire_date": null
    },
    {
      "name": "池カラ",
      "name_kana": "イケカラ",
      "business_type": "① 飲食店営業",
      "address": "京都府木津川市京都府内一円（京都市を除く。）",
      "lat": 34.737144,
      "lng": 135.820081,
      "geocoding_level": null,
      "phone": "090-5364-2888",
      "license_no": "京都府山城南保健所指令３山南保環第１号の７２",
      "license_date": "2021-10-01",
      "expire_date": "2027-07-31"
    },
    {
      "name": "池カラ",
      "name_kana": "イケカラ",
      "business_type": "① 飲食店営業",
      "address": "京都府木津川市京都府内一円",
      "lat": 35.003181,
      "lng": 135.773286,
      "geocoding_level": null,
      "phone": "090-5364-2888",
      "license_no": "京都府山城南保健所指令６山南保環第１号の３０",
      "license_date": "2024-03-15",
      "expire_date": "2029-11-30"
    },
    {
      "name": "社会福祉法人育宝会　木津さくらの森保育園",
      "name_kana": "シャカイフクシホウジンイクホウカイ　キヅサクラノモリホイクエン",
      "business_type": "① 飲食店営業",
      "address": "京都府木津川市相楽台4丁目2-5",
      "lat": 34.734563,
      "lng": 135.793985,
      "geocoding_level": null,
      "phone": "0774-71-4150",
      "license_no": "京都府山城南保健所指令３山南保環第１号の７３",
      "license_date": "2021-10-06",
      "expire_date": "2027-11-30"
    },
    {
      "name": "ファミリーマート木津川久保",
      "name_kana": "ファミリーマートキヅカワクボ",
      "business_type": "⑩ コンビニエンスストア",
      "address": "京都府木津川市相楽川久保164",
      "lat": 34.730495,
      "lng": 135.804101,
      "geocoding_level": null,
      "phone": "",
      "license_no": "",
      "license_date": null,
      "expire_date": null
    },
    {
      "name": "ファミリーマート木津川台駅前",
      "name_kana": "ファミリーマートキヅガワダイエキマエ",
      "business_type": "⑩ コンビニエンスストア",
      "address": "京都府木津川市吐師宮ノ前４９－６",
      "lat": 34.746077,
      "lng": 135.794448,
      "geocoding_level": null,
      "phone": "0774751771",
      "license_no": "",
      "license_date": null,
      "expire_date": null
    },
    {
      "name": "鮮魚たかぎ 魚屋寿司 木津店",
      "name_kana": "センギョタカギサカナヤズシキヅテン",
      "business_type": "① 飲食店営業",
      "address": "京都府木津川市相楽城西15 アルプラザ木津店内",
      "lat": 34.738574,
      "lng": 135.791962,
      "geocoding_level": null,
      "phone": "0774-71-8777",
      "license_no": "京都府山城南保健所指令３山南保環第１号の１３５",
      "license_date": "2021-11-18",
      "expire_date": "2027-11-30"
    },
    {
      "name": "鮮魚たかぎ 魚屋寿司 木津店",
      "name_kana": "センギョタカギサカナヤズシキヅテン",
      "business_type": "④ 魚介類販売業",
      "address": "京都府木津川市相楽城西15 アルプラザ木津店内",
      "lat": 34.738574,
      "lng": 135.791962,
      "geocoding_level": null,
      "phone": "0774-71-8777",
      "license_no": "京都府山城南保健所指令３山南保環第１号の１３９",
      "license_date": "2021-11-18",
      "expire_date": "2027-11-30"
    },
    {
      "name": "社会福祉法人　相楽福祉会　相楽デイセンター",
      "name_kana": "シャカイフクシホウジン　ソウラクフクシカイ　ソウラクデイセンター",
      "business_type": "㉖ 集団給食施設",
      "address": "京都府木津川市木津川台２丁目１２番地６",
      "lat": 34.743348,
      "lng": 135.791095,
      "geocoding_level": null,
      "phone": "0774-73-0266",
      "license_no": "",
      "license_date": null,
      "expire_date": null
    },
    {
      "name": "特別養護老人ホーム加茂の里",
      "name_kana": "トクベツヨウゴロウジンホームカモノサト",
      "business_type": "㉖ 集団給食施設",
      "address": "京都府木津川市加茂町駅東4丁目1番地3",
      "lat": 34.754325,
      "lng": 135.87167,
      "geocoding_level": null,
      "phone": "0774767607",
      "license_no": "",
      "license_date": null,
      "expire_date": null
    },
    {
      "name": "府立木津高校食堂",
      "name_kana": "フリツキヅコウコウショクドウ",
      "business_type": "① 飲食店営業",
      "address": "京都府木津川市木津内田山３５",
      "lat": 34.737983,
      "lng": 135.830049,
      "geocoding_level": null,
      "phone": "0774-72-2908",
      "license_no": "京都府山城南保健所指令３山南保環第１号の８２",
      "license_date": "2021-10-19",
      "expire_date": "2027-11-30"
    },
    {
      "name": "旅猫食堂",
      "name_kana": "タビネコダイニング",
      "business_type": "① 飲食店営業",
      "address": "京都府木津川市木津池田２－５ ２Ｆ",
      "lat": 34.736634,
      "lng": 135.822425,
      "geocoding_level": null,
      "phone": "0774-66-2004",
      "license_no": "京都府山城南保健所指令３山南保環第１号の８３",
      "license_date": "2021-10-19",
      "expire_date": "2027-11-30"
    },
    {
      "name": "塔尾茶屋",
      "name_kana": "トウノチャヤ",
      "business_type": "① 飲食店営業",
      "address": "京都府木津川市加茂町西小札場５７",
      "lat": 34.7166,
      "lng": 135.873593,
      "geocoding_level": null,
      "phone": "0774-76-3530",
      "license_no": "京都府山城南保健所指令３山南保環第１号の８１",
      "license_date": "2021-10-19",
      "expire_date": "2027-11-30"
    },
    {
      "name": "かもじぃ",
      "name_kana": "カモジィ",
      "business_type": "① 飲食店営業",
      "address": "京都府木津川市京都府一円（京都市を除く）",
      "lat": 34.737144,
      "lng": 135.820081,
      "geocoding_level": null,
      "phone": "090-2119-1235",
      "license_no": "京都府山城南保健所指令３山南保環第１号の８４",
      "license_date": "2021-10-19",
      "expire_date": "2026-11-30"
    },
    {
      "name": "やなぎ屋",
      "name_kana": "ヤナギヤ",
      "business_type": "① 飲食店営業",
      "address": "京都府木津川市加茂町西小札場80-1",
      "lat": 34.716729,
      "lng": 135.873737,
      "geocoding_level": null,
      "phone": "0774-76-2050",
      "license_no": "京都府山城南保健所指令３山南保環第１号の74",
      "license_date": "2021-10-18",
      "expire_date": "2027-11-30"
    },
    {
      "name": "芳兵衛",
      "name_kana": "ヨシベエ",
      "business_type": "① 飲食店営業",
      "address": "京都府木津川市加茂町里東鳥口１７－１",
      "lat": 34.75275,
      "lng": 135.868646,
      "geocoding_level": null,
      "phone": "0774-76-6885",
      "license_no": "京都府山城南保健所指令３山南保環第１号の76",
      "license_date": "2021-10-18",
      "expire_date": "2027-11-30"
    },
    {
      "name": "芳兵衛",
      "name_kana": "ヨシベエ",
      "business_type": "① 飲食店営業",
      "address": "京都府木津川市加茂町里須原１５－１",
      "lat": 34.751366,
      "lng": 135.867877,
      "geocoding_level": null,
      "phone": "0774-76-6060",
      "license_no": "京都府山城南保健所指令７山南保環第１号の１７２",
      "license_date": "2025-10-20",
      "expire_date": "2031-11-30"
    },
    {
      "name": "蒼",
      "name_kana": "アオイ",
      "business_type": "① 飲食店営業",
      "address": "京都府木津川市加茂町駅西1丁目４－９",
      "lat": 34.754734,
      "lng": 135.871439,
      "geocoding_level": null,
      "phone": "",
      "license_no": "京都府山城南保健所指令３山南保環第１号の７７",
      "license_date": "2021-10-18",
      "expire_date": "2027-11-30"
    },
    {
      "name": "パン和洋菓子喫茶　蓮",
      "name_kana": "パンワヨウガシキッサ　レン",
      "business_type": "① 飲食店営業",
      "address": "京都府木津川市山城町綺田綾杉１１番地",
      "lat": 34.780611,
      "lng": 135.811161,
      "geocoding_level": null,
      "phone": "080-3867-7100",
      "license_no": "京都府山城南保健所指令５山南保環第１号の２５８",
      "license_date": "2023-12-14",
      "expire_date": "2030-11-30"
    },
    {
      "name": "パン和洋菓子喫茶　蓮",
      "name_kana": "パンワヨウガシキッサ　レン",
      "business_type": "⑪ 菓子製造業",
      "address": "京都府木津川市山城町綺田綾杉１１番地",
      "lat": 34.780611,
      "lng": 135.811161,
      "geocoding_level": null,
      "phone": "080-3867-7100",
      "license_no": "京都府山城南保健所指令５山南保環第１号の２５９",
      "license_date": "2023-12-14",
      "expire_date": "2030-11-30"
    },
    {
      "name": "古川　稔",
      "name_kana": "フルカワ　ミノル",
      "business_type": "㉚ 密封包装食品製造業",
      "address": "京都府木津川市山城町綺田出垣外２１",
      "lat": 34.78559,
      "lng": 135.813033,
      "geocoding_level": null,
      "phone": "",
      "license_no": "京都府山城南保健所指令３山南保環第１号の９３",
      "license_date": "2021-10-22",
      "expire_date": "2027-11-30"
    },
    {
      "name": "Te・To・Te",
      "name_kana": "テトテ",
      "business_type": "⑪ 菓子製造業",
      "address": "京都府木津川市山城町平尾城垣内22-5",
      "lat": 34.770788,
      "lng": 135.814905,
      "geocoding_level": null,
      "phone": "0774-86-5117",
      "license_no": "京都府山城南保健所指令３山南保環第１号の96",
      "license_date": "2021-10-22",
      "expire_date": "2027-11-30"
    },
    {
      "name": "大黒軒",
      "name_kana": "タイコクケン",
      "business_type": "① 飲食店営業",
      "address": "京都府木津川市木津南垣外１２２－１",
      "lat": 34.736766,
      "lng": 135.821133,
      "geocoding_level": null,
      "phone": "0774-72-0124",
      "license_no": "京都府山城南保健所指令３山南保環第１号の9８",
      "license_date": "2021-10-22",
      "expire_date": "2027-11-30"
    },
    {
      "name": "五丁目パン屋　Pono",
      "name_kana": "ゴチョウメパンヤポノ",
      "business_type": "⑪ 菓子製造業",
      "address": "京都府木津川市南加茂台5丁目10-5",
      "lat": 34.739145,
      "lng": 135.870483,
      "geocoding_level": null,
      "phone": "090-7306-3440",
      "license_no": "京都府山城南保健所指令４山南保環第１号の１６",
      "license_date": "2022-03-15",
      "expire_date": "2028-11-30"
    },
    {
      "name": "農家カフェCountry Road",
      "name_kana": "ノウカカフェ　カントリーロード",
      "business_type": "① 飲食店営業",
      "address": "京都府木津川市加茂町岡崎上八反田３２－１",
      "lat": 34.765636,
      "lng": 135.867607,
      "geocoding_level": null,
      "phone": "0774-39-7823",
      "license_no": "京都府山城南保健所指令３山南保環第１号の７９",
      "license_date": "2021-10-18",
      "expire_date": "2027-11-30"
    },
    {
      "name": "イオンモール高の原",
      "name_kana": "イオンモールタカノハラ",
      "business_type": "⑬ その他の食料・飲料販売業",
      "address": "京都府木津川市相楽台1丁目1-1",
      "lat": 34.725347,
      "lng": 135.790537,
      "geocoding_level": null,
      "phone": "",
      "license_no": "",
      "license_date": null,
      "expire_date": null
    },
    {
      "name": "和食処　かま田",
      "name_kana": "ワショクドコロカマタ",
      "business_type": "① 飲食店営業",
      "address": "京都府木津川市加茂町河原東大門16-1",
      "lat": 34.763644,
      "lng": 135.862629,
      "geocoding_level": null,
      "phone": "080-3101-0194",
      "license_no": "京都府山城南保健所指令３山南保環第１号の9９",
      "license_date": "2021-10-22",
      "expire_date": "2027-11-30"
    },
    {
      "name": "大福屋なかむら",
      "name_kana": "ダイフクヤナカムラ",
      "business_type": "⑪ 菓子製造業",
      "address": "京都府木津川市相楽城下100番14",
      "lat": 34.73765,
      "lng": 135.79707,
      "geocoding_level": null,
      "phone": "0774-72-3624",
      "license_no": "京都府山城南保健所指令３山南保環第１号の100",
      "license_date": "2021-10-22",
      "expire_date": "2027-11-30"
    },
    {
      "name": "大福屋なかむら",
      "name_kana": "ダイフクヤナカムラ",
      "business_type": "① 飲食店営業",
      "address": "京都府木津川市京都府内一円",
      "lat": 34.810184,
      "lng": 134.992422,
      "geocoding_level": null,
      "phone": "0774-72-3624",
      "license_no": "京都府山城南保健所指令６山南保環第１号の８５",
      "license_date": "2024-06-25",
      "expire_date": "2029-11-30"
    },
    {
      "name": "COFFEE HOUSE CLAIR",
      "name_kana": "コーヒーハウスクレール",
      "business_type": "① 飲食店営業",
      "address": "京都府木津川市相楽台2-1-18",
      "lat": 34.727986,
      "lng": 135.790521,
      "geocoding_level": null,
      "phone": "0774-72-8145",
      "license_no": "京都府山城南保健所指令３山南保環第１号の101",
      "license_date": "2021-10-22",
      "expire_date": "2027-11-30"
    },
    {
      "name": "森長食品",
      "name_kana": "モリチョウショクヒン",
      "business_type": "㉚ 密封包装食品製造業",
      "address": "京都府木津川市山城町綺田山口４２－１",
      "lat": 34.782522,
      "lng": 135.815913,
      "geocoding_level": null,
      "phone": "0774-86-3554",
      "license_no": "京都府山城南保健所指令３山南保環第１号の９５",
      "license_date": "2021-10-22",
      "expire_date": "2027-11-30"
    },
    {
      "name": "森の下でｐｒｏｊｅｃｔ",
      "name_kana": "モリノシタデプロジェクト",
      "business_type": "① 飲食店営業",
      "address": "京都府木津川市京都府内一円",
      "lat": 34.810184,
      "lng": 134.992422,
      "geocoding_level": null,
      "phone": "",
      "license_no": "京都府山城南保健所指令６山南保環第１号の１２",
      "license_date": "2024-02-09",
      "expire_date": "2029-11-30"
    },
    {
      "name": "木津川亭",
      "name_kana": "キヅガワテイ",
      "business_type": "① 飲食店営業",
      "address": "京都府木津川市州見台1-1-1",
      "lat": 34.720625,
      "lng": 135.817666,
      "geocoding_level": null,
      "phone": "0774720232",
      "license_no": "京都府山城南保健所指令3山南保環第1号の102",
      "license_date": "2021-10-25",
      "expire_date": "2027-11-30"
    },
    {
      "name": "ファミリーマート木津川相楽店",
      "name_kana": "ファミリーマートキヅガワサガナカテン",
      "business_type": "⑩ コンビニエンスストア",
      "address": "京都府木津川市相楽神後原7-1",
      "lat": 34.736765,
      "lng": 135.799031,
      "geocoding_level": null,
      "phone": "",
      "license_no": "",
      "license_date": null,
      "expire_date": null
    },
    {
      "name": "花田醤油醸造場",
      "name_kana": "ハナダショウユジョウゾウジョウ",
      "business_type": "⑳ みそ又はしょうゆ製造業",
      "address": "京都府木津川市山城町椿井柳田１８",
      "lat": 34.757564,
      "lng": 135.816462,
      "geocoding_level": null,
      "phone": "0774-86-3377",
      "license_no": "京都府山城南保健所指令３山南保環第１号の１０４",
      "license_date": "2021-10-25",
      "expire_date": "2027-11-30"
    },
    {
      "name": "藤田食品",
      "name_kana": "フジタショクヒン",
      "business_type": "㉚ 密封包装食品製造業",
      "address": "京都府木津川市山城町綺田渋川８",
      "lat": 34.78943,
      "lng": 135.81294,
      "geocoding_level": null,
      "phone": "0774-86-2687",
      "license_no": "京都府山城南保健所指令３山南保環第１号の１０５",
      "license_date": "2021-10-25",
      "expire_date": "2027-11-30"
    },
    {
      "name": "お好み焼・鉄板焼　ひなた",
      "name_kana": "オコノミヤキテッパンヤキヒナタ",
      "business_type": "① 飲食店営業",
      "address": "京都府木津川市木津川原田6-10",
      "lat": 34.732599,
      "lng": 135.821642,
      "geocoding_level": null,
      "phone": "",
      "license_no": "京都府山城南保健所指令3山南保環第1号の107",
      "license_date": "2021-10-25",
      "expire_date": "2027-11-30"
    },
    {
      "name": "めんレストラン　かすが",
      "name_kana": "メンレストラン　カスガ",
      "business_type": "① 飲食店営業",
      "address": "京都府木津川市市坂高座２５",
      "lat": 34.714886,
      "lng": 135.827732,
      "geocoding_level": null,
      "phone": "0774-72-0186",
      "license_no": "京都府山城南保健所指令３山南保環第１号の１０６",
      "license_date": "2021-10-27",
      "expire_date": "2027-11-30"
    },
    {
      "name": "長城久代",
      "name_kana": "ナガシロヒサヨ",
      "business_type": "⑰ 農産保存食料品製造・加工業",
      "address": "京都府木津川市梅谷長城谷６６",
      "lat": 34.721197,
      "lng": 135.836996,
      "geocoding_level": null,
      "phone": "0774-72-0607",
      "license_no": "",
      "license_date": null,
      "expire_date": null
    },
    {
      "name": "岡嶋食料品店",
      "name_kana": "オカジマショクリョウヒンテン",
      "business_type": "⑦ 野菜果物販売業",
      "address": "京都府木津川市木津町西垣外32番地",
      "lat": 34.736299,
      "lng": 135.81825,
      "geocoding_level": null,
      "phone": "0774-72-0309",
      "license_no": "",
      "license_date": null,
      "expire_date": null
    },
    {
      "name": "株式会社大谷茶舗",
      "name_kana": "カブシキガイシャオオタニチャホ",
      "business_type": "㉑ 製茶業",
      "address": "京都府木津川市山城町上狛的場１番地１",
      "lat": 34.749216,
      "lng": 135.816221,
      "geocoding_level": null,
      "phone": "0774-86-2124",
      "license_no": "",
      "license_date": null,
      "expire_date": null
    },
    {
      "name": "手打ち蕎麦　生",
      "name_kana": "テウチソバ　イク",
      "business_type": "㉔ 麺類製造業",
      "address": "京都府木津川市相楽的場１６－６",
      "lat": 34.732901,
      "lng": 135.800822,
      "geocoding_level": null,
      "phone": "09032843836",
      "license_no": "京都府山城南保健所指令３山南保環第１号の１５３",
      "license_date": "2021-12-13",
      "expire_date": "2028-11-30"
    },
    {
      "name": "浜旬",
      "name_kana": "ハマシュン",
      "business_type": "④ 魚介類販売業",
      "address": "京都府木津川市相楽城西１５番地",
      "lat": 34.738571,
      "lng": 135.791968,
      "geocoding_level": null,
      "phone": "0774-71-5800",
      "license_no": "京都府山城南保健所指令３山南保環第１号の１１０",
      "license_date": "2021-10-27",
      "expire_date": "2027-11-30"
    },
    {
      "name": "元気う.DON木津駅前店",
      "name_kana": "ゲンキウドンキヅエキマエテン",
      "business_type": "① 飲食店営業",
      "address": "京都府木津川市木津雲村９２",
      "lat": 34.739785,
      "lng": 135.823746,
      "geocoding_level": null,
      "phone": "0774-73-3800",
      "license_no": "京都府山城南保健所指令３山南保環第１号の１１１",
      "license_date": "2021-10-27",
      "expire_date": "2027-11-30"
    },
    {
      "name": "いづみ寿し",
      "name_kana": "イズミズシ",
      "business_type": "① 飲食店営業",
      "address": "京都府木津川市木津町内垣外１１２",
      "lat": 34.738531,
      "lng": 135.816758,
      "geocoding_level": null,
      "phone": "0774-72-0217",
      "license_no": "京都府山城南保健所指令３山南保環第１号の１１４",
      "license_date": "2021-10-29",
      "expire_date": "2027-11-30"
    },
    {
      "name": "kagen",
      "name_kana": "カゲン",
      "business_type": "① 飲食店営業",
      "address": "京都府木津川市加茂町里南里22-6",
      "lat": 34.746388,
      "lng": 135.868126,
      "geocoding_level": null,
      "phone": "0774-76-4438",
      "license_no": "京都府山城南保健所指令３山南保環第１号の109",
      "license_date": "2021-10-28",
      "expire_date": "2027-11-30"
    },
    {
      "name": "パン工房 HaruーKanade ハルーカナデ",
      "name_kana": "パンコウボウ　ハルーカナデ",
      "business_type": "⑪ 菓子製造業",
      "address": "京都府木津川市城山台7丁目26-3",
      "lat": 34.733128,
      "lng": 135.834814,
      "geocoding_level": null,
      "phone": "0774-73-0719",
      "license_no": "京都府山城南保健所指令３山南保環第１号の103",
      "license_date": "2021-10-28",
      "expire_date": "2027-11-30"
    },
    {
      "name": "パン工房　HaruーKanade　ハルーカナデ",
      "name_kana": "パンコウボウハルカナデ",
      "business_type": "③ 乳類販売業",
      "address": "京都府木津川市城山台7丁目26-3",
      "lat": 34.733128,
      "lng": 135.834814,
      "geocoding_level": null,
      "phone": "0774739719",
      "license_no": "",
      "license_date": null,
      "expire_date": null
    },
    {
      "name": "キッチンサロン　アルモンテ",
      "name_kana": "キッチンサロン　アルモンテ",
      "business_type": "① 飲食店営業",
      "address": "京都府木津川市木津町瓦谷81",
      "lat": 34.732449,
      "lng": 135.817896,
      "geocoding_level": null,
      "phone": "0774721123",
      "license_no": "京都府山城南保健所指令４山南保環第１号の１５０",
      "license_date": "2022-11-01",
      "expire_date": "2028-11-30"
    },
    {
      "name": "キッチンサロン　アルモンテ",
      "name_kana": "キッチンサロン　アルモンテ",
      "business_type": "⑪ 菓子製造業",
      "address": "京都府木津川市木津町瓦谷81",
      "lat": 34.732449,
      "lng": 135.817896,
      "geocoding_level": null,
      "phone": "0774721123",
      "license_no": "京都府山城南保健所指令４山南保環第１号の１５１",
      "license_date": "2022-11-01",
      "expire_date": "2028-11-30"
    },
    {
      "name": "キッチンサロン　アルモンテ",
      "name_kana": "キッチンサロン　アルモンテ",
      "business_type": "㉕ そうざい製造業",
      "address": "京都府木津川市木津町瓦谷81",
      "lat": 34.732449,
      "lng": 135.817896,
      "geocoding_level": null,
      "phone": "0774721123",
      "license_no": "京都府山城南保健所指令３山南保環第１号の108",
      "license_date": "2021-10-28",
      "expire_date": "2027-11-30"
    },
    {
      "name": "牛角焼肉食堂　イオンモール高の原店",
      "name_kana": "ギュウカクヤキニクショクドウ　イオンモールタカノハラテン",
      "business_type": "① 飲食店営業",
      "address": "京都府木津川市相楽台1丁目1番１ イオンモール高の原　4F 区画番号：417",
      "lat": 34.725679,
      "lng": 135.790465,
      "geocoding_level": null,
      "phone": "0774-66-2829",
      "license_no": "京都府山城南保健所指令６山南保環第１号の６６",
      "license_date": "2024-06-13",
      "expire_date": "2030-11-30"
    },
    {
      "name": "ｍｏｃｈｉｒｉ",
      "name_kana": "モチリ",
      "business_type": "⑪ 菓子製造業",
      "address": "京都府木津川市城山台7-16-7",
      "lat": 34.730532,
      "lng": 135.834777,
      "geocoding_level": null,
      "phone": "09018930576",
      "license_no": "京都府山城南保健所指令３山南保環第１号の115",
      "license_date": "2021-10-29",
      "expire_date": "2027-11-30"
    },
    {
      "name": "城味噌店",
      "name_kana": "シロミソテン",
      "business_type": "⑳ みそ又はしょうゆ製造業",
      "address": "京都府木津川市吐師前の橋２４",
      "lat": 34.742656,
      "lng": 135.797625,
      "geocoding_level": null,
      "phone": "0774-72-1273",
      "license_no": "京都府山城南保健所指令３山南保環第１号の１１６",
      "license_date": "2021-10-29",
      "expire_date": "2027-11-30"
    },
    {
      "name": "サイゼリヤ　ガーデンモール木津川店",
      "name_kana": "サイゼリヤ　ガーデンモールキヅガワテン",
      "business_type": "① 飲食店営業",
      "address": "京都府木津川市州見台1-1-1-1 ｶﾞｰﾃﾞﾝﾓｰﾙ木津川2F",
      "lat": 34.720607,
      "lng": 135.817592,
      "geocoding_level": null,
      "phone": "0774-75-1390",
      "license_no": "京都府山城南保健所指令７山南保環第１号の２４４",
      "license_date": "2025-11-26",
      "expire_date": "2031-11-30"
    },
    {
      "name": "サイゼリヤ　ガーデンモール木津川店",
      "name_kana": "サイゼリヤ　ガーデンモールキヅガワテン",
      "business_type": "⑬ その他の食料・飲料販売業",
      "address": "京都府木津川市州見台1-1-1-1 ｶﾞｰﾃﾞﾝﾓｰﾙ木津川2F",
      "lat": 34.720607,
      "lng": 135.817592,
      "geocoding_level": null,
      "phone": "0774-75-1390",
      "license_no": "",
      "license_date": null,
      "expire_date": null
    },
    {
      "name": "Happy Kitchen Will",
      "name_kana": "ハッピーキッチンウィル",
      "business_type": "① 飲食店営業",
      "address": "京都府木津川市京都府内一円（京都市を除く。）",
      "lat": 34.737144,
      "lng": 135.820081,
      "geocoding_level": null,
      "phone": "",
      "license_no": "京都府山城南保健所指令３山南保環第１号の１１９",
      "license_date": "2021-10-29",
      "expire_date": "2026-11-30"
    },
    {
      "name": "有限会社平野食品",
      "name_kana": "ユウゲンガイシャヒラノショクヒン",
      "business_type": "㉒ 豆腐製造業",
      "address": "京都府木津川市山城町北河原内畑73-1",
      "lat": 34.767763,
      "lng": 135.812162,
      "geocoding_level": null,
      "phone": "0774862008",
      "license_no": "京都府山城南保健所指令３山南保環第１号の117",
      "license_date": "2021-10-29",
      "expire_date": "2027-11-30"
    },
    {
      "name": "有限会社平野食品",
      "name_kana": "ユウゲンガイシャヒラノショクヒン",
      "business_type": "㉚ 密封包装食品製造業",
      "address": "京都府木津川市山城町北河原内畑73-1",
      "lat": 34.767763,
      "lng": 135.812162,
      "geocoding_level": null,
      "phone": "0774862008",
      "license_no": "京都府山城南保健所指令３山南保環第１号の118",
      "license_date": "2021-10-29",
      "expire_date": "2027-11-30"
    },
    {
      "name": "有限会社平野食品",
      "name_kana": "ユウゲンガイシャヒラノショクヒン",
      "business_type": "㉔ その他の食料品製造・加工業",
      "address": "京都府木津川市山城町北河原内畑７３－１",
      "lat": 34.767763,
      "lng": 135.812162,
      "geocoding_level": null,
      "phone": "0774-86-2008",
      "license_no": "",
      "license_date": null,
      "expire_date": null
    },
    {
      "name": "利大谷茶園本店",
      "name_kana": "マルリオオタニチャエンホンテン",
      "business_type": "㉑ 製茶業",
      "address": "京都府木津川市山城町上狛曽根4番地",
      "lat": 34.748072,
      "lng": 135.817574,
      "geocoding_level": null,
      "phone": "",
      "license_no": "",
      "license_date": null,
      "expire_date": null
    },
    {
      "name": "株式会社柿安本店　イオン高の原精肉店",
      "name_kana": "カブシキガイシャカキヤスホンテン　イオンタカノハラセイニクテン",
      "business_type": "② 食肉販売業（包装済みの食肉のみの販売）",
      "address": "京都府木津川市相楽台１丁目１番１",
      "lat": 34.725347,
      "lng": 135.790537,
      "geocoding_level": null,
      "phone": "0774-71-8654",
      "license_no": "",
      "license_date": null,
      "expire_date": null
    },
    {
      "name": "兜台ふれあい朝市",
      "name_kana": "カブトダイフレアイアサイチ",
      "business_type": "⑦ 野菜果物販売業",
      "address": "京都府木津川市兜台3-10-8",
      "lat": 34.724506,
      "lng": 135.779592,
      "geocoding_level": null,
      "phone": "090-5963-9090",
      "license_no": "",
      "license_date": null,
      "expire_date": null
    },
    {
      "name": "ファミリーマート木津梅美台店",
      "name_kana": "ファミリーマートキヅウメミダイ",
      "business_type": "⑩ コンビニエンスストア",
      "address": "京都府木津川市梅美台1丁目1-3",
      "lat": 34.717341,
      "lng": 135.83589,
      "geocoding_level": null,
      "phone": "",
      "license_no": "",
      "license_date": null,
      "expire_date": null
    },
    {
      "name": "ハーベス木津川台店",
      "name_kana": "ハーベスキヅガワダイテン",
      "business_type": "① 飲食店営業",
      "address": "京都府木津川市木津川台1-12-1",
      "lat": 34.745427,
      "lng": 135.792941,
      "geocoding_level": null,
      "phone": "0774736460",
      "license_no": "京都府山城南保健所指令3山南保環第1号の122",
      "license_date": "2021-11-04",
      "expire_date": "2027-11-30"
    },
    {
      "name": "ハーベス木津川台店",
      "name_kana": "ハーベスキヅガワダイテン",
      "business_type": "③ 食肉販売業",
      "address": "京都府木津川市木津川台1-12-1",
      "lat": 34.745427,
      "lng": 135.792941,
      "geocoding_level": null,
      "phone": "0774736460",
      "license_no": "京都府山城南保健所指令3山南保環第1号の123",
      "license_date": "2021-11-04",
      "expire_date": "2027-11-30"
    },
    {
      "name": "森本久昭",
      "name_kana": "モリモトヒサアキ",
      "business_type": "㉚ 密封包装食品製造業",
      "address": "京都府木津川市山城町綺田山口３７－３",
      "lat": 34.783211,
      "lng": 135.816652,
      "geocoding_level": null,
      "phone": "0774-86-3553",
      "license_no": "京都府山城南保健所指令３山南保環第１号の１２４",
      "license_date": "2021-11-05",
      "expire_date": "2027-11-30"
    },
    {
      "name": "石田製麺工場",
      "name_kana": "イシダセイメンコウジョウ",
      "business_type": "㉔ 麺類製造業",
      "address": "京都府木津川市木津町内垣外１２７",
      "lat": 34.737456,
      "lng": 135.816437,
      "geocoding_level": null,
      "phone": "0774-72-0114",
      "license_no": "京都府山城南保健所指令３山南保環第１号の１２５",
      "license_date": "2021-11-05",
      "expire_date": "2027-11-30"
    },
    {
      "name": "パン工房　風いろ小麦",
      "name_kana": "パンコウボウカゼイロコムギ",
      "business_type": "① 飲食店営業",
      "address": "京都府木津川市城山台11丁目22-8",
      "lat": 34.726726,
      "lng": 135.835296,
      "geocoding_level": null,
      "phone": "0774-73-5800",
      "license_no": "京都山城南保健所指令３山南保環第１号の120",
      "license_date": "2021-11-05",
      "expire_date": "2027-11-30"
    },
    {
      "name": "パン工房　風いろ小麦",
      "name_kana": "パンコウボウカゼイロコムギ",
      "business_type": "⑪ 菓子製造業",
      "address": "京都府木津川市城山台11丁目22-8",
      "lat": 34.726726,
      "lng": 135.835296,
      "geocoding_level": null,
      "phone": "0774-73-5800",
      "license_no": "京都山城南保健所指令３山南保環第１号の121",
      "license_date": "2021-11-05",
      "expire_date": "2027-11-30"
    },
    {
      "name": "無印良品イオンモール高の原",
      "name_kana": "ムジルシリョウヒンイオンモールタカノハラ",
      "business_type": "⑬ その他の食料・飲料販売業",
      "address": "京都府木津川市相楽台1-1-1 イオンモール高の原3F",
      "lat": 34.725679,
      "lng": 135.790465,
      "geocoding_level": null,
      "phone": "",
      "license_no": "",
      "license_date": null,
      "expire_date": null
    },
    {
      "name": "デイサービスセンターいずみ",
      "name_kana": "デイサービスセンターイズミ",
      "business_type": "㉖ 集団給食施設",
      "address": "京都府木津川市相楽城下100-1",
      "lat": 34.737858,
      "lng": 135.797411,
      "geocoding_level": null,
      "phone": "0774752658",
      "license_no": "",
      "license_date": null,
      "expire_date": null
    },
    {
      "name": "ファミリーマート木津大谷店",
      "name_kana": "ファミリーマートキヅオオタニテン",
      "business_type": "⑩ コンビニエンスストア",
      "address": "京都府木津川市木津八後35番地１",
      "lat": 34.729184,
      "lng": 135.817847,
      "geocoding_level": null,
      "phone": "",
      "license_no": "",
      "license_date": null,
      "expire_date": null
    },
    {
      "name": "ファミリーマート山城上狛店",
      "name_kana": "ファミリーマートキヅオオタニテン",
      "business_type": "⑩ コンビニエンスストア",
      "address": "京都府木津川市山城町上狛野日向2-2",
      "lat": 34.749805,
      "lng": 135.818635,
      "geocoding_level": null,
      "phone": "",
      "license_no": "",
      "license_date": null,
      "expire_date": null
    },
    {
      "name": "ファミリーマート木津駅前店",
      "name_kana": "ファミリーマートキヅエキマエテン",
      "business_type": "⑩ コンビニエンスストア",
      "address": "京都府木津川市木津池田20-8",
      "lat": 34.736164,
      "lng": 135.822349,
      "geocoding_level": null,
      "phone": "",
      "license_no": "",
      "license_date": null,
      "expire_date": null
    },
    {
      "name": "ファミリーマート　山城上狛店",
      "name_kana": "ファミリーマート　ヤマシロカミコマテン",
      "business_type": "① 飲食店営業",
      "address": "京都府木津川市山城町上狛野日向２－２",
      "lat": 34.749805,
      "lng": 135.818635,
      "geocoding_level": null,
      "phone": "0774-86-0528",
      "license_no": "京都府山城南保健所指令６山南保環第１号の２２２",
      "license_date": "2024-11-28",
      "expire_date": "2030-11-30"
    },
    {
      "name": "ドラッグコスモス城山台店",
      "name_kana": "ドラッグコスモスシロヤマダイテン",
      "business_type": "⑪ 百貨店、総合スーパー",
      "address": "京都府木津川市城山台１３丁目２５－５",
      "lat": 34.726627,
      "lng": 135.828832,
      "geocoding_level": null,
      "phone": "0774-71-8668",
      "license_no": "",
      "license_date": null,
      "expire_date": null
    },
    {
      "name": "ドラッグコスモス兜台店",
      "name_kana": "ドラッグコスモスカブトダイテン",
      "business_type": "⑪ 百貨店、総合スーパー",
      "address": "京都府木津川市兜台６丁目３－１",
      "lat": 34.731266,
      "lng": 135.786304,
      "geocoding_level": null,
      "phone": "0774-75-1755",
      "license_no": "",
      "license_date": null,
      "expire_date": null
    },
    {
      "name": "京都山城総合医療センター内職員食堂",
      "name_kana": "キョウトヤマシロソウゴウイリョウセンターナイショクインショクドウ",
      "business_type": "① 飲食店営業",
      "address": "京都府木津川市木津駅前一丁目27番地",
      "lat": 34.735953,
      "lng": 135.823597,
      "geocoding_level": null,
      "phone": "0774720235",
      "license_no": "京都府山城南保健所指令３山南保環第１号の１３１",
      "license_date": "2021-11-12",
      "expire_date": "2027-11-30"
    },
    {
      "name": "加茂カントリークラブレストラン　スタート売店",
      "name_kana": "カモカントリークラブレストランスタートバイテン",
      "business_type": "① 飲食店営業",
      "address": "京都府木津川市加茂町高去花原７番地",
      "lat": 34.739887,
      "lng": 135.904231,
      "geocoding_level": null,
      "phone": "0774-76-0491",
      "license_no": "京都府山城南保健所指令３山南保環第１号の１２８",
      "license_date": "2021-11-11",
      "expire_date": "2027-11-30"
    },
    {
      "name": "三桝牛乳店",
      "name_kana": "ミマスギュウニュウテン",
      "business_type": "③ 乳類販売業",
      "address": "京都府木津川市木津清水１０２",
      "lat": 34.734148,
      "lng": 135.818806,
      "geocoding_level": null,
      "phone": "0774-72-2613",
      "license_no": "",
      "license_date": null,
      "expire_date": null
    },
    {
      "name": "宇治茶GANG",
      "name_kana": "ウジチャギャング",
      "business_type": "⑬ その他の食料・飲料販売業",
      "address": "京都府木津川市南加茂台5丁目11-5",
      "lat": 34.739136,
      "lng": 135.871077,
      "geocoding_level": null,
      "phone": "070-8415-6392",
      "license_no": "",
      "license_date": null,
      "expire_date": null
    },
    {
      "name": "宇治茶GANG",
      "name_kana": "ウジチャギャング",
      "business_type": "⑯ コーヒー製造・加工業（飲料の製造を除く。）",
      "address": "京都府木津川市南加茂台5丁目11-5",
      "lat": 34.739136,
      "lng": 135.871077,
      "geocoding_level": null,
      "phone": "070-8415-6392",
      "license_no": "",
      "license_date": null,
      "expire_date": null
    },
    {
      "name": "宇治茶GANG",
      "name_kana": "ウジチャギャング",
      "business_type": "㉑ 製茶業",
      "address": "京都府木津川市南加茂台5丁目11-5",
      "lat": 34.739136,
      "lng": 135.871077,
      "geocoding_level": null,
      "phone": "070-8415-6392",
      "license_no": "",
      "license_date": null,
      "expire_date": null
    },
    {
      "name": "あんころcafe",
      "name_kana": "アンコロカフェ",
      "business_type": "① 飲食店営業",
      "address": "京都府木津川市京都府内一円（京都市を除く。）",
      "lat": 34.737144,
      "lng": 135.820081,
      "geocoding_level": null,
      "phone": "090-6906-5300",
      "license_no": "京都府山城南保健所指令３山南保環第１号の１３３",
      "license_date": "2021-11-18",
      "expire_date": "2026-11-30"
    },
    {
      "name": "パリクロアッサン木津店",
      "name_kana": "パリクロアッサンキヅテン",
      "business_type": "⑪ 菓子製造業",
      "address": "京都府木津川市相楽城西15番地 アル・プラザ木津１F",
      "lat": 34.738671,
      "lng": 135.792078,
      "geocoding_level": null,
      "phone": "0774718611",
      "license_no": "京都府山城南保健所指令３山南保環第１号の129",
      "license_date": "2021-11-12",
      "expire_date": "2027-11-30"
    },
    {
      "name": "川喜",
      "name_kana": "カワキ",
      "business_type": "① 飲食店営業",
      "address": "京都府木津川市木津町西垣外７８",
      "lat": 34.738794,
      "lng": 135.817166,
      "geocoding_level": null,
      "phone": "0774-72-0013",
      "license_no": "京都府山城南保健所指令３山南保環第１号の１３２",
      "license_date": "2021-11-12",
      "expire_date": "2027-11-30"
    },
    {
      "name": "UMEMIDAI　COFFEE",
      "name_kana": "ウメミダイコーヒー",
      "business_type": "① 飲食店営業",
      "address": "京都府木津川市梅美台2-19-26",
      "lat": 34.718703,
      "lng": 135.835672,
      "geocoding_level": null,
      "phone": "09053669734",
      "license_no": "京都府山城南保健所指令３山南保環第１号の130",
      "license_date": "2021-11-12",
      "expire_date": "2027-11-30"
    },
    {
      "name": "株式会社　城南青果",
      "name_kana": "カブシキガイシャ　ジョウナンセイカ",
      "business_type": "⑦ 野菜果物販売業",
      "address": "京都府木津川市山城町上狛柘榴垣外18-5",
      "lat": 34.754952,
      "lng": 135.813441,
      "geocoding_level": null,
      "phone": "",
      "license_no": "",
      "license_date": null,
      "expire_date": null
    },
    {
      "name": "SD CAFE",
      "name_kana": "エスディーカフェ",
      "business_type": "① 飲食店営業",
      "address": "京都府木津川市吐師松葉１１番地 スーパードーム木津店内",
      "lat": 34.741532,
      "lng": 135.795352,
      "geocoding_level": null,
      "phone": "",
      "license_no": "京都府山城南保健所指令５山南保環第１号の１４２",
      "license_date": "2023-07-26",
      "expire_date": "2029-11-30"
    },
    {
      "name": "藤原商店",
      "name_kana": "フジワラショウテン",
      "business_type": "㉚ 密封包装食品製造業",
      "address": "京都府木津川市山城町綺田山際２６",
      "lat": 34.785469,
      "lng": 135.816591,
      "geocoding_level": null,
      "phone": "0774-86-3946",
      "license_no": "京都府山城南保健所指令３山南保環第１号の１３７",
      "license_date": "2021-11-18",
      "expire_date": "2027-11-30"
    },
    {
      "name": "中野梅一",
      "name_kana": "ナカノウメカズ",
      "business_type": "㉚ 密封包装食品製造業",
      "address": "京都府木津川市山城町綺田山ノ上４０",
      "lat": 34.779506,
      "lng": 135.817544,
      "geocoding_level": null,
      "phone": "0774-86-3491",
      "license_no": "京都府山城南保健所指令３山南保環第１号の１３８",
      "license_date": "2021-11-18",
      "expire_date": "2027-11-30"
    },
    {
      "name": "珈琲処　ぼん",
      "name_kana": "コーヒードコロボンン",
      "business_type": "① 飲食店営業",
      "address": "京都府木津川市京都府一円（京都市を除く）",
      "lat": 34.737144,
      "lng": 135.820081,
      "geocoding_level": null,
      "phone": "090-1916-4140",
      "license_no": "京都府山城南保健所指令３山南保環第１号の１４０",
      "license_date": "2021-11-19",
      "expire_date": "2026-11-30"
    },
    {
      "name": "株式会社三桝嘉七商店",
      "name_kana": "カブシキガイシャミマスカシチショウテン",
      "business_type": "㉜ 添加物製造業",
      "address": "京都府木津川市木津町宮ノ内９",
      "lat": 34.731899,
      "lng": 135.818747,
      "geocoding_level": null,
      "phone": "0774-72-0216",
      "license_no": "京都府山城南保健所指令３山南保環第１号の１４１",
      "license_date": "2021-11-19",
      "expire_date": "2027-11-30"
    },
    {
      "name": "株式会社三桝嘉七商店",
      "name_kana": "カブシキガイシャミマスカシチショウテン",
      "business_type": "⑭ 清涼飲料水製造業",
      "address": "京都府木津川市木津町宮ノ内９番地",
      "lat": 34.731899,
      "lng": 135.818747,
      "geocoding_level": null,
      "phone": "0774-72-0216",
      "license_no": "京都府山城南保健所指令５山南保環第１号の２３２",
      "license_date": "2023-12-01",
      "expire_date": "2029-11-30"
    },
    {
      "name": "アル・プラザ木津",
      "name_kana": "アルプラザキヅ",
      "business_type": "① 飲食店営業",
      "address": "京都府木津川市相楽城西１５",
      "lat": 34.738574,
      "lng": 135.791962,
      "geocoding_level": null,
      "phone": "0774-71-5800",
      "license_no": "京都府山城南保健所指令３山南保環第１号の１４２",
      "license_date": "2021-11-19",
      "expire_date": "2026-11-30"
    },
    {
      "name": "アル・プラザ木津　水自販機",
      "name_kana": "アルプラザキヅミズジハンキ",
      "business_type": "⑫ 自動販売機による販売業（コップ式自動販売機（自動洗浄・屋内設置）及び営業許可の対象となる自動販売機を除く）",
      "address": "京都府木津川市相楽城西15番地",
      "lat": 34.738574,
      "lng": 135.791962,
      "geocoding_level": null,
      "phone": "0774-71-5800",
      "license_no": "",
      "license_date": null,
      "expire_date": null
    },
    {
      "name": "アル・プラザ木津　デリカ",
      "name_kana": "アル・プラザキヅデリカ",
      "business_type": "① 飲食店営業",
      "address": "京都府木津川市相楽城西15番地",
      "lat": 34.738574,
      "lng": 135.791962,
      "geocoding_level": null,
      "phone": "",
      "license_no": "京都府山城南保健所指令４山南保環第１号の１９６",
      "license_date": "2022-11-25",
      "expire_date": "2028-11-30"
    },
    {
      "name": "アル・プラザ木津　加工食品",
      "name_kana": "アルプラザキヅカコウショクヒン",
      "business_type": "② 調理機能を有する自動販売機（要許可）",
      "address": "京都府木津川市相楽城西１５番地",
      "lat": 34.738574,
      "lng": 135.791962,
      "geocoding_level": null,
      "phone": "0774-71-5800",
      "license_no": "京都府山城南保健所指令６山南保環第１号の１９０",
      "license_date": "2024-11-14",
      "expire_date": "2029-11-30"
    },
    {
      "name": "アル・プラザ木津　鮮魚",
      "name_kana": "アルプラザキヅセンギョ",
      "business_type": "① 飲食店営業",
      "address": "京都府木津川市相楽城西１５番地",
      "lat": 34.738574,
      "lng": 135.791962,
      "geocoding_level": null,
      "phone": "0774-71-5800",
      "license_no": "京都府山城南保健所指令６山南保環第１号の１９１",
      "license_date": "2024-11-14",
      "expire_date": "2030-11-30"
    },
    {
      "name": "アル・プラザ木津　鮮魚",
      "name_kana": "アルプラザキヅセンギョ",
      "business_type": "④ 魚介類販売業",
      "address": "京都府木津川市相楽城西１５番地",
      "lat": 34.738574,
      "lng": 135.791962,
      "geocoding_level": null,
      "phone": "0774-71-5800",
      "license_no": "京都府山城南保健所指令６山南保環第１号の１９２",
      "license_date": "2024-11-14",
      "expire_date": "2030-11-30"
    },
    {
      "name": "アル・プラザ木津　精肉",
      "name_kana": "アルプラザキヅセイニク",
      "business_type": "① 飲食店営業",
      "address": "京都府木津川市相楽城西１５番地",
      "lat": 34.738574,
      "lng": 135.791962,
      "geocoding_level": null,
      "phone": "0774-71-5800",
      "license_no": "京都府山城南保健所指令６山南保環第１号の１９３",
      "license_date": "2024-11-14",
      "expire_date": "2030-11-30"
    },
    {
      "name": "アル・プラザ木津　精肉",
      "name_kana": "アルプラザキヅセイニク",
      "business_type": "③ 食肉販売業",
      "address": "京都府木津川市相楽城西１５番地",
      "lat": 34.738574,
      "lng": 135.791962,
      "geocoding_level": null,
      "phone": "0774-71-5800",
      "license_no": "京都府山城南保健所指令６山南保環第１号の１９４",
      "license_date": "2024-11-14",
      "expire_date": "2030-11-30"
    },
    {
      "name": "アル・プラザ木津　青果",
      "name_kana": "アルプラザキヅセイカ",
      "business_type": "⑪ 菓子製造業",
      "address": "京都府木津川市相楽城西１５番地",
      "lat": 34.738574,
      "lng": 135.791962,
      "geocoding_level": null,
      "phone": "0774-71-5800",
      "license_no": "京都府山城南保健所指令６山南保環第１号の１９５",
      "license_date": "2024-11-14",
      "expire_date": "2030-11-30"
    },
    {
      "name": "ちくりん",
      "name_kana": "チクリン",
      "business_type": "① 飲食店営業",
      "address": "京都府木津川市市坂高座81-1",
      "lat": 34.716388,
      "lng": 135.82636,
      "geocoding_level": null,
      "phone": "0774-72-7100",
      "license_no": "京都府山城南保健所指令３山南保環第１号の１４３",
      "license_date": "2021-11-19",
      "expire_date": "2027-11-30"
    },
    {
      "name": "すき家　イオンモール高の原店",
      "name_kana": "スキヤ　イオンモルタカノハラテン",
      "business_type": "⑬ その他の食料・飲料販売業",
      "address": "京都府木津川市相楽台1-1-1 イオン高の原4F",
      "lat": 34.725679,
      "lng": 135.790465,
      "geocoding_level": null,
      "phone": "",
      "license_no": "",
      "license_date": null,
      "expire_date": null
    },
    {
      "name": "大戸屋ごはん処　イオンモール高の原店",
      "name_kana": "オオトヤゴハンドコロイオンモールタカノハラテン",
      "business_type": "① 飲食店営業",
      "address": "京都府木津川市相楽台１－１－１",
      "lat": 34.725679,
      "lng": 135.790465,
      "geocoding_level": null,
      "phone": "0774-66-7871",
      "license_no": "京都府山城南保健所指令３山南保環第１号の１４４",
      "license_date": "2021-11-26",
      "expire_date": "2027-11-30"
    },
    {
      "name": "あじさい館",
      "name_kana": "アジサイカン",
      "business_type": "⑰ 農産保存食料品製造・加工業",
      "address": "京都府木津川市加茂町高田下ノ平２４－１",
      "lat": 34.735174,
      "lng": 135.862931,
      "geocoding_level": null,
      "phone": "0774-76-2728",
      "license_no": "",
      "license_date": null,
      "expire_date": null
    },
    {
      "name": "松岡やす子",
      "name_kana": "マツオカヤスコ",
      "business_type": "⑰ 農産保存食料品製造・加工業",
      "address": "京都府木津川市相楽川ノ尻１０４番地",
      "lat": 34.737458,
      "lng": 135.803936,
      "geocoding_level": null,
      "phone": "0774-72-3465",
      "license_no": "",
      "license_date": null,
      "expire_date": null
    },
    {
      "name": "株式会社平和堂　アル・プラザ木津　おいしい水工房",
      "name_kana": "カブシキガイシャヘイワドウ　アル・プラザキヅ　オイシイミズコウボウ",
      "business_type": "⑤ コップ式自動販売機（自動洗浄・屋内設置）",
      "address": "京都府木津川市相楽城西１５番地",
      "lat": 34.738571,
      "lng": 135.791968,
      "geocoding_level": null,
      "phone": "0774-71-5800",
      "license_no": "",
      "license_date": null,
      "expire_date": null
    },
    {
      "name": "株式会社平和堂　フレンドマート木津川店　おいしい水工房",
      "name_kana": "カブシキガイシャヘイワドウ　フレンドマートキヅガワテン　オイシイミズコウボウ",
      "business_type": "⑤ コップ式自動販売機（自動洗浄・屋内設置）",
      "address": "京都府木津川市州見台１丁目１番地１－１",
      "lat": 34.720607,
      "lng": 135.817592,
      "geocoding_level": null,
      "phone": "0774-71-3860",
      "license_no": "",
      "license_date": null,
      "expire_date": null
    },
    {
      "name": "京一",
      "name_kana": "キョウイチ",
      "business_type": "① 飲食店営業",
      "address": "京都府木津川市京都府内一円",
      "lat": 34.810184,
      "lng": 134.992422,
      "geocoding_level": null,
      "phone": "",
      "license_no": "京都府山城南保健所指令５山南保環第１号の１３８",
      "license_date": "2023-07-26",
      "expire_date": "2028-11-30"
    },
    {
      "name": "タッチアップドーナツ",
      "name_kana": "タッチアップドーナツ",
      "business_type": "① 飲食店営業",
      "address": "京都府木津川市京都府内一円（京都市を除く。）",
      "lat": 34.737144,
      "lng": 135.820081,
      "geocoding_level": null,
      "phone": "09038467280",
      "license_no": "京都山城南保健所指令３山南保環第１号の146",
      "license_date": "2021-11-29",
      "expire_date": "2026-11-30"
    },
    {
      "name": "有限会社紀南食品",
      "name_kana": "ユウゲンガイシャキナンショクヒン",
      "business_type": "① 飲食店営業",
      "address": "京都府木津川市相楽城西１５番地",
      "lat": 34.738414,
      "lng": 135.792417,
      "geocoding_level": null,
      "phone": "0774-73-9468",
      "license_no": "京都府山城南保健所指令３山南保環第１号の１４９",
      "license_date": "2021-11-29",
      "expire_date": "2027-11-30"
    },
    {
      "name": "紀南食品（露店）",
      "name_kana": "キナンショクヒンロテン",
      "business_type": "① 飲食店営業",
      "address": "京都府木津川市京都府内一円",
      "lat": 34.737179,
      "lng": 135.820058,
      "geocoding_level": 2,
      "phone": "",
      "license_no": "京都府山城南保健所指令７山南保環第１号の１５６",
      "license_date": "2025-10-07",
      "expire_date": "2030-11-30"
    },
    {
      "name": "杉本番茶",
      "name_kana": "スギモトバンチャ",
      "business_type": "㉑ 製茶業",
      "address": "京都府木津川市山城町北河原乾川原157",
      "lat": 34.768672,
      "lng": 135.807696,
      "geocoding_level": null,
      "phone": "0774865158",
      "license_no": "",
      "license_date": null,
      "expire_date": null
    },
    {
      "name": "堀千尋",
      "name_kana": "ホリチヒロ",
      "business_type": "⑰ 農産保存食料品製造・加工業",
      "address": "京都府木津川市加茂町河原東大門１３",
      "lat": 34.763431,
      "lng": 135.862292,
      "geocoding_level": null,
      "phone": "0774-76-2922",
      "license_no": "",
      "license_date": null,
      "expire_date": null
    },
    {
      "name": "有限会社エイコー",
      "name_kana": "ユウゲンガイシャエイコー",
      "business_type": "③ 乳類販売業",
      "address": "京都府木津川市木津清水26-1",
      "lat": 34.7353,
      "lng": 135.821302,
      "geocoding_level": null,
      "phone": "0774723027",
      "license_no": "",
      "license_date": null,
      "expire_date": null
    },
    {
      "name": "有限会社エイコー",
      "name_kana": "ユウゲンガイシャエイコー",
      "business_type": "⑦ 野菜果物販売業",
      "address": "京都府木津川市木津清水26-1",
      "lat": 34.7353,
      "lng": 135.821302,
      "geocoding_level": null,
      "phone": "0774723027",
      "license_no": "",
      "license_date": null,
      "expire_date": null
    },
    {
      "name": "ゼロちゃん本舗２",
      "name_kana": "ゼロチャンホンポ",
      "business_type": "① 飲食店営業",
      "address": "京都府木津川市京都府内一円（京都市を除く。）",
      "lat": 34.737144,
      "lng": 135.820081,
      "geocoding_level": null,
      "phone": "090-6667-6067",
      "license_no": "京都府山城南保健所指令３山南保環第１号の１５１",
      "license_date": "2021-12-01",
      "expire_date": "2026-11-30"
    },
    {
      "name": "緑寿園本店",
      "name_kana": "リョクジュエンホンテン",
      "business_type": "㉑ 製茶業",
      "address": "京都府木津川市山城町上狛東作り道８",
      "lat": 34.74701,
      "lng": 135.818273,
      "geocoding_level": null,
      "phone": "0774-86-2117",
      "license_no": "",
      "license_date": null,
      "expire_date": null
    },
    {
      "name": "リンガーハットイオンモール高の原店",
      "name_kana": "リンガーハットイオンモールタカノハラテン",
      "business_type": "㉙ その他",
      "address": "京都府木津川市相楽台1-1-1",
      "lat": 34.725347,
      "lng": 135.790537,
      "geocoding_level": null,
      "phone": "0774751897",
      "license_no": "",
      "license_date": null,
      "expire_date": null
    },
    {
      "name": "ＰＩＺＺＡ　ＲＯＴＯＬＯ　ピッツァ　ロトロ",
      "name_kana": "ピッツァ　ロトロ　ピッツァ　ロトロ",
      "business_type": "① 飲食店営業",
      "address": "京都府木津川市京都府内一円",
      "lat": 34.737179,
      "lng": 135.820058,
      "geocoding_level": 2,
      "phone": "090-6065-3615",
      "license_no": "京都府山城南保健所指令７山南保環第１号の２４３",
      "license_date": "2025-11-25",
      "expire_date": "2030-11-30"
    },
    {
      "name": "森井ファーム",
      "name_kana": "モリイファーム",
      "business_type": "㉑ 製茶業",
      "address": "京都府木津川市加茂町大野丑谷9-1",
      "lat": 34.75799,
      "lng": 135.884132,
      "geocoding_level": null,
      "phone": "0774344354",
      "license_no": "",
      "license_date": null,
      "expire_date": null
    },
    {
      "name": "森井ファームのお茶（茶禅一味）",
      "name_kana": "モリイファームノオチャ　チャゼンイチミ",
      "business_type": "① 飲食店営業",
      "address": "京都府木津川市京都府内一円",
      "lat": 34.810184,
      "lng": 134.992422,
      "geocoding_level": null,
      "phone": "",
      "license_no": "京都府山城南保健所指令５山南保環第１号の１７２",
      "license_date": "2023-09-28",
      "expire_date": "2028-11-30"
    },
    {
      "name": "森井ファームのお茶（茶禅一味）",
      "name_kana": "モリイファームノオチャ　チャゼンイチミ",
      "business_type": "㉑ 製茶業",
      "address": "京都府木津川市京都府内一円",
      "lat": 34.810184,
      "lng": 134.992422,
      "geocoding_level": null,
      "phone": "",
      "license_no": "",
      "license_date": null,
      "expire_date": null
    },
    {
      "name": "喜作園和田茶舗",
      "name_kana": "キサクエンワダチャホ",
      "business_type": "㉑ 製茶業",
      "address": "京都府木津川市山城町上狛的場１２",
      "lat": 34.749016,
      "lng": 135.817351,
      "geocoding_level": null,
      "phone": "0774-86-2038",
      "license_no": "",
      "license_date": null,
      "expire_date": null
    },
    {
      "name": "社会福祉法人楽慈会　山城ぬくもりの里",
      "name_kana": "シャカイフクシホウジンラクジカイ　ヤマシロヌクモリノサト",
      "business_type": "㉖ 集団給食施設",
      "address": "京都府木津川市山城町上狛天竺堂１－１",
      "lat": 34.754348,
      "lng": 135.823574,
      "geocoding_level": null,
      "phone": "0774-86-5460",
      "license_no": "",
      "license_date": null,
      "expire_date": null
    },
    {
      "name": "有限会社杉本万吉本店",
      "name_kana": "ユウゲンガイシャスギモトマンキチホンテン",
      "business_type": "㉑ 製茶業",
      "address": "京都府木津川市山城町上狛大目鏡１３番地",
      "lat": 34.748015,
      "lng": 135.820855,
      "geocoding_level": null,
      "phone": "0774-86-2107",
      "license_no": "",
      "license_date": null,
      "expire_date": null
    },