{
  "meta": {
    "updated": 1783568789,
    "sources": [
      {
        "source": "厚生労働省 食品衛生申請等システム（オープンデータ）",
        "license": "公共データ利用規約（第1.0版, PDL1.0）"
      }
    ]
  },
  "data": [
    {
      "name": "ダイソー　ウニクス上里店",
      "name_kana": "ダイソー　ウニクスカミサトテン",
      "business_type": "⑬ その他の食料・飲料販売業",
      "address": "埼玉県児玉郡上里町大字七本木２２７２－１",
      "lat": 36.237668,
      "lng": 139.154714,
      "geocoding_level": null,
      "phone": "",
      "license_no": "",
      "license_date": null,
      "expire_date": null
    },
    {
      "name": "スターバックスコーヒー上里サービスエリア（下り線）店",
      "name_kana": "スターバックスコーヒーカミサトサービスエリアクダリセンテン",
      "business_type": "⑬ その他の食料・飲料販売業",
      "address": "埼玉県児玉郡上里町五明820",
      "lat": 36.253957,
      "lng": 139.120413,
      "geocoding_level": null,
      "phone": "0495-35-1101",
      "license_no": "",
      "license_date": null,
      "expire_date": null
    },
    {
      "name": "スターバックスコーヒー上里サービスエリア(上り線）店",
      "name_kana": "スターバックスコーヒーカミサトサービスエリアノボリセンテン",
      "business_type": "⑬ その他の食料・飲料販売業",
      "address": "埼玉県児玉郡上里町五明849-1",
      "lat": 36.25626,
      "lng": 139.119751,
      "geocoding_level": null,
      "phone": "0495-35-1075",
      "license_no": "",
      "license_date": null,
      "expire_date": null
    },
    {
      "name": "スターバックスコーヒーウニクス上里店",
      "name_kana": "スターバックスコーヒーウニクスカミサトテン",
      "business_type": "① 飲食店営業",
      "address": "埼玉県児玉郡上里町大字七本木2272-1",
      "lat": 36.237676,
      "lng": 139.154698,
      "geocoding_level": null,
      "phone": "0495-23-9122",
      "license_no": "1-119",
      "license_date": "2025-12-24",
      "expire_date": "2032-05-31"
    },
    {
      "name": "スターバックスコーヒーウニクス上里店",
      "name_kana": "スターバックスコーヒーウニクスカミサトテン",
      "business_type": "⑬ その他の食料・飲料販売業",
      "address": "埼玉県児玉郡上里町大字七本木2272-1",
      "lat": 36.237676,
      "lng": 139.154698,
      "geocoding_level": null,
      "phone": "0495-23-9122",
      "license_no": "",
      "license_date": null,
      "expire_date": null
    },
    {
      "name": "スターバックスコーヒー上里サービスエリア上り線店",
      "name_kana": "スターバックスコーヒー カミサトサービスエリアノボリセンテン",
      "business_type": "① 飲食店営業",
      "address": "埼玉県児玉郡上里町五明849-1",
      "lat": 36.25626,
      "lng": 139.119751,
      "geocoding_level": null,
      "phone": "0495-35-1075",
      "license_no": "2-114",
      "license_date": "2026-04-03",
      "expire_date": "2032-05-31"
    },
    {
      "name": "スターバックスコーヒー上里サービスエリア下り線店",
      "name_kana": "スターバックスコーヒーカミサトサービスエリアクダリセンテン",
      "business_type": "① 飲食店営業",
      "address": "埼玉県児玉郡上里町五明820",
      "lat": 36.253957,
      "lng": 139.120413,
      "geocoding_level": null,
      "phone": "0495-35-1101",
      "license_no": "1-6",
      "license_date": "2026-04-15",
      "expire_date": "2032-05-31"
    },
    {
      "name": "ヤオコー　上里店",
      "name_kana": "ヤオコー　カミサトテン",
      "business_type": "⑪ 百貨店、総合スーパー",
      "address": "埼玉県児玉郡上里町七本木2272番1",
      "lat": 36.237904,
      "lng": 139.151375,
      "geocoding_level": null,
      "phone": "0495-35-2711",
      "license_no": "",
      "license_date": null,
      "expire_date": null
    },
    {
      "name": "ヤオコー　上里店",
      "name_kana": "ヤオコー　カミサトテン",
      "business_type": "⑫ 自動販売機による販売業（コップ式自動販売機（自動洗浄・屋内設置）及び営業許可の対象となる自動販売機を除く）",
      "address": "埼玉県児玉郡上里町七本木2272番1",
      "lat": 36.237904,
      "lng": 139.151375,
      "geocoding_level": null,
      "phone": "0495-35-2711",
      "license_no": "",
      "license_date": null,
      "expire_date": null
    },
    {
      "name": "ヤオコー　上里店　(精肉)",
      "name_kana": "ヤオコー　カミサトテン　セイニク",
      "business_type": "① 飲食店営業",
      "address": "埼玉県児玉郡上里町七本木2272番1",
      "lat": 36.237904,
      "lng": 139.151375,
      "geocoding_level": null,
      "phone": "0495-35-2711",
      "license_no": "2-112",
      "license_date": "2021-11-22",
      "expire_date": "2028-11-30"
    },
    {
      "name": "ヤオコー　上里店　(精肉)",
      "name_kana": "ヤオコー　カミサトテン　セイニク",
      "business_type": "③ 食肉販売業",
      "address": "埼玉県児玉郡上里町七本木2272番1",
      "lat": 36.237904,
      "lng": 139.151375,
      "geocoding_level": null,
      "phone": "0495-35-2711",
      "license_no": "2-112",
      "license_date": "2021-11-22",
      "expire_date": "2028-11-30"
    },
    {
      "name": "ヤオコー　上里店　(鮮魚)",
      "name_kana": "ヤオコー　カミサトテン　センギョ",
      "business_type": "④ 魚介類販売業",
      "address": "埼玉県児玉郡上里町七本木2272番1",
      "lat": 36.238136,
      "lng": 139.152066,
      "geocoding_level": null,
      "phone": "0495-35-2711",
      "license_no": "2-113",
      "license_date": "2021-11-22",
      "expire_date": "2028-11-30"
    },
    {
      "name": "ヤオコー　上里店　(惣菜)",
      "name_kana": "ヤオコー　カミサトテン　ソウザイ",
      "business_type": "① 飲食店営業",
      "address": "埼玉県児玉郡上里町七本木2272番1",
      "lat": 36.237015,
      "lng": 139.151454,
      "geocoding_level": null,
      "phone": "0495-35-2711",
      "license_no": "2-116",
      "license_date": "2021-11-10",
      "expire_date": "2028-11-30"
    },
    {
      "name": "ヤオコー　上里店　(ベーカリー)",
      "name_kana": "ヤオコー　カミサトテン　ベーカリー",
      "business_type": "⑪ 菓子製造業",
      "address": "埼玉県児玉郡上里町七本木2272番1",
      "lat": 36.237904,
      "lng": 139.151375,
      "geocoding_level": null,
      "phone": "0495-35-2711",
      "license_no": "2-114",
      "license_date": "2021-11-10",
      "expire_date": "2028-11-30"
    },
    {
      "name": "ヤオコー　上里店　(社員食堂)",
      "name_kana": "ヤオコー　カミサトテン　シャインショクドウ",
      "business_type": "① 飲食店営業",
      "address": "埼玉県児玉郡上里町七本木2272番1",
      "lat": 36.237593,
      "lng": 139.154358,
      "geocoding_level": null,
      "phone": "0495-33-1527",
      "license_no": "2-111",
      "license_date": "2021-11-10",
      "expire_date": "2028-11-30"
    },
    {
      "name": "ヤオコー　上里店　(寿司)",
      "name_kana": "ヤオコー　カミサトテン　スシ",
      "business_type": "① 飲食店営業",
      "address": "埼玉県児玉郡上里町七本木2272番1",
      "lat": 36.237904,
      "lng": 139.151375,
      "geocoding_level": null,
      "phone": "0495-35-2711",
      "license_no": "2-115",
      "license_date": "2021-11-10",
      "expire_date": "2028-11-30"
    },
    {
      "name": "ベイシア上里本庄店",
      "name_kana": "ベイシアカミサトホンジョウテン",
      "business_type": "⑪ 百貨店、総合スーパー",
      "address": "埼玉県児玉郡上里町神保原町1845",
      "lat": 36.257363,
      "lng": 139.158014,
      "geocoding_level": null,
      "phone": "0495351111",
      "license_no": "",
      "license_date": null,
      "expire_date": null
    },
    {
      "name": "とりせん上里店",
      "name_kana": "トリセンカミサトテン",
      "business_type": "⑫ 自動販売機による販売業（コップ式自動販売機（自動洗浄・屋内設置）及び営業許可の対象となる自動販売機を除く）",
      "address": "埼玉県児玉郡上里町七本木2033-1",
      "lat": 36.247806,
      "lng": 139.152877,
      "geocoding_level": null,
      "phone": "",
      "license_no": "",
      "license_date": null,
      "expire_date": null
    },
    {
      "name": "スギ薬局 上里店",
      "name_kana": "スギヤッキョク  カミサトテン",
      "business_type": "⑬ その他の食料・飲料販売業",
      "address": "埼玉県児玉郡上里町七本木2272番地1 ウニクス上里内",
      "lat": 36.237904,
      "lng": 139.151375,
      "geocoding_level": null,
      "phone": "0495-35-0810",
      "license_no": "",
      "license_date": null,
      "expire_date": null
    },
    {
      "name": "上里カンターレ",
      "name_kana": "カミサトカンターレ",
      "business_type": "⑤ コップ式自動販売機（自動洗浄・屋内設置）",
      "address": "埼玉県児玉郡上里町勅使河原1000-2",
      "lat": 36.258241,
      "lng": 139.118621,
      "geocoding_level": null,
      "phone": "0495350001",
      "license_no": "",
      "license_date": null,
      "expire_date": null
    },
    {
      "name": "ごはんどき上里店",
      "name_kana": "ゴハンドキカミサトテン",
      "business_type": "① 飲食店営業",
      "address": "埼玉県児玉郡上里町金久保394-1",
      "lat": 36.259673,
      "lng": 139.13802,
      "geocoding_level": null,
      "phone": "0495-35-2311",
      "license_no": "指令本保第2-2号",
      "license_date": "2025-06-01",
      "expire_date": "2031-05-31"
    },
    {
      "name": "ガスト 本庄上里町店",
      "name_kana": "ガストホンジョウカミサトマチテン",
      "business_type": "⑬ その他の食料・飲料販売業",
      "address": "埼玉県児玉郡上里町七本木２５５８－１",
      "lat": 36.237884,
      "lng": 139.163705,
      "geocoding_level": null,
      "phone": "0495-35-1189",
      "license_no": "",
      "license_date": null,
      "expire_date": null
    },
    {
      "name": "あじまん　カインズ上里本庄店",
      "name_kana": "アジマン　カインズウエサトホンジョウテン",
      "business_type": "① 飲食店営業",
      "address": "埼玉県児玉郡上里町神保原町字北稲塚1845",
      "lat": 36.25655,
      "lng": 139.155011,
      "geocoding_level": null,
      "phone": "0495-35-1111",
      "license_no": "指令本保第1-80号",
      "license_date": "2025-09-25",
      "expire_date": "2031-11-30"
    },
    {
      "name": "赤城食堂",
      "name_kana": "アカギショクドウ",
      "business_type": "① 飲食店営業",
      "address": "埼玉県児玉郡上里町七本木1162‐10",
      "lat": 36.252088,
      "lng": 139.152943,
      "geocoding_level": null,
      "phone": "",
      "license_no": "指令本保第1-39号",
      "license_date": "2025-06-20",
      "expire_date": "2031-11-30"
    },
    {
      "name": "メガセンタートライアル上里店",
      "name_kana": "メガセンタートライアルカミサトテン",
      "business_type": "⑪ 百貨店、総合スーパー",
      "address": "埼玉県児玉郡上里町大字七本木２１２１番地２",
      "lat": 36.249008,
      "lng": 139.155681,
      "geocoding_level": null,
      "phone": "050-385-0794",
      "license_no": "",
      "license_date": null,
      "expire_date": null
    },
    {
      "name": "メガセンタートライアル上里店",
      "name_kana": "メガセンタートライアルカミサトテン",
      "business_type": "① 飲食店営業",
      "address": "埼玉県児玉郡上里町大字七本木２１２１番地２",
      "lat": 36.249008,
      "lng": 139.155681,
      "geocoding_level": null,
      "phone": "050-3852-0794",
      "license_no": "指令本保第2-90号",
      "license_date": "2024-12-01",
      "expire_date": "2030-11-30"
    },
    {
      "name": "メガセンタートライアル上里店",
      "name_kana": "メガセンタートライアルカミサトテン",
      "business_type": "③ 食肉販売業",
      "address": "埼玉県児玉郡上里町大字七本木２１２１番地２",
      "lat": 36.249008,
      "lng": 139.155681,
      "geocoding_level": null,
      "phone": "050-3852-0794",
      "license_no": "指令本保第2-90号",
      "license_date": "2024-12-01",
      "expire_date": "2030-11-30"
    },
    {
      "name": "株式会社とりせん上里店",
      "name_kana": "カブシキカイシャトリセンカミサトテン",
      "business_type": "⑪ 百貨店、総合スーパー",
      "address": "埼玉県児玉郡上里町七本木2033-1",
      "lat": 36.247806,
      "lng": 139.152877,
      "geocoding_level": null,
      "phone": "0495-34-1955",
      "license_no": "",
      "license_date": null,
      "expire_date": null
    },
    {
      "name": "株式会社とりせん上里店（寿し）",
      "name_kana": "カブシキガイシャトリセンカミサトテンスシ",
      "business_type": "① 飲食店営業",
      "address": "埼玉県児玉郡上里町七本木2033-1",
      "lat": 36.247806,
      "lng": 139.152877,
      "geocoding_level": null,
      "phone": "",
      "license_no": "指令本保第2-100号",
      "license_date": "2023-12-01",
      "expire_date": "2029-11-30"
    },
    {
      "name": "株式会社とりせん上里店",
      "name_kana": "カブシキガイシャトリセンカミサトテン",
      "business_type": "① 飲食店営業",
      "address": "埼玉県児玉郡上里町七本木2033-1",
      "lat": 36.247806,
      "lng": 139.152877,
      "geocoding_level": null,
      "phone": "",
      "license_no": "指令本保第2-99号",
      "license_date": "2023-12-01",
      "expire_date": "2029-11-30"
    },
    {
      "name": "株式会社とりせん上里店",
      "name_kana": "カブシキガイシャトリセンカミサトテン",
      "business_type": "③ 食肉販売業",
      "address": "埼玉県児玉郡上里町七本木2033-1",
      "lat": 36.247806,
      "lng": 139.152877,
      "geocoding_level": null,
      "phone": "",
      "license_no": "指令本保第2-99号",
      "license_date": "2023-12-01",
      "expire_date": "2029-11-30"
    },
    {
      "name": "株式会社とりせん上里店",
      "name_kana": "カブシキガイシャトリセンカミサトテン",
      "business_type": "④ 魚介類販売業",
      "address": "埼玉県児玉郡上里町七本木2033-1",
      "lat": 36.247806,
      "lng": 139.152877,
      "geocoding_level": null,
      "phone": "",
      "license_no": "指令本保第2-99号",
      "license_date": "2023-12-01",
      "expire_date": "2029-11-30"
    },
    {
      "name": "クスリのアオキ七本木店",
      "name_kana": "クスリノアオキシチホンギテン",
      "business_type": "⑪ 百貨店、総合スーパー",
      "address": "埼玉県児玉郡上里町七本木1904番地１",
      "lat": 36.244186,
      "lng": 139.153035,
      "geocoding_level": null,
      "phone": "0495-71-8481",
      "license_no": "",
      "license_date": null,
      "expire_date": null
    },
    {
      "name": "ウニクス上里　BAGEL&BAGEL催事",
      "name_kana": "ウニクスカミサト　ベーグルアンドベーグルサイジ",
      "business_type": "⑬ その他の食料・飲料販売業",
      "address": "埼玉県児玉郡上里町七本木2272-1 ウニクス上里",
      "lat": 36.238425,
      "lng": 139.152639,
      "geocoding_level": null,
      "phone": "0495-35-0066",
      "license_no": "",
      "license_date": null,
      "expire_date": null
    },
    {
      "name": "ウニクス上里　BAGEL&BAGEL催事",
      "name_kana": "ウニクスカミサト　ベーグルアンドベーグルサイジ",
      "business_type": "㉔ その他の食料品製造・加工業",
      "address": "埼玉県児玉郡上里町七本木2272-1 ウニクス上里",
      "lat": 36.238425,
      "lng": 139.152639,
      "geocoding_level": null,
      "phone": "0495-35-0066",
      "license_no": "",
      "license_date": null,
      "expire_date": null
    },
    {
      "name": "ウニクス上里　BAGEL&BAGEL催事",
      "name_kana": "ウニクスカミサト　ベーグルアンドベーグルサイジ",
      "business_type": "㉙ その他",
      "address": "埼玉県児玉郡上里町七本木2272-1 ウニクス上里",
      "lat": 36.238425,
      "lng": 139.152639,
      "geocoding_level": null,
      "phone": "0495-35-0066",
      "license_no": "",
      "license_date": null,
      "expire_date": null
    },
    {
      "name": "ローソン 上里役場前 店",
      "name_kana": "ローソン カミサトヤクバマエテン",
      "business_type": "⑩ コンビニエンスストア",
      "address": "埼玉県児玉郡上里町七本木5601",
      "lat": 36.250253,
      "lng": 139.143433,
      "geocoding_level": null,
      "phone": "0495-34-0951",
      "license_no": "",
      "license_date": null,
      "expire_date": null
    },
    {
      "name": "上里サービスエリア売店",
      "name_kana": "カミサトサービスエリアバイテン",
      "business_type": "⑬ その他の食料・飲料販売業",
      "address": "埼玉県児玉郡上里町五明836-1 上里SA（上り線）",
      "lat": 36.251806,
      "lng": 139.113295,
      "geocoding_level": null,
      "phone": "0495331263",
      "license_no": "",
      "license_date": null,
      "expire_date": null
    },
    {
      "name": "上里サービスエリア店　ベーカリー",
      "name_kana": "カミサトサービスエリアテン　ベーカリー",
      "business_type": "⑬ その他の食料・飲料販売業",
      "address": "埼玉県児玉郡上里町五明836-1 上里SA（上り線）",
      "lat": 36.251806,
      "lng": 139.113295,
      "geocoding_level": null,
      "phone": "0495331263",
      "license_no": "",
      "license_date": null,
      "expire_date": null
    },
    {
      "name": "ロイヤルスイーツ",
      "name_kana": "ロイヤルスイーツ",
      "business_type": "⑬ その他の食料・飲料販売業",
      "address": "埼玉県児玉郡上里町五明836-1 上里SA（上り線）",
      "lat": 36.251806,
      "lng": 139.113295,
      "geocoding_level": null,
      "phone": "0495331263",
      "license_no": "",
      "license_date": null,
      "expire_date": null
    },
    {
      "name": "いろは堂・三山亭",
      "name_kana": "イロハドウ・ミヤマテイ",
      "business_type": "⑬ その他の食料・飲料販売業",
      "address": "埼玉県児玉郡上里町五明836-1 上里SA（上り線）",
      "lat": 36.251806,
      "lng": 139.113295,
      "geocoding_level": null,
      "phone": "0495331263",
      "license_no": "",
      "license_date": null,
      "expire_date": null
    },
    {
      "name": "Ｄ’ｓｔａｔｉｏｎ上里ＪｏｙＣｉｔｙ",
      "name_kana": "ディーステーションコウザトジョイシティー",
      "business_type": "⑫ 自動販売機による販売業（コップ式自動販売機（自動洗浄・屋内設置）及び営業許可の対象となる自動販売機を除く）",
      "address": "埼玉県児玉郡上里町金久保482-1",
      "lat": 36.261737,
      "lng": 139.140489,
      "geocoding_level": null,
      "phone": "",
      "license_no": "",
      "license_date": null,
      "expire_date": null
    },
    {
      "name": "マルハン上里店",
      "name_kana": "マルハンカミサトテン",
      "business_type": "⑫ 自動販売機による販売業（コップ式自動販売機（自動洗浄・屋内設置）及び営業許可の対象となる自動販売機を除く）",
      "address": "埼玉県児玉郡上里町金久保394-1",
      "lat": 36.259673,
      "lng": 139.13802,
      "geocoding_level": null,
      "phone": "",
      "license_no": "",
      "license_date": null,
      "expire_date": null
    },
    {
      "name": "ヒマラヤウニクス上里店",
      "name_kana": "ヒマラヤウニクスカミサトテン",
      "business_type": "⑫ 自動販売機による販売業（コップ式自動販売機（自動洗浄・屋内設置）及び営業許可の対象となる自動販売機を除く）",
      "address": "埼玉県児玉郡上里町七本木2272-2",
      "lat": 36.237781,
      "lng": 139.151358,
      "geocoding_level": null,
      "phone": "",
      "license_no": "",
      "license_date": null,
      "expire_date": null
    },
    {
      "name": "ケンタッキーフライドチキンウニクス上里店",
      "name_kana": "ケンタッキーフライドチキンウニクスカミサトテン",
      "business_type": "① 飲食店営業",
      "address": "埼玉県児玉郡上里町七本木2272－1",
      "lat": 36.237904,
      "lng": 139.151375,
      "geocoding_level": null,
      "phone": "0495350571",
      "license_no": "指令本保第1-123号",
      "license_date": "2023-01-17",
      "expire_date": "2029-05-31"
    },
    {
      "name": "ケンタッキーフライドチキンウニクス上里店",
      "name_kana": "ケンタッキーフライドチキンウニクスカミサトテン",
      "business_type": "⑬ その他の食料・飲料販売業",
      "address": "埼玉県児玉郡上里町七本木2272－1",
      "lat": 36.237904,
      "lng": 139.151375,
      "geocoding_level": null,
      "phone": "0495350571",
      "license_no": "",
      "license_date": null,
      "expire_date": null
    },
    {
      "name": "業務スーパー上里店",
      "name_kana": "ギョウムスーパーカミサトテン",
      "business_type": "⑪ 百貨店、総合スーパー",
      "address": "埼玉県児玉郡上里町金久保565番地の3",
      "lat": 36.262494,
      "lng": 139.137098,
      "geocoding_level": null,
      "phone": "0495-71-5619",
      "license_no": "",
      "license_date": null,
      "expire_date": null
    },
    {
      "name": "ウエルシアイオンタウン上里店",
      "name_kana": "ウエルシアイオンタウンカミサトテン",
      "business_type": "⑪ 百貨店、総合スーパー",
      "address": "埼玉県児玉郡上里町金久保359-1",
      "lat": 36.261288,
      "lng": 139.137592,
      "geocoding_level": null,
      "phone": "0495-35-1107",
      "license_no": "",
      "license_date": null,
      "expire_date": null
    },
    {
      "name": "サイゼリヤウニクス上里店",
      "name_kana": "サイゼリヤウニクスカミサトテン",
      "business_type": "⑬ その他の食料・飲料販売業",
      "address": "埼玉県児玉郡上里町七本木2272-1 ｳﾆｸｽ上里内",
      "lat": 36.237668,
      "lng": 139.154714,
      "geocoding_level": null,
      "phone": "0495-35-1700",
      "license_no": "",
      "license_date": null,
      "expire_date": null
    },
    {
      "name": "ドラッグコスモス上里店",
      "name_kana": "ドラッグコスモスカミサトテン",
      "business_type": "⑪ 百貨店、総合スーパー",
      "address": "埼玉県児玉郡上里町神保原町1998番1",
      "lat": 36.255617,
      "lng": 139.15814,
      "geocoding_level": null,
      "phone": "0495-71-9779",
      "license_no": "",
      "license_date": null,
      "expire_date": null
    },
    {
      "name": "ドラッグコスモス七本木店",
      "name_kana": "ドラッグコスモスシチホンギテン",
      "business_type": "⑪ 百貨店、総合スーパー",
      "address": "埼玉県児玉郡上里町七本木1869-2",
      "lat": 36.244406,
      "lng": 139.150093,
      "geocoding_level": null,
      "phone": "0495-71-9977",
      "license_no": "",
      "license_date": null,
      "expire_date": null
    },
    {
      "name": "ローソン上里三町",
      "name_kana": "ローソンカミサトミマチ",
      "business_type": "⑩ コンビニエンスストア",
      "address": "埼玉県児玉郡上里町三町５２７－２",
      "lat": 36.233408,
      "lng": 139.127937,
      "geocoding_level": null,
      "phone": "0495-33-1181",
      "license_no": "",
      "license_date": null,
      "expire_date": null
    },
    {
      "name": "すき家　17号上里店",
      "name_kana": "スキヤ　ジュウナナゴウカミサトテン",
      "business_type": "① 飲食店営業",
      "address": "埼玉県児玉郡上里町神保原町2211-1",
      "lat": 36.256398,
      "lng": 139.156757,
      "geocoding_level": null,
      "phone": "",
      "license_no": "指令本保第2-81号",
      "license_date": "2024-10-08",
      "expire_date": "2030-11-30"
    },
    {
      "name": "すき家　17号上里店",
      "name_kana": "スキヤ　ジュウナナゴウカミサトテン",
      "business_type": "⑬ その他の食料・飲料販売業",
      "address": "埼玉県児玉郡上里町神保原町2211-1",
      "lat": 36.256398,
      "lng": 139.156757,
      "geocoding_level": null,
      "phone": "",
      "license_no": "",
      "license_date": null,
      "expire_date": null
    },
    {
      "name": "ローソン上里古新田",
      "name_kana": "ローソンカミサトコシンデン",
      "business_type": "⑩ コンビニエンスストア",
      "address": "埼玉県児玉郡上里町七本木2644－1",
      "lat": 36.238159,
      "lng": 139.15512,
      "geocoding_level": null,
      "phone": "0495-71-6361",
      "license_no": "",
      "license_date": null,
      "expire_date": null
    },
    {
      "name": "ローソン上里七本木",
      "name_kana": "ローソンカミサトシチホンギ",
      "business_type": "⑩ コンビニエンスストア",
      "address": "埼玉県児玉郡上里町七本木字三田3682‐1",
      "lat": 36.246193,
      "lng": 139.157519,
      "geocoding_level": null,
      "phone": "0495-33-9222",
      "license_no": "",
      "license_date": null,
      "expire_date": null
    },
    {
      "name": "ドゥ・スポーツプラザ上里",
      "name_kana": "ドゥ・スポーツプラザカミサト",
      "business_type": "⑤ コップ式自動販売機（自動洗浄・屋内設置）",
      "address": "埼玉県児玉郡上里町七本木2272-1 UNICS上里",
      "lat": 36.237668,
      "lng": 139.154714,
      "geocoding_level": null,
      "phone": "0495350135",
      "license_no": "",
      "license_date": null,
      "expire_date": null
    },
    {
      "name": "サンフーズ",
      "name_kana": "サンフーズ",
      "business_type": "① 飲食店営業",
      "address": "埼玉県児玉郡上里町七本木3330-61",
      "lat": 36.23208,
      "lng": 139.13974,
      "geocoding_level": null,
      "phone": "0495714523",
      "license_no": "指令本保第1-145号",
      "license_date": "2024-10-31",
      "expire_date": "2029-11-30"
    },
    {
      "name": "関越自動車道　上里サービスエリア（上り線）",
      "name_kana": "カンエツジドウシャドウ　カミサトサービスエリアノボリセン",
      "business_type": "⑤ コップ式自動販売機（自動洗浄・屋内設置）",
      "address": "埼玉県児玉郡上里町五明836－1",
      "lat": 36.251806,
      "lng": 139.113295,
      "geocoding_level": null,
      "phone": "048-646-4377",
      "license_no": "",
      "license_date": null,
      "expire_date": null
    },
    {
      "name": "ブレダ上里",
      "name_kana": "ブレダカミサト",
      "business_type": "⑤ コップ式自動販売機（自動洗浄・屋内設置）",
      "address": "埼玉県児玉郡上里町七本木2272-1 ウニクス上里内",
      "lat": 36.237904,
      "lng": 139.151375,
      "geocoding_level": null,
      "phone": "0495350148",
      "license_no": "",
      "license_date": null,
      "expire_date": null
    },
    {
      "name": "ドゥ・スポーツプラザ上里（1F）",
      "name_kana": "ドゥ・スポーツプラザカミサト",
      "business_type": "⑫ 自動販売機による販売業（コップ式自動販売機（自動洗浄・屋内設置）及び営業許可の対象となる自動販売機を除く）",
      "address": "埼玉県児玉郡上里町七本木2272-1",
      "lat": 36.237676,
      "lng": 139.154698,
      "geocoding_level": null,
      "phone": "0495-35-0145",
      "license_no": "",
      "license_date": null,
      "expire_date": null
    },
    {
      "name": "ドゥ・スマート本庄",
      "name_kana": "ドゥ・スマートホンジョウ",
      "business_type": "⑫ 自動販売機による販売業（コップ式自動販売機（自動洗浄・屋内設置）及び営業許可の対象となる自動販売機を除く）",
      "address": "埼玉県児玉郡上里町中央2-4-60",
      "lat": 36.251813,
      "lng": 139.145163,
      "geocoding_level": null,
      "phone": "0495-71-5626",
      "license_no": "",
      "license_date": null,
      "expire_date": null
    },
    {
      "name": "ドゥ・スポーツプラザ上里（2F）",
      "name_kana": "ドゥ・スポーツプラザカミサト",
      "business_type": "⑫ 自動販売機による販売業（コップ式自動販売機（自動洗浄・屋内設置）及び営業許可の対象となる自動販売機を除く）",
      "address": "埼玉県児玉郡上里町七本木2272-1",
      "lat": 36.237676,
      "lng": 139.154698,
      "geocoding_level": null,
      "phone": "0495-35-0145",
      "license_no": "",
      "license_date": null,
      "expire_date": null
    },
    {
      "name": "ブレダ上里",
      "name_kana": "ブレダカミサト",
      "business_type": "⑫ 自動販売機による販売業（コップ式自動販売機（自動洗浄・屋内設置）及び営業許可の対象となる自動販売機を除く）",
      "address": "埼玉県児玉郡上里町七本木2272-1",
      "lat": 36.237676,
      "lng": 139.154698,
      "geocoding_level": null,
      "phone": "0495-35-0145",
      "license_no": "",
      "license_date": null,
      "expire_date": null
    },
    {
      "name": "atelier C-style",
      "name_kana": "アトリエ　シー　スタイル",
      "business_type": "① 飲食店営業",
      "address": "埼玉県児玉郡上里町七本木２５１３－３",
      "lat": 36.236183,
      "lng": 139.161024,
      "geocoding_level": null,
      "phone": "",
      "license_no": "指令本保第1-33号",
      "license_date": "2023-05-25",
      "expire_date": "2029-05-31"
    },
    {
      "name": "無印良品ウニクス上里店",
      "name_kana": "ムジルシリョウヒンウニクスカミサトテン",
      "business_type": "⑬ その他の食料・飲料販売業",
      "address": "埼玉県児玉郡上里町七本木2272-1",
      "lat": 36.237676,
      "lng": 139.154698,
      "geocoding_level": null,
      "phone": "",
      "license_no": "",
      "license_date": null,
      "expire_date": null
    },
    {
      "name": "大陸通商株式会社　ウニクス上里出張販売",
      "name_kana": "タイリクツウショウカブシキガイシャ　ウニクスタカサキシュッチョウハンバイ",
      "business_type": "② 食肉販売業（包装済みの食肉のみの販売）",
      "address": "埼玉県児玉郡上里町七本木２２７２−１ ウニクス上里",
      "lat": 36.238136,
      "lng": 139.152066,
      "geocoding_level": null,
      "phone": "",
      "license_no": "",
      "license_date": null,
      "expire_date": null
    },
    {
      "name": "餃子コレクション　ウニクス上里前店",
      "name_kana": "ギョウザコレクションウニクスカミサトマエテン",
      "business_type": "⑫ 自動販売機による販売業（コップ式自動販売機（自動洗浄・屋内設置）及び営業許可の対象となる自動販売機を除く）",
      "address": "埼玉県児玉郡上里町七本木2788",
      "lat": 36.237149,
      "lng": 139.154415,
      "geocoding_level": null,
      "phone": "",
      "license_no": "",
      "license_date": null,
      "expire_date": null
    },
    {
      "name": "カスミ移動スーパー",
      "name_kana": "カスミイドウスーパー",
      "business_type": "⑬ その他の食料・飲料販売業",
      "address": "埼玉県児玉郡上里町金久保字蓮山359-1",
      "lat": 36.263894,
      "lng": 139.139838,
      "geocoding_level": null,
      "phone": "0495-71-7500",
      "license_no": "",
      "license_date": null,
      "expire_date": null
    },
    {
      "name": "MeK",
      "name_kana": "メック",
      "business_type": "① 飲食店営業",
      "address": "埼玉県児玉郡上里町七本木3703-5",
      "lat": 36.243797,
      "lng": 139.160642,
      "geocoding_level": null,
      "phone": "",
      "license_no": "指令本保第1-35号",
      "license_date": "2024-06-14",
      "expire_date": "2030-11-30"
    },
    {
      "name": "ビッグボーイ上里店",
      "name_kana": "ビッグボーイカミサトテン",
      "business_type": "⑬ その他の食料・飲料販売業",
      "address": "埼玉県児玉郡上里町神保原町2211",
      "lat": 36.256181,
      "lng": 139.157175,
      "geocoding_level": null,
      "phone": "",
      "license_no": "",
      "license_date": null,
      "expire_date": null
    },
    {
      "name": "ビッグボーイ上里店",
      "name_kana": "ビッグボーイカミサトテン",
      "business_type": "① 飲食店営業",
      "address": "埼玉県児玉郡上里町大字神保原町2211",
      "lat": 36.256181,
      "lng": 139.157175,
      "geocoding_level": null,
      "phone": "",
      "license_no": "指令本保第2-87号",
      "license_date": "2024-11-12",
      "expire_date": "2030-11-30"
    },
    {
      "name": "安盛保育園",
      "name_kana": "アンセイホイクエン",
      "business_type": "㉖ 集団給食施設",
      "address": "埼玉県児玉郡上里町神保原町263－10",
      "lat": 36.25462,
      "lng": 139.151537,
      "geocoding_level": null,
      "phone": "",
      "license_no": "",
      "license_date": null,
      "expire_date": null
    },
    {
      "name": "戸塚農園",
      "name_kana": "トヅカノウエン",
      "business_type": "① 飲食店営業",
      "address": "埼玉県児玉郡上里町七本木2581-3",
      "lat": 36.237797,
      "lng": 139.160464,
      "geocoding_level": null,
      "phone": "09085967664",
      "license_no": "指令本保第1-151号",
      "license_date": "2025-05-13",
      "expire_date": "2031-05-31"
    },
    {
      "name": "幸楽苑　イオンタウン上里店",
      "name_kana": "コウラクエン　イオンタウンカミサトテン",
      "business_type": "⑬ その他の食料・飲料販売業",
      "address": "埼玉県児玉郡上里町金久保字蓮山359番1",
      "lat": 36.263894,
      "lng": 139.139838,
      "geocoding_level": null,
      "phone": "0495350188",
      "license_no": "",
      "license_date": null,
      "expire_date": null
    },
    {
      "name": "上里営業所",
      "name_kana": "カミサトエイギョウショ",
      "business_type": "㉖ 集団給食施設",
      "address": "埼玉県児玉郡上里町七本木3518-1",
      "lat": 36.242085,
      "lng": 139.147424,
      "geocoding_level": null,
      "phone": "0495-35-0500",
      "license_no": "",
      "license_date": null,
      "expire_date": null
    },
    {
      "name": "サンフーズ",
      "name_kana": "サンフーズ",
      "business_type": "① 飲食店営業",
      "address": "埼玉県児玉郡上里町七本木3330-61",
      "lat": 36.23208,
      "lng": 139.13974,
      "geocoding_level": null,
      "phone": "",
      "license_no": "指令本保第1-55号",
      "license_date": "2025-07-11",
      "expire_date": "2030-07-31"
    },
    {
      "name": "Nomadish",
      "name_kana": "ノマディッシュ",
      "business_type": "① 飲食店営業",
      "address": "埼玉県児玉郡上里町七本木",
      "lat": 36.241195,
      "lng": 139.153312,
      "geocoding_level": null,
      "phone": "080-1136-1058",
      "license_no": "1-138",
      "license_date": "2026-02-10",
      "expire_date": "2031-03-31"
    }
  ]
}
