{
  "meta": {
    "updated": 1783568789,
    "sources": [
      {
        "source": "厚生労働省 食品衛生申請等システム（オープンデータ）",
        "license": "公共データ利用規約（第1.0版, PDL1.0）"
      }
    ]
  },
  "data": [
    {
      "name": "YOU游ランド",
      "name_kana": "ユウユウランド",
      "business_type": "⑤ コップ式自動販売機（自動洗浄・屋内設置）",
      "address": "長野県上高井郡高山村牧73",
      "lat": 36.675589,
      "lng": 138.387664,
      "geocoding_level": 3,
      "phone": "",
      "license_no": "",
      "license_date": null,
      "expire_date": null
    },
    {
      "name": "お食事処　一",
      "name_kana": "オショクジドコロ　イチ",
      "business_type": "① 飲食店営業",
      "address": "長野県上高井郡高山村奥山田３６８１－３４５",
      "lat": 36.667505,
      "lng": 138.458535,
      "geocoding_level": null,
      "phone": "026-274-5959",
      "license_no": "16517405",
      "license_date": "2022-12-09",
      "expire_date": "2029-06-30"
    },
    {
      "name": "藤沢魚店",
      "name_kana": "フジサワギョテン",
      "business_type": "④ 魚介類販売業",
      "address": "長野県上高井郡高山村大字奥山田１８７３－１",
      "lat": 36.680256,
      "lng": 138.404589,
      "geocoding_level": null,
      "phone": "",
      "license_no": "16516311",
      "license_date": "2022-06-24",
      "expire_date": "2027-06-30"
    },
    {
      "name": "藤沢魚店",
      "name_kana": "フジサワギョテン",
      "business_type": "① 飲食店営業",
      "address": "長野県上高井郡高山村奥山田１８７３―１",
      "lat": 36.680256,
      "lng": 138.404589,
      "geocoding_level": null,
      "phone": "0262422150",
      "license_no": "14013545",
      "license_date": "2022-06-30",
      "expire_date": "2027-06-30"
    },
    {
      "name": "かのやま",
      "name_kana": "カノヤマ",
      "business_type": "㉚ 密封包装食品製造業",
      "address": "長野県上高井郡高山村大字高井２８８３－２",
      "lat": 36.67295,
      "lng": 138.356161,
      "geocoding_level": null,
      "phone": "070-8487-3933",
      "license_no": "16514245",
      "license_date": "2021-06-25",
      "expire_date": "2027-06-30"
    },
    {
      "name": "歴史公園信州高山　一茶ゆかりの里",
      "name_kana": "レキシコウエンシンシュウタカヤマ　イッサユカリノサト",
      "business_type": "① 飲食店営業",
      "address": "長野県上高井郡高山村大字高井５１６１－１",
      "lat": 36.680544,
      "lng": 138.359403,
      "geocoding_level": null,
      "phone": "026-248-1389",
      "license_no": "14117801",
      "license_date": "2021-06-30",
      "expire_date": "2026-06-30"
    },
    {
      "name": "有限会社松川渓谷温泉　滝の湯",
      "name_kana": "ユウゲンガイシャマツカワケイコクオンセン　タキノユ",
      "business_type": "① 飲食店営業",
      "address": "長野県上高井郡高山村大字奥山田３６８１－３７７",
      "lat": 36.659457,
      "lng": 138.454711,
      "geocoding_level": null,
      "phone": "026-242-2212",
      "license_no": "16246831",
      "license_date": "2021-06-30",
      "expire_date": "2027-06-30"
    },
    {
      "name": "セルバン白雲館",
      "name_kana": "セルバンハクウンカン",
      "business_type": "① 飲食店営業",
      "address": "長野県上高井郡高山村奥山田３６８１－３３４",
      "lat": 36.668316,
      "lng": 138.457058,
      "geocoding_level": null,
      "phone": "026-242-2911",
      "license_no": "16278454",
      "license_date": "2021-06-30",
      "expire_date": "2027-06-30"
    },
    {
      "name": "頌栄女子学院　頌栄山荘",
      "name_kana": "ショウエイジョシガクイン　ショウエイサンソウ",
      "business_type": "① 飲食店営業",
      "address": "長野県上高井郡高山村奥山田3681-17",
      "lat": 36.667112,
      "lng": 138.457726,
      "geocoding_level": null,
      "phone": "026-242-2526",
      "license_no": "16522644",
      "license_date": "2025-07-18",
      "expire_date": "2032-06-30"
    },
    {
      "name": "マルコメ株式会社　高山工場",
      "name_kana": "マルコメカブシキガイシャ　タカヤマコウジョウ",
      "business_type": "㉛ 食品の小分け業",
      "address": "長野県上高井郡高山村大字高井十二崖６１００－８",
      "lat": 36.68113,
      "lng": 138.383458,
      "geocoding_level": null,
      "phone": "026-242-7750",
      "license_no": "16283896",
      "license_date": "2025-06-30",
      "expire_date": "2031-06-30"
    },
    {
      "name": "高山村学校給食センター",
      "name_kana": "タカヤマムラガッコウキュウショクセンター",
      "business_type": "㉖ 集団給食施設",
      "address": "長野県上高井郡高山村高井4575",
      "lat": 36.677729,
      "lng": 138.363379,
      "geocoding_level": null,
      "phone": "026-245-6401",
      "license_no": "",
      "license_date": null,
      "expire_date": null
    },
    {
      "name": "川島醸造",
      "name_kana": "カワシマジョウゾウ",
      "business_type": "㉑ 酒類製造業",
      "address": "長野県上高井郡高山村大字高井１６４５－３",
      "lat": 36.663378,
      "lng": 138.35422,
      "geocoding_level": null,
      "phone": "",
      "license_no": "16514601",
      "license_date": "2021-08-20",
      "expire_date": "2028-06-30"
    },
    {
      "name": "まるよ物産",
      "name_kana": "マルヨブッサン",
      "business_type": "⑦ 野菜果物販売業",
      "address": "長野県上高井郡高山村堀之内475-5",
      "lat": 36.665421,
      "lng": 138.34741,
      "geocoding_level": null,
      "phone": "08053637736",
      "license_no": "",
      "license_date": null,
      "expire_date": null
    },
    {
      "name": "まるよ物産",
      "name_kana": "マルヨブッサン",
      "business_type": "⑰ 農産保存食料品製造・加工業",
      "address": "長野県上高井郡高山村堀之内475-5",
      "lat": 36.665421,
      "lng": 138.34741,
      "geocoding_level": null,
      "phone": "08053637736",
      "license_no": "",
      "license_date": null,
      "expire_date": null
    },
    {
      "name": "高山村社会福祉協議会　通所介護事業所",
      "name_kana": "タカヤマムラシャカイフクシキョウギカイツウショカイゴジギョウショ",
      "business_type": "㉖ 集団給食施設",
      "address": "長野県上高井郡高山村大字牧６－１",
      "lat": 36.677315,
      "lng": 138.37674,
      "geocoding_level": null,
      "phone": "026-242-1221",
      "license_no": "",
      "license_date": null,
      "expire_date": null
    },
    {
      "name": "高山村立たかやま保育園",
      "name_kana": "タカヤマソンリツタカヤマホイクエン",
      "business_type": "㉖ 集団給食施設",
      "address": "長野県上高井郡高山村大字高井４６８",
      "lat": 36.669848,
      "lng": 138.348234,
      "geocoding_level": null,
      "phone": "026-245-6842",
      "license_no": "",
      "license_date": null,
      "expire_date": null
    },
    {
      "name": "旅館わらび野",
      "name_kana": "リョカンワラビノ",
      "business_type": "① 飲食店営業",
      "address": "長野県上高井郡高山村大字奥山田１３２０",
      "lat": 36.681066,
      "lng": 138.398914,
      "geocoding_level": null,
      "phone": "026-242-2901",
      "license_no": "16515379",
      "license_date": "2021-12-28",
      "expire_date": "2028-06-30"
    },
    {
      "name": "ＴＡＭＴＡＭブリューイング",
      "name_kana": "タムタムブリューイング",
      "business_type": "⑫ アイスクリーム類製造業",
      "address": "長野県上高井郡高山村大字高井４６４７－２",
      "lat": 36.678154,
      "lng": 138.368763,
      "geocoding_level": null,
      "phone": "",
      "license_no": "16515703",
      "license_date": "2022-03-25",
      "expire_date": "2028-06-30"
    },
    {
      "name": "（株）藤井荘",
      "name_kana": "フジイソウ",
      "business_type": "㉕ そうざい製造業",
      "address": "長野県上高井郡高山村大字奥山田３５６３番地",
      "lat": 36.671071,
      "lng": 138.423693,
      "geocoding_level": null,
      "phone": "026-242-2711",
      "license_no": "16515952",
      "license_date": "2022-04-20",
      "expire_date": "2028-06-30"
    },
    {
      "name": "藤の華",
      "name_kana": "フジノハナ",
      "business_type": "① 飲食店営業",
      "address": "長野県上高井郡高山村奥山田３５６３",
      "lat": 36.671071,
      "lng": 138.423693,
      "geocoding_level": null,
      "phone": "0262422711",
      "license_no": "14103633",
      "license_date": "2022-06-30",
      "expire_date": "2028-06-30"
    },
    {
      "name": "（株）藤井荘",
      "name_kana": "フジイソウ",
      "business_type": "① 飲食店営業",
      "address": "長野県上高井郡高山村奥山田３５６３",
      "lat": 36.671071,
      "lng": 138.423693,
      "geocoding_level": null,
      "phone": "026-242-2711",
      "license_no": "14103626",
      "license_date": "2025-06-30",
      "expire_date": "2031-06-30"
    },
    {
      "name": "有限会社紅葉館",
      "name_kana": "ユウゲンガイシャコウヨウカン",
      "business_type": "① 飲食店営業",
      "address": "長野県上高井郡高山村大字牧２９７４－４５",
      "lat": 36.659005,
      "lng": 138.47184,
      "geocoding_level": null,
      "phone": "026-242-2710",
      "license_no": "14115273",
      "license_date": "2022-06-30",
      "expire_date": "2028-06-30"
    },
    {
      "name": "食彩酒房　鼓",
      "name_kana": "ショクサイシュボウ　ツヅミ",
      "business_type": "① 飲食店営業",
      "address": "長野県上高井郡高山村高井３２２４－５",
      "lat": 36.679106,
      "lng": 138.362129,
      "geocoding_level": null,
      "phone": "026-248-7619",
      "license_no": "16280042",
      "license_date": "2022-06-30",
      "expire_date": "2028-06-30"
    },
    {
      "name": "食彩酒房　鼓",
      "name_kana": "ショクサイシュボウ　ツヅミ",
      "business_type": "① 飲食店営業",
      "address": "長野県上高井郡高山村大字高井３２２４－５",
      "lat": 36.679106,
      "lng": 138.362129,
      "geocoding_level": null,
      "phone": "",
      "license_no": "16286675",
      "license_date": "2022-06-30",
      "expire_date": "2027-06-30"
    },
    {
      "name": "ペンション　樹里庵",
      "name_kana": "ペンション　ジュリアン",
      "business_type": "① 飲食店営業",
      "address": "長野県上高井郡高山村奥山田３６８１‐８７",
      "lat": 36.667675,
      "lng": 138.456724,
      "geocoding_level": null,
      "phone": "0262422508",
      "license_no": "16297807",
      "license_date": "2022-06-30",
      "expire_date": "2028-06-30"
    },
    {
      "name": "見晴茶屋",
      "name_kana": "ミハラシチャヤ",
      "business_type": "㉕ そうざい製造業",
      "address": "長野県上高井郡高山村奥山田３６８１－１３０",
      "lat": 36.659461,
      "lng": 138.454718,
      "geocoding_level": null,
      "phone": "026-242-2804",
      "license_no": "16264508",
      "license_date": "2023-06-30",
      "expire_date": "2029-06-30"
    },
    {
      "name": "Ｃｏｆｆｅｅ＆Ｇａｌｌｅｒｙ　山田牧場",
      "name_kana": "コーヒーアンドギャラリー　サンタボクジョウ",
      "business_type": "① 飲食店営業",
      "address": "長野県上高井郡高山村大字奥山田３６８１－５２５",
      "lat": 36.66828,
      "lng": 138.456774,
      "geocoding_level": null,
      "phone": "026-242-2932",
      "license_no": "16285388",
      "license_date": "2022-06-30",
      "expire_date": "2027-06-30"
    },
    {
      "name": "ユルル",
      "name_kana": "ユルル",
      "business_type": "① 飲食店営業",
      "address": "長野県上高井郡高山村大字高井５６６－２",
      "lat": 36.667183,
      "lng": 138.351039,
      "geocoding_level": null,
      "phone": "026-274-5252",
      "license_no": "16280238",
      "license_date": "2024-06-28",
      "expire_date": "2030-06-30"
    },
    {
      "name": "Ｃａｎｔｉｎａ　Ｒｉｅｚｏ",
      "name_kana": "カンティーナ　リエゾー",
      "business_type": "㉑ 酒類製造業",
      "address": "長野県上高井郡高山村大字高井４２１０‐１",
      "lat": 36.672427,
      "lng": 138.371571,
      "geocoding_level": null,
      "phone": "09032391097",
      "license_no": "16296751",
      "license_date": "2022-06-30",
      "expire_date": "2028-06-30"
    },
    {
      "name": "Ｃａｎｔｉｎａ　Ｒｉｅｚｏ",
      "name_kana": "カンティーナ　リエゾー",
      "business_type": "① 飲食店営業",
      "address": "長野県上高井郡高山村大字高井４２１０－１",
      "lat": 36.628097,
      "lng": 138.416288,
      "geocoding_level": null,
      "phone": "090-3239-1097",
      "license_no": "16517801",
      "license_date": "2023-03-17",
      "expire_date": "2029-06-30"
    },
    {
      "name": "Cantina Riezo",
      "name_kana": "カンティーナ・リエゾー",
      "business_type": "① 飲食店営業",
      "address": "長野県上高井郡高山村大字高井４２１７番地",
      "lat": 36.672656,
      "lng": 138.371757,
      "geocoding_level": null,
      "phone": "09032391097",
      "license_no": "16518091",
      "license_date": "2023-04-28",
      "expire_date": "2028-06-30"
    },
    {
      "name": "高山村商工会青年部",
      "name_kana": "タカヤマムラショウコウカイセイネンブ",
      "business_type": "① 飲食店営業",
      "address": "長野県上高井郡高山村大字高井４９７２番地",
      "lat": 36.679833,
      "lng": 138.363683,
      "geocoding_level": null,
      "phone": "0262480582",
      "license_no": "16267971",
      "license_date": "2022-06-30",
      "expire_date": "2027-06-30"
    },
    {
      "name": "高山村商工会青年部",
      "name_kana": "タカヤマムラショウコウカイセイネンブ",
      "business_type": "① 飲食店営業",
      "address": "長野県上高井郡高山村大字高井４９７２番地",
      "lat": 36.679833,
      "lng": 138.363683,
      "geocoding_level": null,
      "phone": "0262480582",
      "license_no": "16267989",
      "license_date": "2022-06-30",
      "expire_date": "2027-06-30"
    },
    {
      "name": "高山村商工会女性部",
      "name_kana": "タカヤマムラショウコウカイジョセイブ",
      "business_type": "① 飲食店営業",
      "address": "長野県上高井郡高山村大字高井４９７２",
      "lat": 36.679833,
      "lng": 138.363683,
      "geocoding_level": null,
      "phone": "",
      "license_no": "16273286",
      "license_date": "2023-06-30",
      "expire_date": "2028-06-30"
    },
    {
      "name": "高山村商工会",
      "name_kana": "タカヤマムラショウコウカイ",
      "business_type": "① 飲食店営業",
      "address": "長野県上高井郡高山村大字高井４９７２番地",
      "lat": 36.679833,
      "lng": 138.363683,
      "geocoding_level": null,
      "phone": "026-248-0582",
      "license_no": "16518432",
      "license_date": "2023-06-16",
      "expire_date": "2028-06-30"
    },
    {
      "name": "高山村商工会",
      "name_kana": "タカヤマムラショウコウカイ",
      "business_type": "① 飲食店営業",
      "address": "長野県上高井郡高山村大字高井４９７２番地",
      "lat": 36.679833,
      "lng": 138.363683,
      "geocoding_level": null,
      "phone": "026-248-0582",
      "license_no": "16518440",
      "license_date": "2023-06-16",
      "expire_date": "2028-06-30"
    },
    {
      "name": "高山村商工会",
      "name_kana": "タカヤマムラショウコウカイ",
      "business_type": "① 飲食店営業",
      "address": "長野県上高井郡高山村大字高井４９７２番地",
      "lat": 36.679833,
      "lng": 138.363683,
      "geocoding_level": null,
      "phone": "026-248-0582",
      "license_no": "16518457",
      "license_date": "2023-06-16",
      "expire_date": "2028-06-30"
    },
    {
      "name": "高山村商工会",
      "name_kana": "タカヤマムラショウコウカイ",
      "business_type": "① 飲食店営業",
      "address": "長野県上高井郡高山村大字牧７３",
      "lat": 36.681059,
      "lng": 138.372202,
      "geocoding_level": null,
      "phone": "026-248-0582",
      "license_no": "16509141",
      "license_date": "2024-06-28",
      "expire_date": "2029-06-30"
    },
    {
      "name": "フォン",
      "name_kana": "フォン",
      "business_type": "① 飲食店営業",
      "address": "長野県上高井郡高山村奥山田３６８１－３５",
      "lat": 36.667187,
      "lng": 138.456677,
      "geocoding_level": null,
      "phone": "026-242-2731",
      "license_no": "16505794",
      "license_date": "2022-06-30",
      "expire_date": "2027-06-30"
    },
    {
      "name": "道のカフェ　Ａｎｔｉｌｏｐｅ",
      "name_kana": "ミチノカフェ　アンティロウプ",
      "business_type": "① 飲食店営業",
      "address": "長野県上高井郡高山村大字奥山田牛窪３６２９－２",
      "lat": 36.670536,
      "lng": 138.426167,
      "geocoding_level": null,
      "phone": "090-1829-7933",
      "license_no": "16517000",
      "license_date": "2022-10-14",
      "expire_date": "2029-06-30"
    },
    {
      "name": "常盤屋",
      "name_kana": "トキワヤ",
      "business_type": "⑦ 野菜果物販売業",
      "address": "長野県上高井郡高山村大字奥山田３５７９－１",
      "lat": 36.670775,
      "lng": 138.42528,
      "geocoding_level": null,
      "phone": "026-242-2601",
      "license_no": "",
      "license_date": null,
      "expire_date": null
    },
    {
      "name": "（株）信州たかやまワイナリー",
      "name_kana": "カブ　シンシュウタカヤマワイナリー",
      "business_type": "① 飲食店営業",
      "address": "長野県上高井郡高山村大字高井字裏原７９２６",
      "lat": 35.669386,
      "lng": 139.711115,
      "geocoding_level": null,
      "phone": "026-214-8726",
      "license_no": "16518037",
      "license_date": "2023-04-14",
      "expire_date": "2028-06-30"
    },
    {
      "name": "株式会社　信州たかやまワイナリー",
      "name_kana": "カブシキガイシャ　シンシュウタカヤマワイナリー",
      "business_type": "㉑ 酒類製造業",
      "address": "長野県上高井郡高山村大字高井字裏原７９２６",
      "lat": 36.628097,
      "lng": 138.416288,
      "geocoding_level": null,
      "phone": "026-405-9118",
      "license_no": "16299677",
      "license_date": "2024-06-28",
      "expire_date": "2030-06-30"
    },
    {
      "name": "（株）ヘルティー　長野営業所",
      "name_kana": "カブヘルティー　ナガノエイギョウショ",
      "business_type": "㉙ その他",
      "address": "長野県上高井郡高山村高井十二崖６１００－３７",
      "lat": 36.68113,
      "lng": 138.383458,
      "geocoding_level": null,
      "phone": "026-246-4477",
      "license_no": "",
      "license_date": null,
      "expire_date": null
    },
    {
      "name": "有限会社清水ベーカリー",
      "name_kana": "ユウゲンガイシャシミズベーカリー",
      "business_type": "⑪ 菓子製造業",
      "address": "長野県上高井郡高山村大字高井５６８番地３",
      "lat": 36.667523,
      "lng": 138.351424,
      "geocoding_level": null,
      "phone": "026-245-2932",
      "license_no": "16518425",
      "license_date": "2023-06-13",
      "expire_date": "2029-06-30"
    },
    {
      "name": "信州山肉プロジェクト",
      "name_kana": "シンシュウヤマニクプロジェクト",
      "business_type": "① 飲食店営業",
      "address": "長野県上高井郡高山村大字奥山田１４２１",
      "lat": 36.683273,
      "lng": 138.399911,
      "geocoding_level": null,
      "phone": "",
      "license_no": "16506801",
      "license_date": "2023-06-30",
      "expire_date": "2028-06-30"
    },
    {
      "name": "信州山肉プロジェクト",
      "name_kana": "シンシュウヤマニクプロジェクト",
      "business_type": "① 飲食店営業",
      "address": "長野県上高井郡高山村大字奥山田１４２１",
      "lat": 36.683273,
      "lng": 138.399911,
      "geocoding_level": null,
      "phone": "",
      "license_no": "16506818",
      "license_date": "2023-06-30",
      "expire_date": "2028-06-30"
    },
    {
      "name": "信州山肉プロジェクト",
      "name_kana": "シンシュウヤマニクプロジェクト",
      "business_type": "① 飲食店営業",
      "address": "長野県上高井郡高山村大字奥山田１４２１",
      "lat": 36.683273,
      "lng": 138.399911,
      "geocoding_level": null,
      "phone": "",
      "license_no": "16506825",
      "license_date": "2023-06-30",
      "expire_date": "2028-06-30"
    },
    {
      "name": "子安温泉",
      "name_kana": "コヤスオンセン",
      "business_type": "① 飲食店営業",
      "address": "長野県上高井郡高山村大字牧７８３番地",
      "lat": 36.676157,
      "lng": 138.397809,
      "geocoding_level": null,
      "phone": "026-242-2219",
      "license_no": "16262375",
      "license_date": "2023-06-30",
      "expire_date": "2029-06-30"
    },
    {
      "name": "朝日屋亭",
      "name_kana": "アサヒヤテイ",
      "business_type": "㉛ 食品の小分け業",
      "address": "長野県上高井郡高山村大字奥山田３５８８",
      "lat": 36.670505,
      "lng": 138.425657,
      "geocoding_level": null,
      "phone": "026-242-2707",
      "license_no": "16247206",
      "license_date": "2023-06-30",
      "expire_date": "2028-06-30"
    },
    {
      "name": "（株）風景館",
      "name_kana": "カブシキガイシャ　フウケイカン",
      "business_type": "① 飲食店営業",
      "address": "長野県上高井郡高山村奥山田３５９８",
      "lat": 36.670373,
      "lng": 138.425287,
      "geocoding_level": null,
      "phone": "026-242-2611",
      "license_no": "14013489",
      "license_date": "2025-06-30",
      "expire_date": "2031-06-30"
    },
    {
      "name": "（株）風景館",
      "name_kana": "カブシキガイシャ　フウケイカン",
      "business_type": "① 飲食店営業",
      "address": "長野県上高井郡高山村奥山田３５９８",
      "lat": 36.670373,
      "lng": 138.425287,
      "geocoding_level": null,
      "phone": "026-242-2611",
      "license_no": "14002545",
      "license_date": "2025-06-30",
      "expire_date": "2031-06-30"
    },
    {
      "name": "高山亭高井店　そば工場",
      "name_kana": "コウザンテイタカイテン　ソバコウジョウ",
      "business_type": "㉔ 麺類製造業",
      "address": "長野県上高井郡高山村大字高井字旅屋５６番地１",
      "lat": 36.628097,
      "lng": 138.416288,
      "geocoding_level": null,
      "phone": "026-248-1320",
      "license_no": "16282591",
      "license_date": "2023-06-30",
      "expire_date": "2029-06-30"
    },
    {
      "name": "高山亭高井店",
      "name_kana": "コウザンテイタカイテン",
      "business_type": "① 飲食店営業",
      "address": "長野県上高井郡高山村大字高井字旅屋５６番地１",
      "lat": 36.628097,
      "lng": 138.416288,
      "geocoding_level": null,
      "phone": "026-248-1320",
      "license_no": "16282602",
      "license_date": "2023-06-30",
      "expire_date": "2029-06-30"
    },
    {
      "name": "福井原生ハム工房・豚家　゛ＴＯＮＹＡ゛",
      "name_kana": "フクイハラナマハムコウボウ・トンヤ",
      "business_type": "⑮ 食肉製品製造業",
      "address": "長野県上高井郡高山村大字牧２５０２－７",
      "lat": 36.639639,
      "lng": 138.448747,
      "geocoding_level": null,
      "phone": "",
      "license_no": "16505972",
      "license_date": "2023-06-30",
      "expire_date": "2029-06-30"
    },
    {
      "name": "ＷＩＮＥ＆ＣＡＦＥ　Ｖéｒａｉｓｏｎ",
      "name_kana": "ワインアンドカフェ　ヴェレゾン",
      "business_type": "① 飲食店営業",
      "address": "長野県上高井郡高山村二ツ石４６４７",
      "lat": 36.678213,
      "lng": 138.368704,
      "geocoding_level": null,
      "phone": "090-5789-2129",
      "license_no": "16518592",
      "license_date": "2023-07-10",
      "expire_date": "2030-06-30"
    },
    {
      "name": "ＷＩＮＥ＆ＣＡＦＥ　Ｖéｒａｉｓｏｎ",
      "name_kana": "ワインアンドカフェ　ヴェレゾン",
      "business_type": "⑪ 菓子製造業",
      "address": "長野県上高井郡高山村二ツ石４６４７",
      "lat": 36.678213,
      "lng": 138.368704,
      "geocoding_level": null,
      "phone": "090-5789-2129",
      "license_no": "16518603",
      "license_date": "2023-07-10",
      "expire_date": "2030-06-30"
    },
    {
      "name": "自動販売機",
      "name_kana": "ジドウハンバイキ",
      "business_type": "⑫ 自動販売機による販売業（コップ式自動販売機（自動洗浄・屋内設置）及び営業許可の対象となる自動販売機を除く）",
      "address": "長野県上高井郡高山村大字中山976-14 ロッヂーノ高山",
      "lat": 36.683291,
      "lng": 138.351358,
      "geocoding_level": null,
      "phone": "",
      "license_no": "",
      "license_date": null,
      "expire_date": null
    },
    {
      "name": "有限会社山田館",
      "name_kana": "ユウゲンガイシャヤマダカン",
      "business_type": "① 飲食店営業",
      "address": "長野県上高井郡高山村大字奥山田３６０４番地",
      "lat": 36.670393,
      "lng": 138.424474,
      "geocoding_level": null,
      "phone": "026-242-2521",
      "license_no": "14103099",
      "license_date": "2024-06-28",
      "expire_date": "2030-06-30"
    },
    {
      "name": "有限会社平野屋旅館",
      "name_kana": "ユウゲンガイシャヒラノヤリョカン",
      "business_type": "① 飲食店営業",
      "address": "長野県上高井郡高山村大字奥山田３６０６番２地",
      "lat": 36.670589,
      "lng": 138.424328,
      "geocoding_level": null,
      "phone": "026-242-2811",
      "license_no": "16293029",
      "license_date": "2024-06-28",
      "expire_date": "2029-06-30"
    },
    {
      "name": "Ｈｉｋａｒｕ　Ｆａｒｍ",
      "name_kana": "ヒカル　ファーム",
      "business_type": "㉑ 酒類製造業",
      "address": "長野県上高井郡高山村大字牧字上福井２５１０番６",
      "lat": 36.675097,
      "lng": 138.39036,
      "geocoding_level": null,
      "phone": "",
      "license_no": "16506790",
      "license_date": "2024-06-28",
      "expire_date": "2030-06-30"
    },
    {
      "name": "有限会社惠豆倉商店",
      "name_kana": "ユウゲンガイシャエヅクラショウテン",
      "business_type": "⑪ 菓子製造業",
      "address": "長野県上高井郡高山村大字奥山田３５６２番地イ",
      "lat": 36.670952,
      "lng": 138.424142,
      "geocoding_level": null,
      "phone": "026-242-2605",
      "license_no": "14000601",
      "license_date": "2024-06-28",
      "expire_date": "2030-06-30"
    },
    {
      "name": "ＴＨＥ　ＴＯＪＩＢＡ　松川館",
      "name_kana": "ザ　トウジバ　マツカワカン",
      "business_type": "① 飲食店営業",
      "address": "長野県上高井郡高山村山田温泉３５０７番地１",
      "lat": 36.67977,
      "lng": 138.363261,
      "geocoding_level": 2,
      "phone": "",
      "license_no": "16507401",
      "license_date": "2024-06-28",
      "expire_date": "2030-06-30"
    },
    {
      "name": "奥山田温泉　煌月",
      "name_kana": "オクヤマダオンセン　コウゲツ",
      "business_type": "① 飲食店営業",
      "address": "長野県上高井郡高山村奥山田３６８１－３４３",
      "lat": 36.66669,
      "lng": 138.457758,
      "geocoding_level": null,
      "phone": "026-242-2527",
      "license_no": "16520839",
      "license_date": "2024-07-05",
      "expire_date": "2031-06-30"
    },
    {
      "name": "宝来館",
      "name_kana": "ホーライカン",
      "business_type": "① 飲食店営業",
      "address": "長野県上高井郡高山村奥山田３５５１－２",
      "lat": 36.671509,
      "lng": 138.42307,
      "geocoding_level": null,
      "phone": "026-242-2226",
      "license_no": "14013561",
      "license_date": "2025-06-30",
      "expire_date": "2031-06-30"
    },
    {
      "name": "千歳屋",
      "name_kana": "チトセヤ",
      "business_type": "㉕ そうざい製造業",
      "address": "長野県上高井郡高山村高井６７７－２",
      "lat": 36.668553,
      "lng": 138.352911,
      "geocoding_level": null,
      "phone": "026-245-2953",
      "license_no": "16232784",
      "license_date": "2025-06-30",
      "expire_date": "2031-06-30"
    },
    {
      "name": "千歳屋",
      "name_kana": "チトセヤ",
      "business_type": "⑪ 菓子製造業",
      "address": "長野県上高井郡高山村高井６７７－２",
      "lat": 36.668553,
      "lng": 138.352911,
      "geocoding_level": null,
      "phone": "026-245-2953",
      "license_no": "16232777",
      "license_date": "2025-06-30",
      "expire_date": "2031-06-30"
    },
    {
      "name": "葵　ＰＯＭＭｅ（ポム）",
      "name_kana": "アオイ　ポム",
      "business_type": "① 飲食店営業",
      "address": "長野県上高井郡高山村大字高井６４６９－５",
      "lat": 36.662689,
      "lng": 138.339981,
      "geocoding_level": null,
      "phone": "026-214-3669",
      "license_no": "16511904",
      "license_date": "2025-06-30",
      "expire_date": "2030-06-30"
    },
    {
      "name": "セブンイレブン　信州高山高井店",
      "name_kana": "セブンイレブン　シンシュウタカヤマタカイテン",
      "business_type": "① 飲食店営業",
      "address": "長野県上高井郡高山村大字高井６４３９－１",
      "lat": 36.663744,
      "lng": 138.342223,
      "geocoding_level": null,
      "phone": "026-248-0115",
      "license_no": "16293716",
      "license_date": "2025-06-30",
      "expire_date": "2030-06-30"
    },
    {
      "name": "ヒュッテみはらや",
      "name_kana": "ヒュッテミハラヤ",
      "business_type": "① 飲食店営業",
      "address": "長野県上高井郡高山村大字奥山田山田温泉スキー場",
      "lat": 36.682096,
      "lng": 138.453742,
      "geocoding_level": null,
      "phone": "026-242-2738",
      "license_no": "14117559",
      "license_date": "2025-06-30",
      "expire_date": "2030-06-30"
    },
    {
      "name": "太田屋製菓舗",
      "name_kana": "オオタヤセイカホ",
      "business_type": "⑪ 菓子製造業",
      "address": "長野県上高井郡高山村大字高井２００－４",
      "lat": 36.66642,
      "lng": 138.348059,
      "geocoding_level": null,
      "phone": "026-245-2927",
      "license_no": "14110147",
      "license_date": "2025-06-30",
      "expire_date": "2031-06-30"
    },
    {
      "name": "高山甘泉堂",
      "name_kana": "タカヤマカンセンドウ",
      "business_type": "⑪ 菓子製造業",
      "address": "長野県上高井郡高山村中山８２６－１",
      "lat": 36.685395,
      "lng": 138.348389,
      "geocoding_level": null,
      "phone": "026-245-8954",
      "license_no": "14000633",
      "license_date": "2025-06-30",
      "expire_date": "2030-06-30"
    },
    {
      "name": "遊々亭",
      "name_kana": "ユウユウテイ",
      "business_type": "① 飲食店営業",
      "address": "長野県上高井郡高山村牧７３",
      "lat": 36.675589,
      "lng": 138.387664,
      "geocoding_level": 3,
      "phone": "026-246-6046",
      "license_no": "16271844",
      "license_date": "2025-06-30",
      "expire_date": "2031-06-30"
    },
    {
      "name": "有限会社マザーバインズ　長野醸造所",
      "name_kana": "ユウゲンガイシャマザーバインズ　ナガノジョウゾウショ",
      "business_type": "㉑ 酒類製造業",
      "address": "長野県上高井郡高山村久保１８２６－１",
      "lat": 36.666475,
      "lng": 138.353086,
      "geocoding_level": null,
      "phone": "026-213-7767",
      "license_no": "16508452",
      "license_date": "2025-06-30",
      "expire_date": "2031-06-30"
    },
    {
      "name": "ドメーヌ・ヒロモニカ",
      "name_kana": "ドメーヌ・ヒロモニカ",
      "business_type": "㉑ 酒類製造業",
      "address": "長野県上高井郡高山村大字高井４６４０－５",
      "lat": 36.677373,
      "lng": 138.367861,
      "geocoding_level": null,
      "phone": "",
      "license_no": "16522936",
      "license_date": "2025-08-08",
      "expire_date": "2032-06-30"
    },
    {
      "name": "オーチャードファームズ株式会社",
      "name_kana": "オーチャードファームズカブシキガイシャ",
      "business_type": "⑦ 野菜果物販売業",
      "address": "長野県上高井郡高山村大字高井2110-2",
      "lat": 36.668133,
      "lng": 138.355273,
      "geocoding_level": null,
      "phone": "0262452355",
      "license_no": "",
      "license_date": null,
      "expire_date": null
    }
  ]
}
