{
  "meta": {
    "updated": 1783568789,
    "sources": [
      {
        "source": "厚生労働省 食品衛生申請等システム（オープンデータ）",
        "license": "公共データ利用規約（第1.0版, PDL1.0）"
      }
    ]
  },
  "data": [
    {
      "name": "コナミスポーツクラブ大村",
      "name_kana": "コナミスポーツクラブオオムラ",
      "business_type": "⑤ コップ式自動販売機（自動洗浄・屋内設置）",
      "address": "長崎県大村市森園町663-3",
      "lat": 32.922775,
      "lng": 129.937929,
      "geocoding_level": null,
      "phone": "095-746-5110",
      "license_no": "",
      "license_date": null,
      "expire_date": null
    },
    {
      "name": "ダイソー　大村幸町店",
      "name_kana": "ダイソー　オオムラサイワイマチテン",
      "business_type": "⑬ その他の食料・飲料販売業",
      "address": "長崎県大村市幸町２５－５２",
      "lat": 32.903222,
      "lng": 129.955322,
      "geocoding_level": null,
      "phone": "",
      "license_no": "",
      "license_date": null,
      "expire_date": null
    },
    {
      "name": "FIT EASY 新大村駅前店",
      "name_kana": "フィットイージーシンオオムラエキマエテン",
      "business_type": "⑫ 自動販売機による販売業（コップ式自動販売機（自動洗浄・屋内設置）及び営業許可の対象となる自動販売機を除く）",
      "address": "長崎県大村市植松3-160-2",
      "lat": 32.933355,
      "lng": 129.959959,
      "geocoding_level": null,
      "phone": "",
      "license_no": "",
      "license_date": null,
      "expire_date": null
    },
    {
      "name": "サンスパスポーツジム",
      "name_kana": "サンスパスポーツジム",
      "business_type": "⑫ 自動販売機による販売業（コップ式自動販売機（自動洗浄・屋内設置）及び営業許可の対象となる自動販売機を除く）",
      "address": "長崎県大村市森園町663-3 サンスパおおむら内",
      "lat": 32.922775,
      "lng": 129.937929,
      "geocoding_level": null,
      "phone": "",
      "license_no": "",
      "license_date": null,
      "expire_date": null
    },
    {
      "name": "ダイナム大村店",
      "name_kana": "ダイナムオオムラテン",
      "business_type": "⑤ コップ式自動販売機（自動洗浄・屋内設置）",
      "address": "長崎県大村市水主町1丁目704番地15",
      "lat": 32.907759,
      "lng": 129.95468,
      "geocoding_level": null,
      "phone": "070-1455-9025",
      "license_no": "",
      "license_date": null,
      "expire_date": null
    },
    {
      "name": "エレナ大村中央店　清流物語",
      "name_kana": "エレナオオムラチュウオウテン　セイリュウモノガタリ",
      "business_type": "⑫ 自動販売機による販売業（コップ式自動販売機（自動洗浄・屋内設置）及び営業許可の対象となる自動販売機を除く）",
      "address": "長崎県大村市杭出津2-743",
      "lat": 32.911708,
      "lng": 129.952162,
      "geocoding_level": null,
      "phone": "",
      "license_no": "",
      "license_date": null,
      "expire_date": null
    },
    {
      "name": "エレナ久原店　清流物語",
      "name_kana": "エレナクバラテン　セイリュウモノガタリ",
      "business_type": "⑫ 自動販売機による販売業（コップ式自動販売機（自動洗浄・屋内設置）及び営業許可の対象となる自動販売機を除く）",
      "address": "長崎県大村市久原二丁目888-1",
      "lat": 32.895382,
      "lng": 129.96847,
      "geocoding_level": null,
      "phone": "",
      "license_no": "",
      "license_date": null,
      "expire_date": null
    },
    {
      "name": "エレナ竹松店　清流物語",
      "name_kana": "エレナタケマツテン　セイリュウモノガタリ",
      "business_type": "⑫ 自動販売機による販売業（コップ式自動販売機（自動洗浄・屋内設置）及び営業許可の対象となる自動販売機を除く）",
      "address": "長崎県大村市大川田町856-0804",
      "lat": 32.94274,
      "lng": 129.946575,
      "geocoding_level": null,
      "phone": "",
      "license_no": "",
      "license_date": null,
      "expire_date": null
    },
    {
      "name": "スターバックスコーヒー長崎空港店",
      "name_kana": "スターバックスコーヒーナガサキクウコウテン",
      "business_type": "⑬ その他の食料・飲料販売業",
      "address": "長崎県大村市箕島町593",
      "lat": 32.918152,
      "lng": 129.918204,
      "geocoding_level": null,
      "phone": "0957-20-7121",
      "license_no": "",
      "license_date": null,
      "expire_date": null
    },
    {
      "name": "スターバックスコーヒー長崎大村店",
      "name_kana": "スターバックスコーヒーナガサキオオムラテン",
      "business_type": "⑬ その他の食料・飲料販売業",
      "address": "長崎県大村市幸町２５－３２",
      "lat": 32.901522,
      "lng": 129.958271,
      "geocoding_level": null,
      "phone": "0957-48-6212",
      "license_no": "",
      "license_date": null,
      "expire_date": null
    },
    {
      "name": "スターバックスコーヒー新大村駅前店",
      "name_kana": "スターバックスコーヒーシンオオムラエキマエテン",
      "business_type": "⑬ その他の食料・飲料販売業",
      "address": "長崎県大村市植松三丁目160ー2の一部、160ー7の一部、160ー12の一部  仮換地12街区1ー1画地",
      "lat": 32.933991,
      "lng": 129.959488,
      "geocoding_level": null,
      "phone": "0957-56-9381",
      "license_no": "",
      "license_date": null,
      "expire_date": null
    },
    {
      "name": "マックスバリュ溝陸店",
      "name_kana": "マックスバリュミゾロク",
      "business_type": "⑫ 自動販売機による販売業（コップ式自動販売機（自動洗浄・屋内設置）及び営業許可の対象となる自動販売機を除く）",
      "address": "長崎県大村市溝陸町798-1",
      "lat": 32.850725,
      "lng": 130.012906,
      "geocoding_level": null,
      "phone": "",
      "license_no": "",
      "license_date": null,
      "expire_date": null
    },
    {
      "name": "マックスバリュ空港通り店",
      "name_kana": "マックスバリュクウコウトオリ",
      "business_type": "⑫ 自動販売機による販売業（コップ式自動販売機（自動洗浄・屋内設置）及び営業許可の対象となる自動販売機を除く）",
      "address": "長崎県大村市古賀島町525-4",
      "lat": 32.928277,
      "lng": 129.942803,
      "geocoding_level": null,
      "phone": "",
      "license_no": "",
      "license_date": null,
      "expire_date": null
    },
    {
      "name": "マックスバリュ大村諏訪店",
      "name_kana": "マックスバリュオオムラスワ",
      "business_type": "⑫ 自動販売機による販売業（コップ式自動販売機（自動洗浄・屋内設置）及び営業許可の対象となる自動販売機を除く）",
      "address": "長崎県大村市上諏訪町814",
      "lat": 32.921022,
      "lng": 129.966608,
      "geocoding_level": null,
      "phone": "",
      "license_no": "",
      "license_date": null,
      "expire_date": null
    },
    {
      "name": "マルキョウ大村松並店",
      "name_kana": "マルキョウオオムラマツナミテン",
      "business_type": "⑪ 百貨店、総合スーパー",
      "address": "長崎県大村市松並2丁目888番地2",
      "lat": 32.920595,
      "lng": 129.948581,
      "geocoding_level": null,
      "phone": "0957-48-5300",
      "license_no": "",
      "license_date": null,
      "expire_date": null
    },
    {
      "name": "サンドラッグ大村店",
      "name_kana": "サンドラッグオオムラテン",
      "business_type": "⑪ 百貨店、総合スーパー",
      "address": "長崎県大村市西本町748-1",
      "lat": 32.906796,
      "lng": 129.95721,
      "geocoding_level": null,
      "phone": "0957-40-0885",
      "license_no": "",
      "license_date": null,
      "expire_date": null
    },
    {
      "name": "サンドラッグ富の原店",
      "name_kana": "サンドラッグトミノハラテン",
      "business_type": "⑪ 百貨店、総合スーパー",
      "address": "長崎県大村市富の原２－６９６－１",
      "lat": 32.943239,
      "lng": 129.935906,
      "geocoding_level": null,
      "phone": "0957-28-8078",
      "license_no": "",
      "license_date": null,
      "expire_date": null
    },
    {
      "name": "サンドラッグ富の原店",
      "name_kana": "サンドラッグトミノハラテン",
      "business_type": "⑪ 百貨店、総合スーパー",
      "address": "長崎県大村市富の原２－６９６－１",
      "lat": 32.943239,
      "lng": 129.935906,
      "geocoding_level": null,
      "phone": "0957-28-8078",
      "license_no": "",
      "license_date": null,
      "expire_date": null
    },
    {
      "name": "ラ・ムー大村店（パクパク）",
      "name_kana": "ラ・ムーオオムラテンパクパク",
      "business_type": "① 飲食店営業",
      "address": "長崎県大村市古賀島町282番地1",
      "lat": 32.928825,
      "lng": 129.942723,
      "geocoding_level": null,
      "phone": "",
      "license_no": "長崎県指令8県央振保衛第1008号",
      "license_date": "2026-04-13",
      "expire_date": "2032-06-30"
    },
    {
      "name": "ラ・ムー大村店（惣菜）",
      "name_kana": "ラ・ムーオオムラテンソウザイ",
      "business_type": "① 飲食店営業",
      "address": "長崎県大村市古賀島町282番地1",
      "lat": 32.928825,
      "lng": 129.942723,
      "geocoding_level": null,
      "phone": "",
      "license_no": "長崎県指令8県央振保衛第1013号",
      "license_date": "2026-04-13",
      "expire_date": "2032-06-30"
    },
    {
      "name": "ラ・ムー大村店（鮮魚寿司）",
      "name_kana": "ラ・ムーオオムラテンセンギョスシ",
      "business_type": "① 飲食店営業",
      "address": "長崎県大村市古賀島町282番地1",
      "lat": 32.928825,
      "lng": 129.942723,
      "geocoding_level": null,
      "phone": "",
      "license_no": "長崎県指令8県央振保衛第1012号",
      "license_date": "2026-04-13",
      "expire_date": "2032-06-30"
    },
    {
      "name": "ラ・ムー大村店（ベーカリー）",
      "name_kana": "ラ・ムーオオムラテンベーカリー",
      "business_type": "⑪ 菓子製造業",
      "address": "長崎県大村市古賀島町282番地1",
      "lat": 32.928825,
      "lng": 129.942723,
      "geocoding_level": null,
      "phone": "",
      "license_no": "長崎県指令8県央振保衛第1011号",
      "license_date": "2026-04-13",
      "expire_date": "2032-06-30"
    },
    {
      "name": "ラ・ムー大村店（鮮魚）",
      "name_kana": "ラ・ムーオオムラテンセンギョ",
      "business_type": "④ 魚介類販売業",
      "address": "長崎県大村市古賀島町282番地1",
      "lat": 32.928825,
      "lng": 129.942723,
      "geocoding_level": null,
      "phone": "",
      "license_no": "長崎県指令8県央振保衛第1010号",
      "license_date": "2026-04-13",
      "expire_date": "2032-06-30"
    },
    {
      "name": "ラ・ムー大村店（精肉）",
      "name_kana": "ラ・ムーオオムラテンセイニク",
      "business_type": "③ 食肉販売業",
      "address": "長崎県大村市古賀島町282番地1",
      "lat": 32.928825,
      "lng": 129.942723,
      "geocoding_level": null,
      "phone": "",
      "license_no": "長崎県指令8県央振保衛第1009号",
      "license_date": "2026-04-13",
      "expire_date": "2032-06-30"
    },
    {
      "name": "A-プライス大村店",
      "name_kana": "エープライスオオムラテン",
      "business_type": "⑪ 百貨店、総合スーパー",
      "address": "長崎県大村市桜馬場1丁目231番1",
      "lat": 32.927829,
      "lng": 129.950995,
      "geocoding_level": null,
      "phone": "0957-48-8031",
      "license_no": "",
      "license_date": null,
      "expire_date": null
    },
    {
      "name": "お茶の山口園　イオン大村ショッピングセンター店",
      "name_kana": "オチャノヤマグチエン　イオンオオムラショッピングセンターテン",
      "business_type": "⑬ その他の食料・飲料販売業",
      "address": "長崎県大村市幸町25-200 イオン大村ショッピングセンター内1階",
      "lat": 32.901537,
      "lng": 129.954118,
      "geocoding_level": null,
      "phone": "0957523499",
      "license_no": "",
      "license_date": null,
      "expire_date": null
    },
    {
      "name": "もち吉　大村店",
      "name_kana": "モチキチ　オオムラテン",
      "business_type": "⑬ その他の食料・飲料販売業",
      "address": "長崎県大村市古賀島町383番地1",
      "lat": 32.927427,
      "lng": 129.939753,
      "geocoding_level": null,
      "phone": "0957486550",
      "license_no": "",
      "license_date": null,
      "expire_date": null
    },
    {
      "name": "MEGAドン・キホーテ大村インター店",
      "name_kana": "メガドン・キホーテオオムラインターテン",
      "business_type": "⑪ 百貨店、総合スーパー",
      "address": "長崎県大村市西大村本町255",
      "lat": 32.926218,
      "lng": 129.951513,
      "geocoding_level": null,
      "phone": "0957-48-7211",
      "license_no": "",
      "license_date": null,
      "expire_date": null
    },
    {
      "name": "札幌ラ・ネージュ（期間2024年7月4日～7月8日）",
      "name_kana": "サッポロラ・ネージュ",
      "business_type": "⑬ その他の食料・飲料販売業",
      "address": "長崎県大村市幸町25200 イオン大村SC　食品入口",
      "lat": 32.901919,
      "lng": 129.954279,
      "geocoding_level": null,
      "phone": "0957-27-3456",
      "license_no": "",
      "license_date": null,
      "expire_date": null
    },
    {
      "name": "HOTEL AZ 長崎大村店",
      "name_kana": "ホテル エーゼット ナガサキオオムラテン",
      "business_type": "① 飲食店営業",
      "address": "長崎県大村市松原本町363-11",
      "lat": 32.972574,
      "lng": 129.944216,
      "geocoding_level": null,
      "phone": "0957-56-2001",
      "license_no": "長崎県指令7県央振保衛第2334号",
      "license_date": "2026-02-17",
      "expire_date": "2032-03-31"
    },
    {
      "name": "ヤクルト諫早サービスセンター",
      "name_kana": "ヤクルトイサハヤサービスセンター",
      "business_type": "③ 乳類販売業",
      "address": "長崎県大村市溝陸町615-1",
      "lat": 32.850604,
      "lng": 130.007875,
      "geocoding_level": null,
      "phone": "",
      "license_no": "",
      "license_date": null,
      "expire_date": null
    },
    {
      "name": "ヤクルト諫早サービスセンター",
      "name_kana": "ヤクルトイサハヤサービスセンター",
      "business_type": "⑬ その他の食料・飲料販売業",
      "address": "長崎県大村市溝陸町615-1",
      "lat": 32.850604,
      "lng": 130.007875,
      "geocoding_level": null,
      "phone": "",
      "license_no": "",
      "license_date": null,
      "expire_date": null
    },
    {
      "name": "ヤクルト大村サービスセンター",
      "name_kana": "ヤクルトオオムラサービスセンター",
      "business_type": "③ 乳類販売業",
      "address": "長崎県大村市古賀島町211-6",
      "lat": 32.930174,
      "lng": 129.935541,
      "geocoding_level": null,
      "phone": "",
      "license_no": "",
      "license_date": null,
      "expire_date": null
    },
    {
      "name": "ヤクルト大村サービスセンター",
      "name_kana": "ヤクルトオオムラサービスセンター",
      "business_type": "⑬ その他の食料・飲料販売業",
      "address": "長崎県大村市古賀島町211-6",
      "lat": 32.930174,
      "lng": 129.935541,
      "geocoding_level": null,
      "phone": "",
      "license_no": "",
      "license_date": null,
      "expire_date": null
    },
    {
      "name": "向陽高校購買部（自販機）",
      "name_kana": "コウヨウコウコウコウバイブ　ジハンキ",
      "business_type": "③ 乳類販売業",
      "address": "長崎県大村市西三城町16",
      "lat": 32.914637,
      "lng": 129.960667,
      "geocoding_level": null,
      "phone": "0957-53-4851",
      "license_no": "",
      "license_date": null,
      "expire_date": null
    },
    {
      "name": "長崎県立大村工業高等学校",
      "name_kana": "ナガサキケンリツオオムラコウギョウコウトウガッコウ",
      "business_type": "③ 乳類販売業",
      "address": "長崎県大村市森園町1079-3",
      "lat": 32.922286,
      "lng": 129.940476,
      "geocoding_level": null,
      "phone": "0957-52-3772",
      "license_no": "",
      "license_date": null,
      "expire_date": null
    },
    {
      "name": "向陽高校購買部No2（KYコラボ機）",
      "name_kana": "コウヨウコウコウコウバイブナンバー　ケーワイコラボキ",
      "business_type": "③ 乳類販売業",
      "address": "長崎県大村市西三城町16",
      "lat": 32.914637,
      "lng": 129.960667,
      "geocoding_level": null,
      "phone": "0957-53-4851",
      "license_no": "",
      "license_date": null,
      "expire_date": null
    },
    {
      "name": "魚民",
      "name_kana": "ウオタミ",
      "business_type": "① 飲食店営業",
      "address": "長崎県大村市東本町2番地1 大村ショッピングセンター　1階",
      "lat": 32.915626,
      "lng": 129.956011,
      "geocoding_level": null,
      "phone": "0957-54-6388",
      "license_no": "長崎県指令7県央振保衛第2266号",
      "license_date": "2025-12-01",
      "expire_date": "2031-12-31"
    },
    {
      "name": "魚民",
      "name_kana": "ウオタミ",
      "business_type": "⑬ その他の食料・飲料販売業",
      "address": "長崎県大村市東本町2番地1 大村ショッピングセンター　1階",
      "lat": 32.915626,
      "lng": 129.956011,
      "geocoding_level": null,
      "phone": "0957-54-6388",
      "license_no": "",
      "license_date": null,
      "expire_date": null
    },
    {
      "name": "ガスト　大村店",
      "name_kana": "ガストオオムラテン",
      "business_type": "⑬ その他の食料・飲料販売業",
      "address": "長崎県大村市片町１７５番地",
      "lat": 32.903556,
      "lng": 129.95827,
      "geocoding_level": null,
      "phone": "0957-48-7588",
      "license_no": "",
      "license_date": null,
      "expire_date": null
    },
    {
      "name": "ダイソーエレナ空港通り店",
      "name_kana": "ダイソーエレナクウコウドオリテン",
      "business_type": "⑬ その他の食料・飲料販売業",
      "address": "長崎県大村市古賀島町111-49",
      "lat": 32.927869,
      "lng": 129.946191,
      "geocoding_level": null,
      "phone": "0957-49-6767",
      "license_no": "",
      "license_date": null,
      "expire_date": null
    },
    {
      "name": "株式会社ナカガワ　第一工場",
      "name_kana": "カブシキガイシャナカガワ　ダイイチコウジョウ",
      "business_type": "㉔ その他の食料品製造・加工業",
      "address": "長崎県大村市大村市富の原2丁目278-2",
      "lat": 32.945201,
      "lng": 129.936813,
      "geocoding_level": null,
      "phone": "0957552261",
      "license_no": "",
      "license_date": null,
      "expire_date": null
    },
    {
      "name": "株式会社ナカガワ　第二工場",
      "name_kana": "カブシキガイシャナカガワ　ダイニコウジョウ",
      "business_type": "㉔ その他の食料品製造・加工業",
      "address": "長崎県大村市大村市富の原2丁目275-3",
      "lat": 32.944299,
      "lng": 129.936302,
      "geocoding_level": null,
      "phone": "0957552261",
      "license_no": "",
      "license_date": null,
      "expire_date": null
    },
    {
      "name": "株式会社ナカガワ長崎工場",
      "name_kana": "カブシキガイシャナカガワナガサキコウジョウ",
      "business_type": "㉔ その他の食料品製造・加工業",
      "address": "長崎県大村市雄ケ原町1723‐3",
      "lat": 32.936953,
      "lng": 129.995881,
      "geocoding_level": null,
      "phone": "0957-55-2261",
      "license_no": "",
      "license_date": null,
      "expire_date": null
    },
    {
      "name": "にこにこ青果大村店",
      "name_kana": "ニコニコセイカオオムラテン",
      "business_type": "⑦ 野菜果物販売業",
      "address": "長崎県大村市古賀島町427-4",
      "lat": 32.92955,
      "lng": 129.938308,
      "geocoding_level": null,
      "phone": "0957495900",
      "license_no": "",
      "license_date": null,
      "expire_date": null
    },
    {
      "name": "株式会社大洋食品　大村工場",
      "name_kana": "カブシキガイシャ　タイヨウショクヒン　オオムラコウジョウ",
      "business_type": "㉙ その他",
      "address": "長崎県大村市松並２丁目６０番地１",
      "lat": 32.923962,
      "lng": 129.944604,
      "geocoding_level": null,
      "phone": "0957532166",
      "license_no": "",
      "license_date": null,
      "expire_date": null
    },
    {
      "name": "ゆめマート新大村",
      "name_kana": "ユメマートシンオオムラ",
      "business_type": "⑪ 百貨店、総合スーパー",
      "address": "長崎県大村市植松三丁目160番12",
      "lat": 32.933958,
      "lng": 129.959425,
      "geocoding_level": null,
      "phone": "0957-20-8200",
      "license_no": "",
      "license_date": null,
      "expire_date": null
    },
    {
      "name": "ゆめマート新大村　鮮魚",
      "name_kana": "ユメマートシンオオムラ　センギョ",
      "business_type": "④ 魚介類販売業",
      "address": "長崎県大村市植松三丁目160番12",
      "lat": 32.933958,
      "lng": 129.959425,
      "geocoding_level": null,
      "phone": "0957-20-8200",
      "license_no": "長崎県指令5県央振保衛第1282号",
      "license_date": "2024-02-28",
      "expire_date": "2030-03-31"
    },
    {
      "name": "ゆめマート新大村　魚肉そうざい",
      "name_kana": "ユメマートシンオオムラ　サカナニクソウザイ",
      "business_type": "① 飲食店営業",
      "address": "長崎県大村市植松三丁目160番12",
      "lat": 32.933958,
      "lng": 129.959425,
      "geocoding_level": null,
      "phone": "0957-20-8200",
      "license_no": "長崎県指令5県央振保衛第1283号",
      "license_date": "2024-02-28",
      "expire_date": "2030-03-31"
    },
    {
      "name": "ゆめマート新大村　精肉",
      "name_kana": "ユメマートシンオオムラ　セイニク",
      "business_type": "③ 食肉販売業",
      "address": "長崎県大村市植松三丁目160番12",
      "lat": 32.933958,
      "lng": 129.959425,
      "geocoding_level": null,
      "phone": "0957-20-8200",
      "license_no": "長崎県指令5県央振保衛第1284号",
      "license_date": "2024-02-28",
      "expire_date": "2030-03-31"
    },
    {
      "name": "ゆめマート新大村　そうざい",
      "name_kana": "ユメマートシンオオムラ　ソウザイ",
      "business_type": "① 飲食店営業",
      "address": "長崎県大村市植松三丁目160番12",
      "lat": 32.933582,
      "lng": 129.958406,
      "geocoding_level": null,
      "phone": "0957-20-8200",
      "license_no": "長崎県指令5県央振保衛第1285号",
      "license_date": "2024-02-28",
      "expire_date": "2030-03-31"
    },
    {
      "name": "ゆめマート新大村　ベーカリー",
      "name_kana": "ユメマートシンオオムラ　ベーカリー",
      "business_type": "⑪ 菓子製造業",
      "address": "長崎県大村市植松三丁目160番12",
      "lat": 32.933958,
      "lng": 129.959425,
      "geocoding_level": null,
      "phone": "0957-20-8200",
      "license_no": "長崎県指令5県央振保衛第1286号",
      "license_date": "2024-02-28",
      "expire_date": "2030-03-31"
    },
    {
      "name": "スーパーセンタートライアル大村店",
      "name_kana": "スーパーセンタートライアルオオムラテン",
      "business_type": "⑪ 百貨店、総合スーパー",
      "address": "長崎県大村市松並２丁目９２番１",
      "lat": 32.923988,
      "lng": 129.94782,
      "geocoding_level": null,
      "phone": "095-749-5553",
      "license_no": "",
      "license_date": null,
      "expire_date": null
    },
    {
      "name": "スーパーセンタートライアル大村店",
      "name_kana": "スーパーセンタートライアルオオムラテン",
      "business_type": "⑪ 菓子製造業",
      "address": "長崎県大村市松並２丁目９２番１",
      "lat": 32.923988,
      "lng": 129.94782,
      "geocoding_level": null,
      "phone": "0957-49-5553",
      "license_no": "長崎県指令6県央振保衛第2157号",
      "license_date": "2024-10-01",
      "expire_date": "2030-09-30"
    },
    {
      "name": "スーパーセンタートライアル大村店",
      "name_kana": "スーパーセンタートライアルオオムラテン",
      "business_type": "① 飲食店営業",
      "address": "長崎県大村市松並２丁目９２番１",
      "lat": 32.923988,
      "lng": 129.94782,
      "geocoding_level": null,
      "phone": "0957-49-5553",
      "license_no": "長崎県指令6県央振保衛第2158号",
      "license_date": "2024-10-01",
      "expire_date": "2030-09-30"
    },
    {
      "name": "スーパーセンタートライアル大村店",
      "name_kana": "スーパーセンタートライアルオオムラテン",
      "business_type": "① 飲食店営業",
      "address": "長崎県大村市松並２丁目９２番１",
      "lat": 32.923988,
      "lng": 129.94782,
      "geocoding_level": null,
      "phone": "0957-49-5553",
      "license_no": "長崎県指令6県央振保衛第2159号",
      "license_date": "2024-10-01",
      "expire_date": "2030-09-30"
    },
    {
      "name": "スーパーセンタートライアル大村店",
      "name_kana": "スーパーセンタートライアルオオムラテン",
      "business_type": "③ 食肉販売業",
      "address": "長崎県大村市松並２丁目９２番１",
      "lat": 32.923988,
      "lng": 129.94782,
      "geocoding_level": null,
      "phone": "0957-49-5553",
      "license_no": "長崎県指令6県央振保衛第2160号",
      "license_date": "2024-10-01",
      "expire_date": "2030-09-30"
    },
    {
      "name": "スーパーセンタートライアル大村店",
      "name_kana": "スーパーセンタートライアルオオムラテン",
      "business_type": "④ 魚介類販売業",
      "address": "長崎県大村市松並２丁目９２番１",
      "lat": 32.923988,
      "lng": 129.94782,
      "geocoding_level": null,
      "phone": "0957-49-5553",
      "license_no": "長崎県指令6県央振保衛第2161号",
      "license_date": "2024-10-01",
      "expire_date": "2030-09-30"
    },
    {
      "name": "丸源ラーメン大村店",
      "name_kana": "マルゲンラーメンオオムラテン",
      "business_type": "① 飲食店営業",
      "address": "長崎県大村市松並2丁目908‐3",
      "lat": 32.921227,
      "lng": 129.948975,
      "geocoding_level": null,
      "phone": "",
      "license_no": "長崎県指令6県央振保衛第1186号",
      "license_date": "2024-10-01",
      "expire_date": "2030-12-31"
    },
    {
      "name": "イオン大村ショッピングセンター",
      "name_kana": "イオンオオムラショッピングセンター",
      "business_type": "⑬ その他の食料・飲料販売業",
      "address": "長崎県大村市幸町25-200",
      "lat": 32.901577,
      "lng": 129.954127,
      "geocoding_level": null,
      "phone": "",
      "license_no": "",
      "license_date": null,
      "expire_date": null
    },
    {
      "name": "ファミリーマート大村今津町店",
      "name_kana": "ファミリーマートオオムライマヅマチテン",
      "business_type": "⑩ コンビニエンスストア",
      "address": "長崎県大村市今津町６５４－５",
      "lat": 32.934974,
      "lng": 129.936844,
      "geocoding_level": null,
      "phone": "",
      "license_no": "",
      "license_date": null,
      "expire_date": null
    },
    {
      "name": "ファミリーマート大村宮小路三丁目",
      "name_kana": "ファミリーマートオオムラミヤショウジサンチョウメ",
      "business_type": "⑩ コンビニエンスストア",
      "address": "長崎県大村市宮小路3丁目1331-4",
      "lat": 32.95348,
      "lng": 129.943822,
      "geocoding_level": null,
      "phone": "0957274505",
      "license_no": "",
      "license_date": null,
      "expire_date": null
    },
    {
      "name": "ファミリーマート大村宮小路三丁目",
      "name_kana": "ファミリーマートオオムラミヤショウジサンチョウメ",
      "business_type": "⑩ コンビニエンスストア",
      "address": "長崎県大村市宮小路3丁目1331-4",
      "lat": 32.95348,
      "lng": 129.943822,
      "geocoding_level": null,
      "phone": "0957274505",
      "license_no": "",
      "license_date": null,
      "expire_date": null
    },
    {
      "name": "ファミリーマート大村久原店",
      "name_kana": "ファミリーマートオオムラクバラテン",
      "business_type": "⑩ コンビニエンスストア",
      "address": "長崎県大村市久原二丁目１０８０－１",
      "lat": 32.896051,
      "lng": 129.97025,
      "geocoding_level": null,
      "phone": "0957486788",
      "license_no": "",
      "license_date": null,
      "expire_date": null
    },
    {
      "name": "ファミリーマートJR大村駅店",
      "name_kana": "ファミリーマートジェイアールオオムラエキテン",
      "business_type": "⑩ コンビニエンスストア",
      "address": "長崎県大村市東本町１０４－１",
      "lat": 32.910496,
      "lng": 129.962129,
      "geocoding_level": null,
      "phone": "",
      "license_no": "",
      "license_date": null,
      "expire_date": null
    },
    {
      "name": "ファミリーマート大村松原本町店",
      "name_kana": "ファミリーマートオオムラマツバラホンマチテン",
      "business_type": "⑩ コンビニエンスストア",
      "address": "長崎県大村市松原本町４８６－１",
      "lat": 32.969357,
      "lng": 129.942791,
      "geocoding_level": null,
      "phone": "",
      "license_no": "",
      "license_date": null,
      "expire_date": null
    },
    {
      "name": "餃子の王将 大村店",
      "name_kana": "ギョウザノオウショウ　オオムラテン",
      "business_type": "⑬ その他の食料・飲料販売業",
      "address": "長崎県大村市松並1-253-7",
      "lat": 32.919225,
      "lng": 129.949745,
      "geocoding_level": null,
      "phone": "0957-50-3055",
      "license_no": "",
      "license_date": null,
      "expire_date": null
    },
    {
      "name": "株式会社前田冷菓",
      "name_kana": "カブシキガイシャマエダレイカ",
      "business_type": "㉕ 行商",
      "address": "長崎県大村市玖島1丁目15-1　ボートレース大村第5駐車場",
      "lat": 32.896546,
      "lng": 129.951467,
      "geocoding_level": null,
      "phone": "0958008118",
      "license_no": "",
      "license_date": null,
      "expire_date": null
    },
    {
      "name": "株式会社前田冷菓",
      "name_kana": "カブシキガイシャ　マエダレイカ",
      "business_type": "㉕ 行商",
      "address": "長崎県大村市大村市玖島1丁目43　大村公園内",
      "lat": 32.899152,
      "lng": 129.959046,
      "geocoding_level": null,
      "phone": "09054731617",
      "license_no": "",
      "license_date": null,
      "expire_date": null
    },
    {
      "name": "株式会社前田冷菓",
      "name_kana": "カブシキガイシャ　マエダレイカ",
      "business_type": "㉕ 行商",
      "address": "長崎県大村市東三城町６−１ 県営バス大村ターミナル　入口",
      "lat": 32.910578,
      "lng": 129.960176,
      "geocoding_level": null,
      "phone": "09054731617",
      "license_no": "",
      "license_date": null,
      "expire_date": null
    },
    {
      "name": "株式会社前田冷菓",
      "name_kana": "カブシキガイシャ　マエダレイカ",
      "business_type": "㉕ 行商",
      "address": "長崎県大村市植松3丁目　115-3 新大村駅さくら（東）口広場",
      "lat": 32.933049,
      "lng": 129.95709,
      "geocoding_level": null,
      "phone": "0958008118",
      "license_no": "",
      "license_date": null,
      "expire_date": null
    },
    {
      "name": "株式会社前田冷菓",
      "name_kana": "カブシキガイシャ　マエダレイカ",
      "business_type": "㉕ 行商",
      "address": "長崎県大村市東野岳町1131 野岳湖　ロザ・モタ広場",
      "lat": 32.977045,
      "lng": 129.985696,
      "geocoding_level": null,
      "phone": "0958008118",
      "license_no": "",
      "license_date": null,
      "expire_date": null
    },
    {
      "name": "株式会社前田冷菓",
      "name_kana": "カブシキガイシャ　マエダレイカ",
      "business_type": "㉕ 行商",
      "address": "長崎県大村市松山町236-3 株式会社勝手施設内",
      "lat": 32.91287,
      "lng": 129.946125,
      "geocoding_level": null,
      "phone": "095-800-8118",
      "license_no": "",
      "license_date": null,
      "expire_date": null
    },
    {
      "name": "ファミリーマート大村小路口町",
      "name_kana": "ファミリーマートオオムラオログチマチ",
      "business_type": "⑩ コンビニエンスストア",
      "address": "長崎県大村市小路口町244-5",
      "lat": 32.938707,
      "lng": 129.958431,
      "geocoding_level": null,
      "phone": "",
      "license_no": "",
      "license_date": null,
      "expire_date": null
    },
    {
      "name": "ファミリーマート大村杭出津一丁目",
      "name_kana": "ファミリーマートオオムラクイデヅイッチョウメ",
      "business_type": "⑩ コンビニエンスストア",
      "address": "長崎県大村市杭出津518-1",
      "lat": 32.911993,
      "lng": 129.951293,
      "geocoding_level": null,
      "phone": "",
      "license_no": "",
      "license_date": null,
      "expire_date": null
    },
    {
      "name": "リンガーハットイオン大村店",
      "name_kana": "リンガーハットイオンオオムラテン",
      "business_type": "⑬ その他の食料・飲料販売業",
      "address": "長崎県大村市幸町25-200",
      "lat": 32.901577,
      "lng": 129.954127,
      "geocoding_level": null,
      "phone": "0957-27-3454",
      "license_no": "",
      "license_date": null,
      "expire_date": null
    },
    {
      "name": "リンガーハット大村松原店",
      "name_kana": "リンガーハットオオムラマツバラテン",
      "business_type": "⑬ その他の食料・飲料販売業",
      "address": "長崎県大村市松原本町581-1",
      "lat": 32.971467,
      "lng": 129.943075,
      "geocoding_level": null,
      "phone": "0957-55-1506",
      "license_no": "",
      "license_date": null,
      "expire_date": null
    },
    {
      "name": "リンガーハットイオン大村店",
      "name_kana": "リンガーハットイオンオオムラテン",
      "business_type": "① 飲食店営業",
      "address": "長崎県大村市幸町25-200",
      "lat": 32.901577,
      "lng": 129.954127,
      "geocoding_level": null,
      "phone": "0957-27-3454",
      "license_no": "長崎県指令6県央振保衛第2353号",
      "license_date": "2025-03-07",
      "expire_date": "2031-03-31"
    },
    {
      "name": "タリーズコーヒー長崎空港ゲート店",
      "name_kana": "タリーズコーヒーナガサキクウコウゲートテン",
      "business_type": "① 飲食店営業",
      "address": "長崎県大村市箕島町593 長崎空港ビル内",
      "lat": 32.918152,
      "lng": 129.918204,
      "geocoding_level": null,
      "phone": "0957-20-7166",
      "license_no": "長崎県指令7県央振保衛第1184号",
      "license_date": "2025-11-21",
      "expire_date": "2031-12-31"
    },
    {
      "name": "ドミノ・ピザ　トライアル大村店",
      "name_kana": "ドミノ・ピザ　トライアルオオムラテン",
      "business_type": "⑬ その他の食料・飲料販売業",
      "address": "長崎県大村市松並2丁目92番1",
      "lat": 32.924014,
      "lng": 129.947799,
      "geocoding_level": null,
      "phone": "",
      "license_no": "",
      "license_date": null,
      "expire_date": null
    },
    {
      "name": "さつき園",
      "name_kana": "サツキエン",
      "business_type": "㉖ 集団給食施設",
      "address": "長崎県大村市東大村1丁目2270-77",
      "lat": 32.915198,
      "lng": 130.001082,
      "geocoding_level": null,
      "phone": "",
      "license_no": "",
      "license_date": null,
      "expire_date": null
    },
    {
      "name": "イオン九州（株）マックスバリュ空港通り店",
      "name_kana": "イオンキュウシュウカブマックスバリュクウコウドオリテン",
      "business_type": "③ 乳類販売業",
      "address": "長崎県大村市古賀島町525-4",
      "lat": 32.92829,
      "lng": 129.942747,
      "geocoding_level": null,
      "phone": "0957529500",
      "license_no": "",
      "license_date": null,
      "expire_date": null
    },
    {
      "name": "イオン九州（株）マックスバリュ空港通り店",
      "name_kana": "イオンキュウシュウカブマックスバリュクウコウドオリテン",
      "business_type": "⑪ 百貨店、総合スーパー",
      "address": "長崎県大村市古賀島町525-4",
      "lat": 32.92829,
      "lng": 129.942747,
      "geocoding_level": null,
      "phone": "0957529500",
      "license_no": "",
      "license_date": null,
      "expire_date": null
    },
    {
      "name": "イオン大村店",
      "name_kana": "イオンオオムラテン",
      "business_type": "③ 乳類販売業",
      "address": "長崎県大村市幸町25番地200",
      "lat": 32.901577,
      "lng": 129.954127,
      "geocoding_level": null,
      "phone": "0957-27-3456",
      "license_no": "",
      "license_date": null,
      "expire_date": null
    },
    {
      "name": "イオン大村店",
      "name_kana": "イオンオオムラテン",
      "business_type": "⑪ 百貨店、総合スーパー",
      "address": "長崎県大村市幸町25番地200",
      "lat": 32.901577,
      "lng": 129.954127,
      "geocoding_level": null,
      "phone": "0957-27-3456",
      "license_no": "",
      "license_date": null,
      "expire_date": null
    },
    {
      "name": "イオン大村店",
      "name_kana": "イオンオオムラテン",
      "business_type": "⑫ 自動販売機による販売業（コップ式自動販売機（自動洗浄・屋内設置）及び営業許可の対象となる自動販売機を除く）",
      "address": "長崎県大村市幸町25番地200",
      "lat": 32.901577,
      "lng": 129.954127,
      "geocoding_level": null,
      "phone": "0957-27-3456",
      "license_no": "",
      "license_date": null,
      "expire_date": null
    },
    {
      "name": "マックスバリュ大村諏訪店",
      "name_kana": "マックスバリュオオムラスワテン",
      "business_type": "⑪ 百貨店、総合スーパー",
      "address": "長崎県大村市上諏訪町814",
      "lat": 32.921022,
      "lng": 129.966608,
      "geocoding_level": null,
      "phone": "0957-27-3222",
      "license_no": "",
      "license_date": null,
      "expire_date": null
    },
    {
      "name": "リンガーハット大村公園店　株式会社ジー・エフ・フード",
      "name_kana": "リンガーハットオオムラコウエンテン　カブシキカイシャジーエフフード",
      "business_type": "⑬ その他の食料・飲料販売業",
      "address": "長崎県大村市久原1丁目６４０－２",
      "lat": 32.896673,
      "lng": 129.960542,
      "geocoding_level": null,
      "phone": "0957540204",
      "license_no": "",
      "license_date": null,
      "expire_date": null
    },
    {
      "name": "花咲　エレナ竹松",
      "name_kana": "ハナサキエレナタケマツ",
      "business_type": "① 飲食店営業",
      "address": "長崎県大村市大川田町363-1",
      "lat": 32.944551,
      "lng": 129.948248,
      "geocoding_level": null,
      "phone": "0957-55-7799",
      "license_no": "長崎県指令6県央振保衛第2010号",
      "license_date": "2024-06-18",
      "expire_date": "2030-06-30"
    },
    {
      "name": "とんかつ濱かつ大村公園店",
      "name_kana": "トンカツハマカツオオムラコウエンテン",
      "business_type": "⑬ その他の食料・飲料販売業",
      "address": "長崎県大村市片町175−37",
      "lat": 32.901329,
      "lng": 129.958873,
      "geocoding_level": null,
      "phone": "",
      "license_no": "",
      "license_date": null,
      "expire_date": null
    },
    {
      "name": "ブルードラゴン（大村ボート前売発売所）",
      "name_kana": "ブルードラゴン　オオムラボートマエウリハツバイジョ",
      "business_type": "⑫ 自動販売機による販売業（コップ式自動販売機（自動洗浄・屋内設置）及び営業許可の対象となる自動販売機を除く）",
      "address": "長崎県大村市玖島１－１５－１",
      "lat": 32.897169,
      "lng": 129.951799,
      "geocoding_level": null,
      "phone": "",
      "license_no": "",
      "license_date": null,
      "expire_date": null
    },
    {
      "name": "ＨＯＷ大村共立病院売店",
      "name_kana": "ハウオオムラキョウリツビョウインバイテン",
      "business_type": "⑩ コンビニエンスストア",
      "address": "長崎県大村市上諏訪町１０９５番地",
      "lat": 32.925622,
      "lng": 129.975579,
      "geocoding_level": null,
      "phone": "",
      "license_no": "",
      "license_date": null,
      "expire_date": null
    },
    {
      "name": "文明堂総本店　イオン大村店",
      "name_kana": "ブンメイドウソウホンテン　イオンオオムラテン",
      "business_type": "⑬ その他の食料・飲料販売業",
      "address": "長崎県大村市幸町25-200 1F",
      "lat": 32.902693,
      "lng": 129.953776,
      "geocoding_level": null,
      "phone": "0957-27-3402",
      "license_no": "",
      "license_date": null,
      "expire_date": null
    },
    {
      "name": "長崎カステラセンター心泉堂総本店",
      "name_kana": "ナガサキカステラセンターシンセンドウソウホンテン",
      "business_type": "① 魚介類販売業（包装済みの魚介類のみの販売）",
      "address": "長崎県大村市古賀島町５９５－１９",
      "lat": 32.924491,
      "lng": 129.941401,
      "geocoding_level": null,
      "phone": "0957-50-0111",
      "license_no": "",
      "license_date": null,
      "expire_date": null
    },
    {
      "name": "長崎カステラセンター心泉堂総本店",
      "name_kana": "ナガサキカステラセンターシンセンドウソウホンテン",
      "business_type": "② 食肉販売業（包装済みの食肉のみの販売）",
      "address": "長崎県大村市古賀島町５９５－１９",
      "lat": 32.924491,
      "lng": 129.941401,
      "geocoding_level": null,
      "phone": "0957-50-0111",
      "license_no": "",
      "license_date": null,
      "expire_date": null
    },
    {
      "name": "長崎カステラセンター心泉堂総本店",
      "name_kana": "ナガサキカステラセンターシンセンドウソウホンテン",
      "business_type": "⑦ 野菜果物販売業",
      "address": "長崎県大村市古賀島町５９５－１９",
      "lat": 32.924491,
      "lng": 129.941401,
      "geocoding_level": null,
      "phone": "0957-50-0111",
      "license_no": "",
      "license_date": null,
      "expire_date": null
    },
    {
      "name": "長崎カステラセンター心泉堂総本店",
      "name_kana": "ナガサキカステラセンターシンセンドウソウホンテン",
      "business_type": "⑨ 通信販売・訪問販売による販売業",
      "address": "長崎県大村市古賀島町５９５－１９",
      "lat": 32.924491,
      "lng": 129.941401,
      "geocoding_level": null,
      "phone": "0957-50-0111",
      "license_no": "",
      "license_date": null,
      "expire_date": null
    },
    {
      "name": "長崎カステラセンター心泉堂総本店",
      "name_kana": "ナガサキカステラセンターシンセンドウソウホンテン",
      "business_type": "⑬ その他の食料・飲料販売業",
      "address": "長崎県大村市古賀島町５９５－１９",
      "lat": 32.924491,
      "lng": 129.941401,
      "geocoding_level": null,
      "phone": "0957-50-0111",
      "license_no": "",
      "license_date": null,
      "expire_date": null
    },
    {
      "name": "長崎カステラセンター心泉堂空港店",
      "name_kana": "ナガサキカステラセンターシンセンドウクウコウテン",
      "business_type": "① 魚介類販売業（包装済みの魚介類のみの販売）",
      "address": "長崎県大村市協和町８０９",
      "lat": 32.919383,
      "lng": 129.945879,
      "geocoding_level": null,
      "phone": "0957-53-5540",
      "license_no": "",
      "license_date": null,
      "expire_date": null
    },
    {
      "name": "長崎カステラセンター心泉堂空港店",
      "name_kana": "ナガサキカステラセンターシンセンドウクウコウテン",
      "business_type": "② 食肉販売業（包装済みの食肉のみの販売）",
      "address": "長崎県大村市協和町８０９",
      "lat": 32.919383,
      "lng": 129.945879,
      "geocoding_level": null,
      "phone": "0957-53-5540",
      "license_no": "",
      "license_date": null,
      "expire_date": null
    },
    {
      "name": "長崎カステラセンター心泉堂空港店",
      "name_kana": "ナガサキカステラセンターシンセンドウクウコウテン",
      "business_type": "⑦ 野菜果物販売業",
      "address": "長崎県大村市協和町８０９",
      "lat": 32.919383,
      "lng": 129.945879,
      "geocoding_level": null,
      "phone": "0957-53-5540",
      "license_no": "",
      "license_date": null,
      "expire_date": null
    },
    {
      "name": "長崎カステラセンター心泉堂空港店",
      "name_kana": "ナガサキカステラセンターシンセンドウクウコウテン",
      "business_type": "⑬ その他の食料・飲料販売業",
      "address": "長崎県大村市協和町８０９",
      "lat": 32.919383,
      "lng": 129.945879,
      "geocoding_level": null,
      "phone": "0957-53-5540",
      "license_no": "",
      "license_date": null,
      "expire_date": null
    },
    {
      "name": "ケンタッキーフライドチキン大村松並店",
      "name_kana": "ケンタッキーフライドチキンオオムラマツナミテン",
      "business_type": "⑬ その他の食料・飲料販売業",
      "address": "長崎県大村市松並2丁目1224-1",
      "lat": 32.921834,
      "lng": 129.948884,
      "geocoding_level": null,
      "phone": "0957-27-3111",
      "license_no": "",
      "license_date": null,
      "expire_date": null
    },
    {
      "name": "びっくりドンキー大村店",
      "name_kana": "ビックリドンキーオオムラテン",
      "business_type": "⑬ その他の食料・飲料販売業",
      "address": "長崎県大村市松並1-368-1",
      "lat": 32.917932,
      "lng": 129.950226,
      "geocoding_level": null,
      "phone": "0957273868",
      "license_no": "",
      "license_date": null,
      "expire_date": null
    },
    {
      "name": "㈲シャディヤマシタ　サラダ館大村インター店",
      "name_kana": "ユウ　シャディヤマシタ　サラダカンオオムラインターテン",
      "business_type": "⑬ その他の食料・飲料販売業",
      "address": "長崎県大村市池田2丁目331-1",
      "lat": 32.933697,
      "lng": 129.962443,
      "geocoding_level": null,
      "phone": "0957536609",
      "license_no": "",
      "license_date": null,
      "expire_date": null
    },
    {
      "name": "ドラッグコスモス大村古賀島店",
      "name_kana": "ドラッグコスモスオオムラコガシマテン",
      "business_type": "⑪ 百貨店、総合スーパー",
      "address": "長崎県大村市古賀島町１７７０－１",
      "lat": 32.931515,
      "lng": 129.936236,
      "geocoding_level": null,
      "phone": "0957-48-5758",
      "license_no": "",
      "license_date": null,
      "expire_date": null
    },
    {
      "name": "ドラッグコスモス大村店",
      "name_kana": "ドラッグコスモスオオムラテン",
      "business_type": "⑪ 百貨店、総合スーパー",
      "address": "長崎県大村市協和町６２８－２",
      "lat": 32.914381,
      "lng": 129.947469,
      "geocoding_level": null,
      "phone": "0957-20-7111",
      "license_no": "",
      "license_date": null,
      "expire_date": null
    },
    {
      "name": "ドラッグコスモス溝陸店",
      "name_kana": "ドラッグコスモスミゾロクテン",
      "business_type": "⑪ 百貨店、総合スーパー",
      "address": "長崎県大村市溝陸町999-1",
      "lat": 32.85334,
      "lng": 130.010619,
      "geocoding_level": null,
      "phone": "0957-48-5700",
      "license_no": "",
      "license_date": null,
      "expire_date": null
    },
    {
      "name": "ドラッグコスモス池田店",
      "name_kana": "ドラッグコスモスイケダテン",
      "business_type": "⑪ 百貨店、総合スーパー",
      "address": "長崎県大村市池田１丁目３９－２",
      "lat": 32.929649,
      "lng": 129.963255,
      "geocoding_level": null,
      "phone": "0957-49-6680",
      "license_no": "",
      "license_date": null,
      "expire_date": null
    },
    {
      "name": "ドラッグコスモス宮小路店",
      "name_kana": "ドラッグコスモスミヤショウジテン",
      "business_type": "⑪ 百貨店、総合スーパー",
      "address": "長崎県大村市宮小路３丁目１０３３",
      "lat": 32.954636,
      "lng": 129.944349,
      "geocoding_level": null,
      "phone": "0957-28-8860",
      "license_no": "",
      "license_date": null,
      "expire_date": null
    },
    {
      "name": "ドラッグコスモス大村幸町店",
      "name_kana": "ドラッグコスモスオオムラサイワイマチテン",
      "business_type": "⑪ 百貨店、総合スーパー",
      "address": "長崎県大村市幸町25-177",
      "lat": 32.903391,
      "lng": 129.956696,
      "geocoding_level": null,
      "phone": "0957-47-8990",
      "license_no": "",
      "license_date": null,
      "expire_date": null
    },
    {
      "name": "長萠産業株式会社東大村工場",
      "name_kana": "チョウホウサンギョウカブシキガイシャヒガシオオムラコウジョウ",
      "business_type": "㉔ その他の食料品製造・加工業",
      "address": "長崎県大村市東大村1丁目2680-1",
      "lat": 32.933111,
      "lng": 130.017388,
      "geocoding_level": null,
      "phone": "0957-56-8806",
      "license_no": "",
      "license_date": null,
      "expire_date": null
    },
    {
      "name": "松屋・松のや　大村店",
      "name_kana": "マツヤ・マツノヤ　オオムラテン",
      "business_type": "① 飲食店営業",
      "address": "長崎県大村市今津町649-1",
      "lat": 32.934454,
      "lng": 129.937898,
      "geocoding_level": null,
      "phone": "090-1280-6101",
      "license_no": "長崎県指令6県央振保衛第1328号",
      "license_date": "2025-05-02",
      "expire_date": "2031-06-30"
    },
    {
      "name": "すき家　34号大村店",
      "name_kana": "スキヤ　サンジュウヨンゴウオオムラテン",
      "business_type": "⑬ その他の食料・飲料販売業",
      "address": "長崎県大村市桜馬場2丁目370-1",
      "lat": 32.929954,
      "lng": 129.950383,
      "geocoding_level": null,
      "phone": "",
      "license_no": "",
      "license_date": null,
      "expire_date": null
    },
    {
      "name": "すき家　34号大村店",
      "name_kana": "スキヤ　サンジュウヨンゴウオオムラテン",
      "business_type": "① 飲食店営業",
      "address": "長崎県大村市桜馬場2丁目370-1",
      "lat": 32.929954,
      "lng": 129.950383,
      "geocoding_level": null,
      "phone": "",
      "license_no": "3県央振保衛第2106号",
      "license_date": "2021-10-01",
      "expire_date": "2027-09-30"
    },
    {
      "name": "ホームプラザナフコ南大村店",
      "name_kana": "ホームプラザナフコミナミオオムラテン",
      "business_type": "⑧ 米穀類販売業",
      "address": "長崎県大村市杭出津２丁目７４４－１",
      "lat": 32.911458,
      "lng": 129.952213,
      "geocoding_level": null,
      "phone": "0957485681",
      "license_no": "",
      "license_date": null,
      "expire_date": null
    },
    {
      "name": "レストラン　ペーパームーン",
      "name_kana": "レストラン　ペーパームーン",
      "business_type": "⑦ 野菜果物販売業",
      "address": "長崎県大村市池田2丁目317-1",
      "lat": 32.933395,
      "lng": 129.962844,
      "geocoding_level": null,
      "phone": "0957-52-3927",
      "license_no": "",
      "license_date": null,
      "expire_date": null
    },
    {
      "name": "レストラン　ペーパームーン",
      "name_kana": "レストラン　ペーパームーン",
      "business_type": "㉔ その他の食料品製造・加工業",
      "address": "長崎県大村市池田2丁目317-1",
      "lat": 32.933395,
      "lng": 129.962844,
      "geocoding_level": null,
      "phone": "0957-52-3927",
      "license_no": "",
      "license_date": null,
      "expire_date": null
    },
    {
      "name": "みろくや長崎空港店",
      "name_kana": "ミロクヤナガサキクウコウテン",
      "business_type": "㉙ その他",
      "address": "長崎県大村市箕島町593",
      "lat": 32.914165,
      "lng": 129.922479,
      "geocoding_level": null,
      "phone": "0957543698",
      "license_no": "",
      "license_date": null,
      "expire_date": null
    },
    {
      "name": "イオン大村　催事　いもや和真",
      "name_kana": "イオンオオムラ　サイジ　イモヤワシン",
      "business_type": "⑬ その他の食料・飲料販売業",
      "address": "長崎県大村市幸町25-200",
      "lat": 32.901577,
      "lng": 129.954127,
      "geocoding_level": null,
      "phone": "",
      "license_no": "",
      "license_date": null,
      "expire_date": null
    },
    {
      "name": "いるか保育園",
      "name_kana": "イルカホイクエン",
      "business_type": "㉖ 集団給食施設",
      "address": "長崎県大村市西大村本町364",
      "lat": 32.923935,
      "lng": 129.951425,
      "geocoding_level": null,
      "phone": "0957524444",
      "license_no": "",
      "license_date": null,
      "expire_date": null
    },
    {
      "name": "ひじり屋",
      "name_kana": "ヒジリヤ",
      "business_type": "⑦ 野菜果物販売業",
      "address": "長崎県大村市市内一円",
      "lat": 32.900025,
      "lng": 129.957863,
      "geocoding_level": null,
      "phone": "",
      "license_no": "",
      "license_date": null,
      "expire_date": null
    },
    {
      "name": "ひじり屋",
      "name_kana": "ヒジリヤ",
      "business_type": "⑬ その他の食料・飲料販売業",
      "address": "長崎県大村市市内一円",
      "lat": 32.900025,
      "lng": 129.957863,
      "geocoding_level": null,
      "phone": "",
      "license_no": "",
      "license_date": null,
      "expire_date": null
    },
    {
      "name": "Gruunおおむら",
      "name_kana": "グルーンオオムラ",
      "business_type": "⑦ 野菜果物販売業",
      "address": "長崎県大村市玖島1-15-1",
      "lat": 32.897186,
      "lng": 129.951805,
      "geocoding_level": null,
      "phone": "08074730916",
      "license_no": "",
      "license_date": null,
      "expire_date": null
    },
    {
      "name": "Gruunおおむら",
      "name_kana": "グルーンオオムラ",
      "business_type": "⑧ 米穀類販売業",
      "address": "長崎県大村市玖島1-15-1",
      "lat": 32.897186,
      "lng": 129.951805,
      "geocoding_level": null,
      "phone": "08074730916",
      "license_no": "",
      "license_date": null,
      "expire_date": null
    },
    {
      "name": "肉処　醍醐味",
      "name_kana": "ニクドコロダイゴミ",
      "business_type": "⑱ 調味料製造・加工業",
      "address": "長崎県大村市東三城町",
      "lat": 32.910755,
      "lng": 129.957488,
      "geocoding_level": null,
      "phone": "",
      "license_no": "",
      "license_date": null,
      "expire_date": null
    },
    {
      "name": "社会福祉法人　蓬莱会",
      "name_kana": "シャカイフクシホウジンホウライカイ",
      "business_type": "㉖ 集団給食施設",
      "address": "長崎県大村市大村市本町438-1　(〒856-0832)436-12 社会福祉法人　蓬莱会",
      "lat": 32.907826,
      "lng": 129.958231,
      "geocoding_level": null,
      "phone": "0957-54-9144",
      "license_no": "",
      "license_date": null,
      "expire_date": null
    },
    {
      "name": "OKﾎｰﾑ&ｶﾞｰﾃﾞﾝ大村店",
      "name_kana": "オーケーホームアンドガーデンオオムラテン",
      "business_type": "⑪ 百貨店、総合スーパー",
      "address": "長崎県大村市今津町649-1",
      "lat": 32.934454,
      "lng": 129.937898,
      "geocoding_level": null,
      "phone": "0957-20-8220",
      "license_no": "",
      "license_date": null,
      "expire_date": null
    },
    {
      "name": "就労継続支援B型事業所コノユビトーマレ",
      "name_kana": "シュウロウケイゾクシエンビーガタジギョウショコノユビトーマレ",
      "business_type": "㉖ 集団給食施設",
      "address": "長崎県大村市杭出津2丁目555番地1",
      "lat": 32.91465,
      "lng": 129.954572,
      "geocoding_level": null,
      "phone": "0957515891",
      "license_no": "",
      "license_date": null,
      "expire_date": null
    },
    {
      "name": "藤兵衛",
      "name_kana": "トウベェ",
      "business_type": "⑯ コーヒー製造・加工業（飲料の製造を除く。）",
      "address": "長崎県大村市今富町1054-5",
      "lat": 32.950705,
      "lng": 129.956348,
      "geocoding_level": null,
      "phone": "07084102748",
      "license_no": "",
      "license_date": null,
      "expire_date": null
    },
    {
      "name": "藤兵衛",
      "name_kana": "トウベェ",
      "business_type": "㉔ その他の食料品製造・加工業",
      "address": "長崎県大村市今富町1054-5",
      "lat": 32.950705,
      "lng": 129.956348,
      "geocoding_level": null,
      "phone": "07084102748",
      "license_no": "",
      "license_date": null,
      "expire_date": null
    },
    {
      "name": "株式会社ショクリュー　大村営業所",
      "name_kana": "カブシキガイシャショクリュー　オオムラエイギョウショ",
      "business_type": "① 魚介類販売業（包装済みの魚介類のみの販売）",
      "address": "長崎県大村市古賀島町４８８－４",
      "lat": 32.931906,
      "lng": 129.939961,
      "geocoding_level": null,
      "phone": "0957-53-1680",
      "license_no": "",
      "license_date": null,
      "expire_date": null
    },
    {
      "name": "株式会社ショクリュー　大村営業所",
      "name_kana": "カブシキガイシャショクリュー　オオムラエイギョウショ",
      "business_type": "② 食肉販売業（包装済みの食肉のみの販売）",
      "address": "長崎県大村市古賀島町４８８－４",
      "lat": 32.931906,
      "lng": 129.939961,
      "geocoding_level": null,
      "phone": "0957-53-1680",
      "license_no": "",
      "license_date": null,
      "expire_date": null
    },
    {
      "name": "ＩＪＯＯＺ自動販売機　MEGAドン・キホーテ大村インター店",
      "name_kana": "アイジュースジドウハンバイキ　メガドン・キホーテオオムラインターテン",
      "business_type": "② 調理機能を有する自動販売機（要許可）",
      "address": "長崎県大村市西大村本町255",
      "lat": 32.926218,
      "lng": 129.951513,
      "geocoding_level": null,
      "phone": "",
      "license_no": "長崎県指令6県央振保衛第1174号",
      "license_date": "2024-09-26",
      "expire_date": "2029-09-30"
    },
    {
      "name": "ＩＪＯＯＺ自動販売機　イオン大村",
      "name_kana": "アイジュースジドウハンバイキ　イオンオオムラ",
      "business_type": "② 調理機能を有する自動販売機（要許可）",
      "address": "長崎県大村市幸町25-200",
      "lat": 32.901577,
      "lng": 129.954127,
      "geocoding_level": null,
      "phone": "",
      "license_no": "長崎県指令6県央振保衛第1246号",
      "license_date": "2024-12-09",
      "expire_date": "2029-12-31"
    },
    {
      "name": "ＩＪＯＯＺ自動販売機　まるたか生鮮市場 三城店",
      "name_kana": "アイジュースジドウハンバイキ　マルタカ　セイセンイチバサンジョウテン",
      "business_type": "② 調理機能を有する自動販売機（要許可）",
      "address": "長崎県大村市西三城町6-5",
      "lat": 32.913257,
      "lng": 129.959329,
      "geocoding_level": null,
      "phone": "",
      "license_no": "長崎県指令7県央振保衛第1008号",
      "license_date": "2025-04-17",
      "expire_date": "2030-06-30"
    },
    {
      "name": "ＩＪＯＯＺ自動販売機　まるたか生鮮市場 池田店",
      "name_kana": "アイジュースジドウハンバイキ　マルタカ　セイセンイチバイケダテン",
      "business_type": "② 調理機能を有する自動販売機（要許可）",
      "address": "長崎県大村市池田2丁目322-1",
      "lat": 32.935312,
      "lng": 129.963517,
      "geocoding_level": null,
      "phone": "",
      "license_no": "長崎県指令7県央振保衛第1007号",
      "license_date": "2025-04-17",
      "expire_date": "2030-06-30"
    },
    {
      "name": "長崎県工業技術センター食品開発支援センター",
      "name_kana": "ナガサキケンコウギョウギジュツセンターショクヒンカイハツシエンセンター",
      "business_type": "⑱ 調味料製造・加工業",
      "address": "長崎県大村市池田2丁目1303-8",
      "lat": 32.938187,
      "lng": 129.975018,
      "geocoding_level": null,
      "phone": "0957-52-1133",
      "license_no": "",
      "license_date": null,
      "expire_date": null
    },
    {
      "name": "森永とうふ食品",
      "name_kana": "モリナガトウフショクヒン",
      "business_type": "㉒ 豆腐製造業",
      "address": "長崎県大村市小路口本町３３１－３",
      "lat": 32.938423,
      "lng": 129.95482,
      "geocoding_level": null,
      "phone": "0957558264",
      "license_no": "長崎県指令5県央振保衛第2085号",
      "license_date": "2023-09-19",
      "expire_date": "2028-09-30"
    },
    {
      "name": "百姓家",
      "name_kana": "ヒャクショウヤ",
      "business_type": "① 飲食店営業",
      "address": "長崎県大村市松原本町１２６－１",
      "lat": 32.977048,
      "lng": 129.944697,
      "geocoding_level": null,
      "phone": "0957551333",
      "license_no": "長崎県指令5県央振保衛第2086号",
      "license_date": "2023-09-19",
      "expire_date": "2029-09-30"
    },
    {
      "name": "無印良品新大村駅前",
      "name_kana": "ムジルシリョウヒンシンオオムラエキマエ",
      "business_type": "⑬ その他の食料・飲料販売業",
      "address": "長崎県大村市植松三丁目新大村駅前周辺土地区画1-2",
      "lat": 32.933274,
      "lng": 129.957231,
      "geocoding_level": null,
      "phone": "0957-46-6122",
      "license_no": "",
      "license_date": null,
      "expire_date": null
    },
    {
      "name": "無印良品　新大村駅前",
      "name_kana": "ムジツシリョウヒン　シンオオムラエキマエ",
      "business_type": "⑦ 野菜果物販売業",
      "address": "長崎県大村市植松三丁目新大村駅前周辺土地区画1-2",
      "lat": 32.933274,
      "lng": 129.957231,
      "geocoding_level": null,
      "phone": "0957466122",
      "license_no": "",
      "license_date": null,
      "expire_date": null
    },
    {
      "name": "大村郵便局食堂　sakura",
      "name_kana": "オオムラユウビンキョクショクドウ　サクラ",
      "business_type": "① 飲食店営業",
      "address": "長崎県大村市森園町663-9 4F",
      "lat": 32.923627,
      "lng": 129.937501,
      "geocoding_level": null,
      "phone": "",
      "license_no": "長崎県指令5県央振保衛第2233号",
      "license_date": "2024-03-11",
      "expire_date": "2030-03-31"
    },
    {
      "name": "居酒屋　勘作さん",
      "name_kana": "イザカヤカンサクサン",
      "business_type": "① 飲食店営業",
      "address": "長崎県大村市東本町349",
      "lat": 32.900025,
      "lng": 129.957863,
      "geocoding_level": null,
      "phone": "0957544839",
      "license_no": "長崎県指令5県央振保衛第2237号",
      "license_date": "2024-03-11",
      "expire_date": "2030-03-31"
    },
    {
      "name": "ダイレックス木場店",
      "name_kana": "ダイレックスコバテン",
      "business_type": "⑪ 百貨店、総合スーパー",
      "address": "長崎県大村市木場１丁目1064-1",
      "lat": 32.898318,
      "lng": 129.974396,
      "geocoding_level": null,
      "phone": "0957-20-8260",
      "license_no": "",
      "license_date": null,
      "expire_date": null
    },
    {
      "name": "ダイレックス大村店",
      "name_kana": "ダイレックスオオムラテン",
      "business_type": "⑪ 百貨店、総合スーパー",
      "address": "長崎県大村市古賀島町427番地4",
      "lat": 32.929402,
      "lng": 129.938308,
      "geocoding_level": null,
      "phone": "0957-49-5700",
      "license_no": "",
      "license_date": null,
      "expire_date": null
    },
    {
      "name": "フィットイージー新大村駅前店",
      "name_kana": "フィットイージーシンオオムラエキマエテン",
      "business_type": "⑤ コップ式自動販売機（自動洗浄・屋内設置）",
      "address": "長崎県大村市植松3丁目160-2",
      "lat": 32.933991,
      "lng": 129.959488,
      "geocoding_level": null,
      "phone": "",
      "license_no": "",
      "license_date": null,
      "expire_date": null
    },
    {
      "name": "特定非営利活動法人　きらめき",
      "name_kana": "トクテイヒエイリカツドウホウジン　キラメキ",
      "business_type": "㉙ 漬物製造業",
      "address": "長崎県大村市日泊町234-6",
      "lat": 32.868359,
      "lng": 129.981592,
      "geocoding_level": null,
      "phone": "0957-54-6699",
      "license_no": "長崎県指令6県央振保衛第1076号",
      "license_date": "2024-05-30",
      "expire_date": "2030-06-30"
    },
    {
      "name": "長崎大村ショートステイそよ風",
      "name_kana": "ナガサキオオムラショートステイソヨカゼ",
      "business_type": "⑥ 弁当販売業",
      "address": "長崎県大村市今富町1142番地",
      "lat": 32.95538,
      "lng": 129.956847,
      "geocoding_level": null,
      "phone": "",
      "license_no": "",
      "license_date": null,
      "expire_date": null
    },
    {
      "name": "ROLLN",
      "name_kana": "ロールン",
      "business_type": "⑥ 弁当販売業",
      "address": "長崎県大村市中里町（長崎県内一円、中核市を除く）",
      "lat": 32.881599,
      "lng": 130.004329,
      "geocoding_level": null,
      "phone": "",
      "license_no": "",
      "license_date": null,
      "expire_date": null
    },
    {
      "name": "ROLLN",
      "name_kana": "ロールン",
      "business_type": "㉔ その他の食料品製造・加工業",
      "address": "長崎県大村市中里町1315-1",
      "lat": 32.8874,
      "lng": 129.998399,
      "geocoding_level": null,
      "phone": "09043437553",
      "license_no": "",
      "license_date": null,
      "expire_date": null
    },
    {
      "name": "ココス　大村店",
      "name_kana": "ココス　オオムラテン",
      "business_type": "⑬ その他の食料・飲料販売業",
      "address": "長崎県大村市西大村本町312-1",
      "lat": 32.928726,
      "lng": 129.951506,
      "geocoding_level": null,
      "phone": "050-3372-8213",
      "license_no": "",
      "license_date": null,
      "expire_date": null
    },
    {
      "name": "サンスパスポーツジム",
      "name_kana": "サンスパスポーツジム",
      "business_type": "⑬ その他の食料・飲料販売業",
      "address": "長崎県大村市森園町663-3",
      "lat": 32.921447,
      "lng": 129.937574,
      "geocoding_level": null,
      "phone": "0957-50-1172",
      "license_no": "",
      "license_date": null,
      "expire_date": null
    },
    {
      "name": "就労継続支援A型NEWATE",
      "name_kana": "シュウロウケイゾクシエンエーガタニューエイト",
      "business_type": "⑥ 弁当販売業",
      "address": "長崎県大村市久原2丁目1073-2",
      "lat": 32.896165,
      "lng": 129.970544,
      "geocoding_level": null,
      "phone": "0957569895",
      "license_no": "",
      "license_date": null,
      "expire_date": null
    },
    {
      "name": "大村営業所",
      "name_kana": "オオムラエイギョウショ",
      "business_type": "㉖ 集団給食施設",
      "address": "長崎県大村市協和町７０４－３",
      "lat": 32.919322,
      "lng": 129.94499,
      "geocoding_level": null,
      "phone": "0957-48-7575",
      "license_no": "",
      "license_date": null,
      "expire_date": null
    },
    {
      "name": "matatakicoffeestand",
      "name_kana": "マタタキコーヒースタンド",
      "business_type": "⑯ コーヒー製造・加工業（飲料の製造を除く。）",
      "address": "長崎県大村市諏訪1-27-1",
      "lat": 32.924489,
      "lng": 129.962924,
      "geocoding_level": null,
      "phone": "08039620620",
      "license_no": "",
      "license_date": null,
      "expire_date": null
    },
    {
      "name": "就労継続支援B型Pastel",
      "name_kana": "シュウロウケイゾクシエンビーガタパステル",
      "business_type": "㉔ その他の食料品製造・加工業",
      "address": "長崎県大村市植松3丁目802‐1",
      "lat": 32.933518,
      "lng": 129.954469,
      "geocoding_level": null,
      "phone": "",
      "license_no": "",
      "license_date": null,
      "expire_date": null
    },
    {
      "name": "Rilato　Coffee",
      "name_kana": "リラートコーヒー",
      "business_type": "⑯ コーヒー製造・加工業（飲料の製造を除く。）",
      "address": "長崎県大村市三城町７２３－１ クレメントヒルC　２０３",
      "lat": 32.91535,
      "lng": 129.96915,
      "geocoding_level": null,
      "phone": "08064457623",
      "license_no": "",
      "license_date": null,
      "expire_date": null
    },
    {
      "name": "香月商店大村店",
      "name_kana": "カツキショウテンオオムラテン",
      "business_type": "⑦ 野菜果物販売業",
      "address": "長崎県大村市今津町649-1 生鮮＆業務スーパー大村店内",
      "lat": 32.934454,
      "lng": 129.937898,
      "geocoding_level": null,
      "phone": "0957-54-0630",
      "license_no": "",
      "license_date": null,
      "expire_date": null
    },
    {
      "name": "大ちゃん食堂",
      "name_kana": "ダイチャンショクドウ",
      "business_type": "① 飲食店営業",
      "address": "長崎県大村市本町259-2",
      "lat": 32.906085,
      "lng": 129.960487,
      "geocoding_level": null,
      "phone": "0957-51-7821",
      "license_no": "長崎県指令7県央振保衛第1217号",
      "license_date": "2026-01-21",
      "expire_date": "2032-03-31"
    },
    {
      "name": "丸亀製麺大村店",
      "name_kana": "マルガメセイメンオオムラテン",
      "business_type": "① 飲食店営業",
      "address": "長崎県大村市西本町４７９－１５",
      "lat": 32.905092,
      "lng": 129.957126,
      "geocoding_level": null,
      "phone": "0957-50-1690",
      "license_no": "長崎県指令4県央振保衛第2335号",
      "license_date": "2023-03-29",
      "expire_date": "2029-03-31"
    },
    {
      "name": "AUN'SGYM長崎岩松",
      "name_kana": "アウンズジムナガサキイワマツ",
      "business_type": "⑫ 自動販売機による販売業（コップ式自動販売機（自動洗浄・屋内設置）及び営業許可の対象となる自動販売機を除く）",
      "address": "長崎県大村市中里町1315-1",
      "lat": 32.8874,
      "lng": 129.998399,
      "geocoding_level": null,
      "phone": "",
      "license_no": "",
      "license_date": null,
      "expire_date": null
    },
    {
      "name": "資さんうどん大村西本町店",
      "name_kana": "スケサンウドンオオムラニシホンマチテン",
      "business_type": "① 飲食店営業",
      "address": "長崎県大村市西本町748-2",
      "lat": 32.90613,
      "lng": 129.956782,
      "geocoding_level": null,
      "phone": "0957-46-3488",
      "license_no": "長崎県指令6県央振保衛第1149号",
      "license_date": "2024-08-27",
      "expire_date": "2030-09-30"
    },
    {
      "name": "資さんうどん大村西本町店",
      "name_kana": "スケサンウドンオオムラニシホンマチテン",
      "business_type": "⑬ その他の食料・飲料販売業",
      "address": "長崎県大村市西本町748-2",
      "lat": 32.90613,
      "lng": 129.956782,
      "geocoding_level": null,
      "phone": "0957-46-3488",
      "license_no": "",
      "license_date": null,
      "expire_date": null
    }
  ]
}
