{
  "meta": {
    "updated": 1783568789,
    "sources": [
      {
        "source": "厚生労働省 食品衛生申請等システム（オープンデータ）",
        "license": "公共データ利用規約（第1.0版, PDL1.0）"
      }
    ]
  },
  "data": [
    {
      "name": "ダイソー　鎌ヶ谷道野辺店",
      "name_kana": "ダイソー　カマガヤミチノベテン",
      "business_type": "⑬ その他の食料・飲料販売業",
      "address": "千葉県鎌ケ谷市東道野辺５－１１－３８ ２階",
      "lat": 35.750395,
      "lng": 140.00111,
      "geocoding_level": null,
      "phone": "",
      "license_no": "",
      "license_date": null,
      "expire_date": null
    },
    {
      "name": "ダイソー　アクロス新鎌ヶ谷店",
      "name_kana": "ダイソー　アクロスシンカマガヤテンテン",
      "business_type": "⑬ その他の食料・飲料販売業",
      "address": "千葉県鎌ケ谷市新鎌ケ谷二丁目１２番１号 ２階",
      "lat": 35.780728,
      "lng": 140.001122,
      "geocoding_level": null,
      "phone": "",
      "license_no": "",
      "license_date": null,
      "expire_date": null
    },
    {
      "name": "ダイソー　ショッピングプラザ鎌ヶ谷店",
      "name_kana": "ダイソー　ショッピングプラザカマガヤテン",
      "business_type": "⑬ その他の食料・飲料販売業",
      "address": "千葉県鎌ケ谷市富岡１丁目１番３号 ショッピングプラザ鎌ヶ谷店２階",
      "lat": 35.770817,
      "lng": 139.999679,
      "geocoding_level": null,
      "phone": "",
      "license_no": "",
      "license_date": null,
      "expire_date": null
    },
    {
      "name": "ダイソー　ヨークマート東道野辺店",
      "name_kana": "ダイソー　ヨークマートヒガシミチノベテン",
      "business_type": "⑬ その他の食料・飲料販売業",
      "address": "千葉県鎌ケ谷市東道野辺５丁目１６－３８ ヨークマート東道野辺店２階",
      "lat": 35.748868,
      "lng": 139.999609,
      "geocoding_level": null,
      "phone": "",
      "license_no": "",
      "license_date": null,
      "expire_date": null
    },
    {
      "name": "ニチイキッズ新鎌ヶ谷保育園",
      "name_kana": "ニチイキッズシンカマガヤホイクエン",
      "business_type": "㉖ 集団給食施設",
      "address": "千葉県鎌ケ谷市新鎌ケ谷1-7-20 ボヌール1階101",
      "lat": 35.777284,
      "lng": 139.998407,
      "geocoding_level": null,
      "phone": "047-441-1431",
      "license_no": "",
      "license_date": null,
      "expire_date": null
    },
    {
      "name": "金宝堂　鎌ヶ谷初富店",
      "name_kana": "キンホウドウ　カマガヤハツトミテン",
      "business_type": "⑤ コップ式自動販売機（自動洗浄・屋内設置）",
      "address": "千葉県鎌ケ谷市南初富3-18-20",
      "lat": 35.768353,
      "lng": 140.008971,
      "geocoding_level": null,
      "phone": "04-7197-2045",
      "license_no": "",
      "license_date": null,
      "expire_date": null
    },
    {
      "name": "快活CLUB　FiT24　鎌ヶ谷北初富店",
      "name_kana": "カイカツクラブフィット　カマガヤキタハツトミテン",
      "business_type": "⑫ 自動販売機による販売業（コップ式自動販売機（自動洗浄・屋内設置）及び営業許可の対象となる自動販売機を除く）",
      "address": "千葉県鎌ケ谷市北初富2-9",
      "lat": 35.778271,
      "lng": 139.989897,
      "geocoding_level": null,
      "phone": "",
      "license_no": "",
      "license_date": null,
      "expire_date": null
    },
    {
      "name": "スターバックスコーヒー新鎌ケ谷店",
      "name_kana": "スターバックスコーヒーシンカマガヤテン",
      "business_type": "⑬ その他の食料・飲料販売業",
      "address": "千葉県鎌ケ谷市新鎌ケ谷3-1-5",
      "lat": 35.774723,
      "lng": 140.001104,
      "geocoding_level": null,
      "phone": "047-441-8091",
      "license_no": "",
      "license_date": null,
      "expire_date": null
    },
    {
      "name": "千葉県ヤクルト販売㈱ヤクルト鎌ヶ谷中央センター",
      "name_kana": "チバケンヤクルトハンバイカブシキガイシャヤクルトカマガヤチュウオウセンター",
      "business_type": "⑬ その他の食料・飲料販売業",
      "address": "千葉県鎌ケ谷市新鎌ケ谷3-11-3",
      "lat": 35.778425,
      "lng": 140.004247,
      "geocoding_level": null,
      "phone": "047-444-3842",
      "license_no": "",
      "license_date": null,
      "expire_date": null
    },
    {
      "name": "千葉県ヤクルト販売㈱ヤクルト馬込沢センター",
      "name_kana": "チバケンヤクルトハンバイカブシキガイシャヤクルトマゴメザワセンター",
      "business_type": "⑬ その他の食料・飲料販売業",
      "address": "千葉県鎌ケ谷市東道野辺5-11-15",
      "lat": 35.750734,
      "lng": 140.001784,
      "geocoding_level": null,
      "phone": "047-498-8960",
      "license_no": "",
      "license_date": null,
      "expire_date": null
    },
    {
      "name": "かっぱ寿司　鎌ヶ谷店/丼ぶり専門 清水港 バンノウ水産 鎌ヶ谷店",
      "name_kana": "カッパズシ　カマガヤテンドンブリセンモンシミズコウバンノウスイサンカマガヤテン",
      "business_type": "① 飲食店営業",
      "address": "千葉県鎌ケ谷市東鎌ケ谷1－3－31",
      "lat": 35.765866,
      "lng": 140.019286,
      "geocoding_level": null,
      "phone": "047-498-5731",
      "license_no": "20220315",
      "license_date": "2022-10-28",
      "expire_date": "2028-10-31"
    },
    {
      "name": "かっぱ寿司　鎌ヶ谷店",
      "name_kana": "カッパズシ　カマガヤテン",
      "business_type": "⑬ その他の食料・飲料販売業",
      "address": "千葉県鎌ケ谷市東鎌ケ谷1丁目3番31号",
      "lat": 35.765866,
      "lng": 140.019286,
      "geocoding_level": null,
      "phone": "047-498-5731",
      "license_no": "",
      "license_date": null,
      "expire_date": null
    },
    {
      "name": "サンドラッグ鎌ケ谷店",
      "name_kana": "サンドラッグカマガヤテン",
      "business_type": "⑪ 百貨店、総合スーパー",
      "address": "千葉県鎌ケ谷市富岡１丁目１番３号",
      "lat": 35.770817,
      "lng": 139.999679,
      "geocoding_level": null,
      "phone": "047-498-6181",
      "license_no": "",
      "license_date": null,
      "expire_date": null
    },
    {
      "name": "株式会社マルエツ鎌ヶ谷大仏店",
      "name_kana": "カブシキガイシャマルエツカマガヤダイブツテン",
      "business_type": "⑪ 百貨店、総合スーパー",
      "address": "千葉県鎌ケ谷市東初富4丁目35番1号",
      "lat": 35.764086,
      "lng": 140.009784,
      "geocoding_level": null,
      "phone": "047-445-2221",
      "license_no": "",
      "license_date": null,
      "expire_date": null
    },
    {
      "name": "株式会社マルエツ馬込沢店",
      "name_kana": "カブシキガイシャマルエツマゴメサワテン",
      "business_type": "⑪ 百貨店、総合スーパー",
      "address": "千葉県鎌ケ谷市東道野辺7丁目19番16号",
      "lat": 35.743459,
      "lng": 139.997355,
      "geocoding_level": null,
      "phone": "047-438-6472",
      "license_no": "",
      "license_date": null,
      "expire_date": null
    },
    {
      "name": "株式会社マルエツ　馬込沢店",
      "name_kana": "マルエツマゴメザワテン",
      "business_type": "① 飲食店営業",
      "address": "千葉県鎌ケ谷市東道野辺７－１９－１６",
      "lat": 35.743459,
      "lng": 139.997355,
      "geocoding_level": null,
      "phone": "047-438-6472",
      "license_no": "20230259",
      "license_date": "2023-09-19",
      "expire_date": "2030-09-30"
    },
    {
      "name": "株式会社マルエツ　馬込沢店",
      "name_kana": "カブシキガイシャマルエツマゴメザワテン",
      "business_type": "③ 食肉販売業",
      "address": "千葉県鎌ケ谷市東道野辺７－１９－１６",
      "lat": 35.743459,
      "lng": 139.997355,
      "geocoding_level": null,
      "phone": "0474386472",
      "license_no": "20240002",
      "license_date": "2024-06-28",
      "expire_date": "2030-07-31"
    },
    {
      "name": "株式会社マルエツ　馬込沢店",
      "name_kana": "カブシキガイシャマルエツマゴメザワテン",
      "business_type": "④ 魚介類販売業",
      "address": "千葉県鎌ケ谷市東道野辺７－１９－１６",
      "lat": 35.743459,
      "lng": 139.997355,
      "geocoding_level": null,
      "phone": "0474386472",
      "license_no": "20240001",
      "license_date": "2024-06-28",
      "expire_date": "2030-07-31"
    },
    {
      "name": "株式会社マルエツ　馬込沢店",
      "name_kana": "カブシキガイシャマルエツマゴメザワテン",
      "business_type": "⑪ 菓子製造業",
      "address": "千葉県鎌ケ谷市東道野辺７－１９－１６",
      "lat": 35.743459,
      "lng": 139.997355,
      "geocoding_level": null,
      "phone": "0474386472",
      "license_no": "20240010",
      "license_date": "2024-06-28",
      "expire_date": "2030-07-31"
    },
    {
      "name": "(株）ウエスト　鎌ヶ谷店",
      "name_kana": "カブ　ウエスト　カマガヤテン",
      "business_type": "① 飲食店営業",
      "address": "千葉県鎌ケ谷市道野辺本町１丁目2-16",
      "lat": 35.764626,
      "lng": 139.997905,
      "geocoding_level": null,
      "phone": "",
      "license_no": "20230064",
      "license_date": "2023-05-15",
      "expire_date": "2029-06-30"
    },
    {
      "name": "森永ミルクセンター船橋",
      "name_kana": "モリナガミルクセンターフナバシ",
      "business_type": "③ 乳類販売業",
      "address": "千葉県鎌ケ谷市南鎌ケ谷1-3-23",
      "lat": 35.749082,
      "lng": 140.005532,
      "geocoding_level": null,
      "phone": "",
      "license_no": "",
      "license_date": null,
      "expire_date": null
    },
    {
      "name": "スズキアリーナ新鎌ヶ谷店",
      "name_kana": "スズキアリーナシンカマガヤテン",
      "business_type": "⑤ コップ式自動販売機（自動洗浄・屋内設置）",
      "address": "千葉県鎌ケ谷市新鎌ケ谷３－２－１",
      "lat": 35.776509,
      "lng": 140.001868,
      "geocoding_level": null,
      "phone": "0474023553",
      "license_no": "",
      "license_date": null,
      "expire_date": null
    },
    {
      "name": "くすりの福太郎店新鎌ヶ谷駅前店",
      "name_kana": "クスリノフクタロウ",
      "business_type": "⑤ コップ式自動販売機（自動洗浄・屋内設置）",
      "address": "千葉県鎌ケ谷市新鎌ケ谷２丁目９−２",
      "lat": 35.779928,
      "lng": 139.99979,
      "geocoding_level": null,
      "phone": "047-441-7229",
      "license_no": "",
      "license_date": null,
      "expire_date": null
    },
    {
      "name": "あい・あい保育園　新鎌ケ谷園",
      "name_kana": "アイアイホイクエン　シンカマガヤエン",
      "business_type": "㉖ 集団給食施設",
      "address": "千葉県鎌ケ谷市新鎌ケ谷1-10-5",
      "lat": 35.777567,
      "lng": 139.998941,
      "geocoding_level": null,
      "phone": "0474022247",
      "license_no": "",
      "license_date": null,
      "expire_date": null
    },
    {
      "name": "まいばすけっと南初富5丁目店",
      "name_kana": "マイバスケットミナミハツトミゴチョウメテン",
      "business_type": "⑬ その他の食料・飲料販売業",
      "address": "千葉県鎌ケ谷市南初富5丁目8-47",
      "lat": 35.769069,
      "lng": 140.002536,
      "geocoding_level": null,
      "phone": "047-404-9416",
      "license_no": "",
      "license_date": null,
      "expire_date": null
    },
    {
      "name": "鎌ケ谷フラミンゴ",
      "name_kana": "カマガヤフラミンゴ",
      "business_type": "③ 乳類販売業",
      "address": "千葉県鎌ケ谷市東道野辺５丁目８番２７号",
      "lat": 35.752404,
      "lng": 140.002148,
      "geocoding_level": null,
      "phone": "",
      "license_no": "",
      "license_date": null,
      "expire_date": null
    },
    {
      "name": "食品館鎌ヶ谷店",
      "name_kana": "ショクヒンカンカマガヤテン",
      "business_type": "③ 乳類販売業",
      "address": "千葉県鎌ケ谷市富岡１１－３ ショッピングプラザ鎌ケ谷初富駅側屋外階段下",
      "lat": 35.768056,
      "lng": 139.998877,
      "geocoding_level": null,
      "phone": "0474411112",
      "license_no": "",
      "license_date": null,
      "expire_date": null
    },
    {
      "name": "日本ライズ お米のまつまる",
      "name_kana": "ニッポンライズ　オコメノマツマル",
      "business_type": "⑧ 米穀類販売業",
      "address": "千葉県鎌ケ谷市鎌ケ谷3-3-34",
      "lat": 35.757375,
      "lng": 140.012248,
      "geocoding_level": null,
      "phone": "0474435067",
      "license_no": "",
      "license_date": null,
      "expire_date": null
    },
    {
      "name": "大地フーズ販売㈱",
      "name_kana": "ダイチフーズハンバイカブシキガイシャ",
      "business_type": "⑬ その他の食料・飲料販売業",
      "address": "千葉県鎌ケ谷市新鎌ケ谷2-10-1 東武アーバンパークライン　新鎌ヶ谷駅　改札外",
      "lat": 35.78013,
      "lng": 139.999438,
      "geocoding_level": null,
      "phone": "03-6454-4916",
      "license_no": "",
      "license_date": null,
      "expire_date": null
    },
    {
      "name": "ジェーソン　東鎌ヶ谷店",
      "name_kana": "ジェーソン　ヒガシカマガヤテン",
      "business_type": "⑬ その他の食料・飲料販売業",
      "address": "千葉県鎌ケ谷市東鎌ケ谷2-3-13",
      "lat": 35.764493,
      "lng": 140.018184,
      "geocoding_level": null,
      "phone": "047-442-3780",
      "license_no": "",
      "license_date": null,
      "expire_date": null
    },
    {
      "name": "ジェーソン　鎌ケ谷店",
      "name_kana": "ジェーソン　カマガヤテン",
      "business_type": "⑬ その他の食料・飲料販売業",
      "address": "千葉県鎌ケ谷市鎌ケ谷2-12-24",
      "lat": 35.757391,
      "lng": 140.005579,
      "geocoding_level": null,
      "phone": "047-446-8370",
      "license_no": "",
      "license_date": null,
      "expire_date": null
    },
    {
      "name": "かさねや鎌ケ谷店",
      "name_kana": "カサネヤカマガヤテン",
      "business_type": "① 飲食店営業",
      "address": "千葉県鎌ケ谷市南初富５－１－５ 第２コーポ大伯１Ｆ１０２",
      "lat": 35.772008,
      "lng": 140.002265,
      "geocoding_level": null,
      "phone": "047-401-4210",
      "license_no": "20210075",
      "license_date": "2021-06-01",
      "expire_date": "2027-06-30"
    },
    {
      "name": "癒しのデイサービス鎌ケ谷",
      "name_kana": "イヤシノデイサービスカマガヤ",
      "business_type": "① 飲食店営業",
      "address": "千葉県鎌ケ谷市東中沢２－１－５８",
      "lat": 35.775867,
      "lng": 139.993477,
      "geocoding_level": null,
      "phone": "047-441-6514",
      "license_no": "20210265",
      "license_date": "2021-09-14",
      "expire_date": "2027-09-30"
    },
    {
      "name": "癒しのデイサービス鎌ケ谷",
      "name_kana": "イヤシノデイサービスカマガヤ",
      "business_type": "㉖ 集団給食施設",
      "address": "千葉県鎌ケ谷市東中沢2-1-58",
      "lat": 35.775867,
      "lng": 139.993477,
      "geocoding_level": null,
      "phone": "0474416514",
      "license_no": "",
      "license_date": null,
      "expire_date": null
    },
    {
      "name": "魚民",
      "name_kana": "ウオタミ",
      "business_type": "① 飲食店営業",
      "address": "千葉県鎌ケ谷市道野辺本町一丁目4番29号 サムズ鎌ケ谷ビル　2階",
      "lat": 35.763096,
      "lng": 139.998596,
      "geocoding_level": null,
      "phone": "047-445-9388",
      "license_no": "20230208",
      "license_date": "2023-08-16",
      "expire_date": "2029-09-30"
    },
    {
      "name": "デリス　郵便事業鎌ヶ谷支店",
      "name_kana": "デリス　ユウビンジギョウカマガヤシテン",
      "business_type": "⑫ 自動販売機による販売業（コップ式自動販売機（自動洗浄・屋内設置）及び営業許可の対象となる自動販売機を除く）",
      "address": "千葉県鎌ケ谷市右京塚13-26",
      "lat": 35.763501,
      "lng": 140.000744,
      "geocoding_level": null,
      "phone": "047-437-1511",
      "license_no": "",
      "license_date": null,
      "expire_date": null
    },
    {
      "name": "夢庵 鎌ヶ谷店",
      "name_kana": "ユメアンカマガヤテン",
      "business_type": "① 飲食店営業",
      "address": "千葉県鎌ケ谷市丸山１丁目１８－１",
      "lat": 35.762229,
      "lng": 140.010467,
      "geocoding_level": null,
      "phone": "047-442-5816",
      "license_no": "20220471",
      "license_date": "2023-01-26",
      "expire_date": "2029-02-28"
    },
    {
      "name": "夢庵 鎌ヶ谷店",
      "name_kana": "ユメアンカマガヤテン",
      "business_type": "⑬ その他の食料・飲料販売業",
      "address": "千葉県鎌ケ谷市丸山１丁目１８－１",
      "lat": 35.762229,
      "lng": 140.010467,
      "geocoding_level": null,
      "phone": "047-442-5816",
      "license_no": "",
      "license_date": null,
      "expire_date": null
    },
    {
      "name": "バーミヤン 鎌ヶ谷大仏駅前店",
      "name_kana": "バーミヤンカマガヤダイブツエキマエテン",
      "business_type": "① 飲食店営業",
      "address": "千葉県鎌ケ谷市鎌ケ谷４丁目１－３ 湯浅ビル１Ｆ",
      "lat": 35.757924,
      "lng": 140.012992,
      "geocoding_level": null,
      "phone": "047-498-7310",
      "license_no": "20260008",
      "license_date": "2026-04-13",
      "expire_date": "2032-05-31"
    },
    {
      "name": "バーミヤン 鎌ヶ谷大仏駅前店",
      "name_kana": "バーミヤンカマガヤダイブツエキマエテン",
      "business_type": "⑬ その他の食料・飲料販売業",
      "address": "千葉県鎌ケ谷市鎌ケ谷４丁目１－３ 湯浅ビル１Ｆ",
      "lat": 35.757924,
      "lng": 140.012992,
      "geocoding_level": null,
      "phone": "047-498-7310",
      "license_no": "",
      "license_date": null,
      "expire_date": null
    },
    {
      "name": "すし銚子丸　鎌ヶ谷店",
      "name_kana": "スシチョウシマル　カマガヤテン",
      "business_type": "① 飲食店営業",
      "address": "千葉県鎌ケ谷市右京塚2番地20",
      "lat": 35.765429,
      "lng": 140.006487,
      "geocoding_level": null,
      "phone": "047-441-9800",
      "license_no": "20210385",
      "license_date": "2021-11-18",
      "expire_date": "2027-11-30"
    },
    {
      "name": "すし銚子丸　鎌ヶ谷店",
      "name_kana": "スシチョウシマル　カマガヤテン",
      "business_type": "⑬ その他の食料・飲料販売業",
      "address": "千葉県鎌ケ谷市右京塚2番地20",
      "lat": 35.765429,
      "lng": 140.006487,
      "geocoding_level": null,
      "phone": "047-441-9800",
      "license_no": "",
      "license_date": null,
      "expire_date": null
    },
    {
      "name": "BLD株式会社",
      "name_kana": "ビルドカブシキガイシャ",
      "business_type": "⑥ 弁当販売業",
      "address": "千葉県鎌ケ谷市中央2丁目17-2 ヴィラージュ新鎌ヶ谷B棟201号室",
      "lat": 35.777494,
      "lng": 140.00568,
      "geocoding_level": null,
      "phone": "",
      "license_no": "",
      "license_date": null,
      "expire_date": null
    },
    {
      "name": "カフェひまわり",
      "name_kana": "ヒマワリ",
      "business_type": "① 飲食店営業",
      "address": "千葉県鎌ケ谷市くぬぎ山４－２－４０ ワコーレ鎌ケ谷一号館１０５",
      "lat": 35.781736,
      "lng": 139.974793,
      "geocoding_level": null,
      "phone": "",
      "license_no": "20210241",
      "license_date": "2021-08-27",
      "expire_date": "2027-08-31"
    },
    {
      "name": "ファミリー・ホスピス鎌ケ谷ハウス事業所",
      "name_kana": "ファミリー・ホスピスカマガヤハウスジギョウショ",
      "business_type": "① 飲食店営業",
      "address": "千葉県鎌ケ谷市北中沢１丁目２−８１",
      "lat": 35.775755,
      "lng": 139.990145,
      "geocoding_level": null,
      "phone": "080-5983-9933",
      "license_no": "20240409",
      "license_date": "2025-01-28",
      "expire_date": "2031-01-31"
    },
    {
      "name": "鎌ヶ谷翔裕園別館事業所",
      "name_kana": "カマガヤショウユウエンベッカンジギョウショ",
      "business_type": "① 飲食店営業",
      "address": "千葉県鎌ケ谷市初富８４８番地１０",
      "lat": 35.777989,
      "lng": 140.014594,
      "geocoding_level": null,
      "phone": "047-442-6625",
      "license_no": "20250409",
      "license_date": "2026-01-23",
      "expire_date": "2033-02-28"
    },
    {
      "name": "くすりの福太郎　鎌ヶ谷店",
      "name_kana": "クスリノフクタロウ　カマガヤテン",
      "business_type": "⑪ 百貨店、総合スーパー",
      "address": "千葉県鎌ケ谷市道野辺本町2丁目10-25",
      "lat": 35.762198,
      "lng": 140.00026,
      "geocoding_level": null,
      "phone": "047-441-7529",
      "license_no": "",
      "license_date": null,
      "expire_date": null
    },
    {
      "name": "くすりの福太郎　新鎌ヶ谷駅前店",
      "name_kana": "クスリノフクタロウ　シンカマガヤエキマエテン",
      "business_type": "⑪ 百貨店、総合スーパー",
      "address": "千葉県鎌ケ谷市新鎌ケ谷2丁目9-2",
      "lat": 35.779928,
      "lng": 139.99979,
      "geocoding_level": null,
      "phone": "047-441-7229",
      "license_no": "",
      "license_date": null,
      "expire_date": null
    },
    {
      "name": "くすりの福太郎　初富本町店",
      "name_kana": "クスリノフクタロウ　ハツトミホンチョウテン",
      "business_type": "⑪ 百貨店、総合スーパー",
      "address": "千葉県鎌ケ谷市初富本町1丁目1-24",
      "lat": 35.774297,
      "lng": 140.00037,
      "geocoding_level": null,
      "phone": "047-498-5229",
      "license_no": "",
      "license_date": null,
      "expire_date": null
    },
    {
      "name": "くすりの福太郎　東鎌ケ谷店",
      "name_kana": "クスリノフクタロウ　ヒガシマカガヤテン",
      "business_type": "⑪ 百貨店、総合スーパー",
      "address": "千葉県鎌ケ谷市東鎌ケ谷１－６",
      "lat": 35.758266,
      "lng": 140.014319,
      "geocoding_level": null,
      "phone": "047-442-5829",
      "license_no": "",
      "license_date": null,
      "expire_date": null
    },
    {
      "name": "くすりの福太郎　東道野辺店",
      "name_kana": "クスリノフクタロウ　ヒガシミチノベテン",
      "business_type": "⑪ 百貨店、総合スーパー",
      "address": "千葉県鎌ケ谷市東道野辺5丁目16-38",
      "lat": 35.748868,
      "lng": 139.999609,
      "geocoding_level": null,
      "phone": "047-446-3929",
      "license_no": "",
      "license_date": null,
      "expire_date": null
    },
    {
      "name": "特別養護老人ホーム　幸豊苑",
      "name_kana": "トクベツヨウゴロウジンホーム　コウホウエン",
      "business_type": "① 飲食店営業",
      "address": "千葉県鎌ケ谷市粟野225番地１",
      "lat": 35.7838,
      "lng": 139.997835,
      "geocoding_level": null,
      "phone": "047-441-2380",
      "license_no": "20220236",
      "license_date": "2022-08-31",
      "expire_date": "2029-09-30"
    },
    {
      "name": "鎌ケ谷ひかり幼稚園",
      "name_kana": "カマガヤヒカリヨウチエン",
      "business_type": "① 飲食店営業",
      "address": "千葉県鎌ケ谷市鎌ケ谷6-7-38",
      "lat": 35.750551,
      "lng": 140.01152,
      "geocoding_level": null,
      "phone": "047-446-3008",
      "license_no": "20240066",
      "license_date": "2024-05-29",
      "expire_date": "2030-06-30"
    },
    {
      "name": "あいらの杜　新鎌ヶ谷",
      "name_kana": "アイラノモリシンカマガヤ",
      "business_type": "① 飲食店営業",
      "address": "千葉県鎌ケ谷市初富２６－７",
      "lat": 35.783877,
      "lng": 139.982251,
      "geocoding_level": null,
      "phone": "047-498-7081",
      "license_no": "20210105",
      "license_date": "2021-06-11",
      "expire_date": "2028-06-11"
    },
    {
      "name": "ドラッグストアマツモトキヨシ鎌ヶ谷店",
      "name_kana": "ドラッグストアマツモトキヨシカマガヤテン",
      "business_type": "⑪ 百貨店、総合スーパー",
      "address": "千葉県鎌ケ谷市鎌ケ谷8-1-52",
      "lat": 35.753505,
      "lng": 140.00473,
      "geocoding_level": null,
      "phone": "047-442-1411",
      "license_no": "",
      "license_date": null,
      "expire_date": null
    },
    {
      "name": "ドラッグストアマツモトキヨシ鎌ヶ谷店",
      "name_kana": "ドラッグストアマツモトキヨシカマガヤテン",
      "business_type": "⑬ その他の食料・飲料販売業",
      "address": "千葉県鎌ケ谷市鎌ケ谷8-1-52",
      "lat": 35.753505,
      "lng": 140.00473,
      "geocoding_level": null,
      "phone": "047-442-1411",
      "license_no": "",
      "license_date": null,
      "expire_date": null
    },
    {
      "name": "イェッピースイーツ",
      "name_kana": "イェッピースイーツ",
      "business_type": "⑬ その他の食料・飲料販売業",
      "address": "千葉県鎌ケ谷市新鎌ケ谷２－１２－１ アクロスモール新鎌ヶ谷内　ソフトバンク",
      "lat": 35.780728,
      "lng": 140.001122,
      "geocoding_level": null,
      "phone": "09081661776",
      "license_no": "",
      "license_date": null,
      "expire_date": null
    },
    {
      "name": "社会福祉法人高嶺福祉会さつまの里",
      "name_kana": "サツマノサト",
      "business_type": "① 飲食店営業",
      "address": "千葉県鎌ケ谷市佐津間９８９－１",
      "lat": 35.802601,
      "lng": 140.005647,
      "geocoding_level": null,
      "phone": "047-441-3180",
      "license_no": "20210100",
      "license_date": "2021-06-01",
      "expire_date": "2027-06-30"
    },
    {
      "name": "生活協同組合コープみらい　コープ鎌ケ谷店",
      "name_kana": "コープミライコープカマガヤテン",
      "business_type": "⑪ 菓子製造業",
      "address": "千葉県鎌ケ谷市道野辺本町１－５－１",
      "lat": 35.763212,
      "lng": 140.00024,
      "geocoding_level": null,
      "phone": "",
      "license_no": "20210015",
      "license_date": "2021-06-01",
      "expire_date": "2028-06-30"
    },
    {
      "name": "生活協同組合コープみらい　コープ鎌ケ谷店",
      "name_kana": "コープミライコープカマガヤテン",
      "business_type": "① 飲食店営業",
      "address": "千葉県鎌ケ谷市道野辺本町１－５－１",
      "lat": 35.763212,
      "lng": 140.00024,
      "geocoding_level": null,
      "phone": "",
      "license_no": "20210096",
      "license_date": "2021-06-01",
      "expire_date": "2028-06-30"
    },
    {
      "name": "東京聖栄大学附属わたなべ幼稚園",
      "name_kana": "ワタナベヨウチエン",
      "business_type": "㉖ 集団給食施設",
      "address": "千葉県鎌ケ谷市東初富５－２５－１６",
      "lat": 35.764895,
      "lng": 140.012649,
      "geocoding_level": null,
      "phone": "047-444-0550",
      "license_no": "",
      "license_date": null,
      "expire_date": null
    },
    {
      "name": "ファミリーマート鎌ヶ谷東初富店",
      "name_kana": "ファミリーマートカマガヤヒガシハツトミテン",
      "business_type": "① 飲食店営業",
      "address": "千葉県鎌ケ谷市東初富１－３－６",
      "lat": 35.77412,
      "lng": 140.011959,
      "geocoding_level": null,
      "phone": "",
      "license_no": "20210186",
      "license_date": "2021-07-29",
      "expire_date": "2027-08-31"
    },
    {
      "name": "エクラシア南鎌ヶ谷",
      "name_kana": "エクラシアミナミカマガヤ",
      "business_type": "㉖ 集団給食施設",
      "address": "千葉県鎌ケ谷市東道野辺4-17-20",
      "lat": 35.756211,
      "lng": 140.003046,
      "geocoding_level": null,
      "phone": "050-6875-7951",
      "license_no": "",
      "license_date": null,
      "expire_date": null
    },
    {
      "name": "鎌ケ谷市立　道野辺保育園",
      "name_kana": "カマガヤシリツミチノベホイクエン",
      "business_type": "① 飲食店営業",
      "address": "千葉県鎌ケ谷市道野辺中央５－７－１０",
      "lat": 35.761096,
      "lng": 139.992523,
      "geocoding_level": null,
      "phone": "",
      "license_no": "20210126",
      "license_date": "2021-06-24",
      "expire_date": "2028-07-31"
    },
    {
      "name": "鎌ケ谷市立南初富保育園",
      "name_kana": "カマガヤシリツミナミハツトミホイクエン",
      "business_type": "① 飲食店営業",
      "address": "千葉県鎌ケ谷市東初富２－６－５０",
      "lat": 35.769887,
      "lng": 140.011286,
      "geocoding_level": null,
      "phone": "",
      "license_no": "20220553",
      "license_date": "2023-03-08",
      "expire_date": "2030-04-30"
    },
    {
      "name": "鎌ケ谷市立鎌ケ谷保育園",
      "name_kana": "カマガヤシリツカマガヤホイクエン",
      "business_type": "① 飲食店営業",
      "address": "千葉県鎌ケ谷市鎌ケ谷６－８－２６",
      "lat": 35.750245,
      "lng": 140.01099,
      "geocoding_level": null,
      "phone": "",
      "license_no": "20220554",
      "license_date": "2023-03-08",
      "expire_date": "2030-04-30"
    },
    {
      "name": "鎌ケ谷市立粟野保育園",
      "name_kana": "アワノホイクエン",
      "business_type": "① 飲食店営業",
      "address": "千葉県鎌ケ谷市粟野740-3",
      "lat": 35.788589,
      "lng": 140.005343,
      "geocoding_level": null,
      "phone": "",
      "license_no": "20230511",
      "license_date": "2024-03-08",
      "expire_date": "2031-04-30"
    },
    {
      "name": "デニーズ鎌ケ谷初富店",
      "name_kana": "デニーズカマガヤハツトミテン",
      "business_type": "① 飲食店営業",
      "address": "千葉県鎌ケ谷市右京塚2番地16号",
      "lat": 35.765694,
      "lng": 140.006218,
      "geocoding_level": null,
      "phone": "080-3458-6321",
      "license_no": "20250524",
      "license_date": "2026-03-23",
      "expire_date": "2033-04-30"
    },
    {
      "name": "デニーズ鎌ヶ谷初富店",
      "name_kana": "デニーズカマガヤハツトミテン",
      "business_type": "⑬ その他の食料・飲料販売業",
      "address": "千葉県鎌ケ谷市右京塚2番地16号",
      "lat": 35.765694,
      "lng": 140.006218,
      "geocoding_level": null,
      "phone": "080-3458-6321",
      "license_no": "",
      "license_date": null,
      "expire_date": null
    },
    {
      "name": "丸源ラーメン 新鎌ヶ谷店",
      "name_kana": "マルゲンラーメンシンカマガヤテン",
      "business_type": "⑬ その他の食料・飲料販売業",
      "address": "千葉県鎌ケ谷市中央1-8-27",
      "lat": 35.773212,
      "lng": 140.000048,
      "geocoding_level": null,
      "phone": "",
      "license_no": "",
      "license_date": null,
      "expire_date": null
    },
    {
      "name": "焼肉きんぐ新鎌ケ谷店",
      "name_kana": "ヤキニクキングシンカマガヤテン",
      "business_type": "① 飲食店営業",
      "address": "千葉県鎌ケ谷市中央１－８－２８",
      "lat": 35.77319,
      "lng": 140.00009,
      "geocoding_level": null,
      "phone": "047-404-7258",
      "license_no": "20230267",
      "license_date": "2023-09-22",
      "expire_date": "2029-10-31"
    },
    {
      "name": "イオン鎌ヶ谷店",
      "name_kana": "イオンカマガヤテン",
      "business_type": "⑪ 百貨店、総合スーパー",
      "address": "千葉県鎌ケ谷市新鎌ケ谷2-7-1",
      "lat": 35.77843,
      "lng": 140.001122,
      "geocoding_level": null,
      "phone": "047-441-7711",
      "license_no": "",
      "license_date": null,
      "expire_date": null
    },
    {
      "name": "Masora rose",
      "name_kana": "マソラローズ",
      "business_type": "㉑ 製茶業",
      "address": "千葉県鎌ケ谷市道野辺中央2-9-21 モンクール　B号室",
      "lat": 35.763294,
      "lng": 139.995978,
      "geocoding_level": null,
      "phone": "",
      "license_no": "",
      "license_date": null,
      "expire_date": null
    },
    {
      "name": "居酒屋　若葉",
      "name_kana": "ワカバ",
      "business_type": "① 飲食店営業",
      "address": "千葉県鎌ケ谷市東初富４－１５－１５",
      "lat": 35.764648,
      "lng": 140.007958,
      "geocoding_level": null,
      "phone": "047-445-4505",
      "license_no": "20210132",
      "license_date": "2021-06-24",
      "expire_date": "2027-07-31"
    },
    {
      "name": "櫻井豆腐店",
      "name_kana": "サクライトウフテン",
      "business_type": "㉒ 豆腐製造業",
      "address": "千葉県鎌ケ谷市中沢１３３７－１",
      "lat": 35.768357,
      "lng": 139.985178,
      "geocoding_level": null,
      "phone": "",
      "license_no": "20210001",
      "license_date": "2021-06-24",
      "expire_date": "2027-07-31"
    },
    {
      "name": "鎌ケ谷市立第二中学校",
      "name_kana": "カマガヤシリツダイニチュウガッコウ",
      "business_type": "⑪ 菓子製造業",
      "address": "千葉県鎌ケ谷市東道野辺４－１９－２６ コミュニティセンター１階",
      "lat": 35.757358,
      "lng": 140.004104,
      "geocoding_level": null,
      "phone": "047-444-6751",
      "license_no": "20210019",
      "license_date": "2021-06-24",
      "expire_date": "2027-07-31"
    },
    {
      "name": "株式会社サンデリカ千葉事業所",
      "name_kana": "カブシキカイシャサンデリカチバジギョウショ",
      "business_type": "㉖ 複合型そうざい製造業",
      "address": "千葉県鎌ケ谷市くぬぎ山3丁目12番24号",
      "lat": 35.778434,
      "lng": 139.968896,
      "geocoding_level": null,
      "phone": "047-384-2211",
      "license_no": "20230002",
      "license_date": "2023-10-06",
      "expire_date": "2029-10-31"
    },
    {
      "name": "株式会社サンデリカ千葉事業所",
      "name_kana": "カブシキカイシャサンデリカチバジギョウショ",
      "business_type": "㉖ 集団給食施設",
      "address": "千葉県鎌ケ谷市くぬぎ山3-12-24",
      "lat": 35.778434,
      "lng": 139.968896,
      "geocoding_level": null,
      "phone": "047-384-2211",
      "license_no": "",
      "license_date": null,
      "expire_date": null
    },
    {
      "name": "鎌ケ谷　房の駅",
      "name_kana": "カマガヤフサノエキ",
      "business_type": "① 飲食店営業",
      "address": "千葉県鎌ケ谷市東道野辺５－４－４８",
      "lat": 35.753418,
      "lng": 139.99923,
      "geocoding_level": null,
      "phone": "047-498-6023",
      "license_no": "20220172",
      "license_date": "2022-07-20",
      "expire_date": "2027-08-31"
    },
    {
      "name": "鎌ヶ谷房の駅",
      "name_kana": "カマガヤフサノエキ",
      "business_type": "② 食肉販売業（包装済みの食肉のみの販売）",
      "address": "千葉県鎌ケ谷市東道野辺5-4-48",
      "lat": 35.753438,
      "lng": 139.999202,
      "geocoding_level": null,
      "phone": "047-498-6023",
      "license_no": "",
      "license_date": null,
      "expire_date": null
    },
    {
      "name": "鎌ヶ谷房の駅",
      "name_kana": "カマガヤフサノエキ",
      "business_type": "③ 乳類販売業",
      "address": "千葉県鎌ケ谷市東道野辺5-4-48",
      "lat": 35.753438,
      "lng": 139.999202,
      "geocoding_level": null,
      "phone": "047-498-6023",
      "license_no": "",
      "license_date": null,
      "expire_date": null
    },
    {
      "name": "鎌ヶ谷房の駅",
      "name_kana": "カマガヤフサノエキ",
      "business_type": "⑥ 弁当販売業",
      "address": "千葉県鎌ケ谷市東道野辺5-4-48",
      "lat": 35.753438,
      "lng": 139.999202,
      "geocoding_level": null,
      "phone": "047-498-6023",
      "license_no": "",
      "license_date": null,
      "expire_date": null
    },
    {
      "name": "鎌ヶ谷房の駅",
      "name_kana": "カマガヤフサノエキ",
      "business_type": "⑦ 野菜果物販売業",
      "address": "千葉県鎌ケ谷市東道野辺5-4-48",
      "lat": 35.753438,
      "lng": 139.999202,
      "geocoding_level": null,
      "phone": "047-498-6023",
      "license_no": "",
      "license_date": null,
      "expire_date": null
    },
    {
      "name": "鎌ヶ谷房の駅",
      "name_kana": "カマガヤフサノエキ",
      "business_type": "⑧ 米穀類販売業",
      "address": "千葉県鎌ケ谷市東道野辺5-4-48",
      "lat": 35.753438,
      "lng": 139.999202,
      "geocoding_level": null,
      "phone": "047-498-6023",
      "license_no": "",
      "license_date": null,
      "expire_date": null
    },
    {
      "name": "鎌ヶ谷房の駅",
      "name_kana": "カマガヤフサノエキ",
      "business_type": "⑬ その他の食料・飲料販売業",
      "address": "千葉県鎌ケ谷市東道野辺5-4-48",
      "lat": 35.753438,
      "lng": 139.999202,
      "geocoding_level": null,
      "phone": "047-498-6023",
      "license_no": "",
      "license_date": null,
      "expire_date": null
    },
    {
      "name": "鎌ヶ谷房の駅",
      "name_kana": "カマガヤフサノエキ",
      "business_type": "⑳ 精穀・製粉業",
      "address": "千葉県鎌ケ谷市東道野辺5-4-48",
      "lat": 35.753438,
      "lng": 139.999202,
      "geocoding_level": null,
      "phone": "047-498-6023",
      "license_no": "",
      "license_date": null,
      "expire_date": null
    },
    {
      "name": "トフコ株式会社",
      "name_kana": "トフコ",
      "business_type": "⑬ 乳製品製造業",
      "address": "千葉県鎌ケ谷市軽井沢１９９５－１",
      "lat": 35.787832,
      "lng": 140.016655,
      "geocoding_level": null,
      "phone": "",
      "license_no": "20210001",
      "license_date": "2021-06-30",
      "expire_date": "2027-07-31"
    },
    {
      "name": "トフコ株式会社",
      "name_kana": "トフコ",
      "business_type": "㉜ 添加物製造業",
      "address": "千葉県鎌ケ谷市軽井沢１９９５－１",
      "lat": 35.787832,
      "lng": 140.016655,
      "geocoding_level": null,
      "phone": "047-444-3198",
      "license_no": "20230002",
      "license_date": "2023-12-28",
      "expire_date": "2029-01-31"
    },
    {
      "name": "トフコ株式会社",
      "name_kana": "トフコ",
      "business_type": "㉛ 食品の小分け業",
      "address": "千葉県鎌ケ谷市軽井沢１９９５－１",
      "lat": 35.787832,
      "lng": 140.016655,
      "geocoding_level": null,
      "phone": "047-444-3198",
      "license_no": "20230002",
      "license_date": "2024-01-26",
      "expire_date": "2029-01-31"
    },
    {
      "name": "株式会社シャン・ロン",
      "name_kana": "シャンロン",
      "business_type": "⑬ 乳製品製造業",
      "address": "千葉県鎌ケ谷市軽井沢１９９５－１",
      "lat": 35.787832,
      "lng": 140.016655,
      "geocoding_level": null,
      "phone": "",
      "license_no": "20210002",
      "license_date": "2021-06-30",
      "expire_date": "2027-07-31"
    },
    {
      "name": "サンドラッグ初富本町店",
      "name_kana": "サンドラッグハツトミホンチョウテン",
      "business_type": "⑪ 百貨店、総合スーパー",
      "address": "千葉県鎌ケ谷市初富本町2-19-5",
      "lat": 35.77471,
      "lng": 139.994852,
      "geocoding_level": null,
      "phone": "047-441-3580",
      "license_no": "",
      "license_date": null,
      "expire_date": null
    },
    {
      "name": "社会福祉法人創誠会　特別養護老人ホームあかり",
      "name_kana": "シャカイフクシホウジンソウセイカイ　トクベツヨウゴロウジンホームアカリ",
      "business_type": "③ 乳類販売業",
      "address": "千葉県鎌ケ谷市鎌ケ谷７－１３－３３",
      "lat": 35.749117,
      "lng": 140.009334,
      "geocoding_level": null,
      "phone": "047-441-6610",
      "license_no": "",
      "license_date": null,
      "expire_date": null
    },
    {
      "name": "新京成鎌ヶ谷大仏駅　ホーム",
      "name_kana": "シンケイセイカマガヤダイブツエキ　ホーム",
      "business_type": "③ 乳類販売業",
      "address": "千葉県鎌ケ谷市鎌ケ谷１－８－２",
      "lat": 35.758274,
      "lng": 140.013911,
      "geocoding_level": null,
      "phone": "047-343-8267",
      "license_no": "",
      "license_date": null,
      "expire_date": null
    },
    {
      "name": "新京成鎌ヶ谷大仏駅　改札",
      "name_kana": "シンケイセイカマガヤダイブツエキ　カイサツ",
      "business_type": "③ 乳類販売業",
      "address": "千葉県鎌ケ谷市鎌ケ谷１－８－２",
      "lat": 35.758274,
      "lng": 140.013911,
      "geocoding_level": null,
      "phone": "047-443-8267",
      "license_no": "",
      "license_date": null,
      "expire_date": null
    },
    {
      "name": "北総鉄道新鎌ケ谷駅１－２番ホーム",
      "name_kana": "ホクソウテツドウシンカマガヤエキイチニバンホーム",
      "business_type": "③ 乳類販売業",
      "address": "千葉県鎌ケ谷市新鎌ケ谷１－１３－１",
      "lat": 35.779459,
      "lng": 139.998476,
      "geocoding_level": null,
      "phone": "047-442-2664",
      "license_no": "",
      "license_date": null,
      "expire_date": null
    },
    {
      "name": "北総鉄道新鎌ケ谷駅３－４番ホーム",
      "name_kana": "ホクソウテツドウシンカマガヤエキサンヨンバンホーム",
      "business_type": "③ 乳類販売業",
      "address": "千葉県鎌ケ谷市新鎌ケ谷１－１３－１",
      "lat": 35.779459,
      "lng": 139.998476,
      "geocoding_level": null,
      "phone": "047-442-2664",
      "license_no": "",
      "license_date": null,
      "expire_date": null
    },
    {
      "name": "新京成新鎌ケ谷駅　改札外",
      "name_kana": "シンケイセイシンカマガヤエキ　カイサツガイ",
      "business_type": "③ 乳類販売業",
      "address": "千葉県鎌ケ谷市新鎌ケ谷１－１３－１",
      "lat": 35.779459,
      "lng": 139.998476,
      "geocoding_level": null,
      "phone": "047-446-5311",
      "license_no": "",
      "license_date": null,
      "expire_date": null
    },
    {
      "name": "新京成初富駅　コンコース",
      "name_kana": "シンケイセイハツトミエキ　コンコース",
      "business_type": "③ 乳類販売業",
      "address": "千葉県鎌ケ谷市中央１－１",
      "lat": 35.771338,
      "lng": 139.999859,
      "geocoding_level": null,
      "phone": "047-443-8269",
      "license_no": "",
      "license_date": null,
      "expire_date": null
    },
    {
      "name": "新京成初富駅　下り",
      "name_kana": "シンケイセイハツトミエキ　クダリ",
      "business_type": "③ 乳類販売業",
      "address": "千葉県鎌ケ谷市中央１－１",
      "lat": 35.771338,
      "lng": 139.999859,
      "geocoding_level": null,
      "phone": "047-443-8269",
      "license_no": "",
      "license_date": null,
      "expire_date": null
    },
    {
      "name": "新京成くぬぎ山駅　ホーム",
      "name_kana": "シンケイセイクヌギヤマエキ　ホーム",
      "business_type": "③ 乳類販売業",
      "address": "千葉県鎌ケ谷市くぬぎ山５－３",
      "lat": 35.784013,
      "lng": 139.978354,
      "geocoding_level": null,
      "phone": "047-443-8268",
      "license_no": "",
      "license_date": null,
      "expire_date": null
    },
    {
      "name": "新京成くぬぎ山駅　改札",
      "name_kana": "シンケイセイクヌギヤマエキ　カイサツ",
      "business_type": "③ 乳類販売業",
      "address": "千葉県鎌ケ谷市くぬぎ山５－３",
      "lat": 35.784013,
      "lng": 139.978354,
      "geocoding_level": null,
      "phone": "047-443-8268",
      "license_no": "",
      "license_date": null,
      "expire_date": null
    },
    {
      "name": "東武新鎌ケ谷駅　上りホーム",
      "name_kana": "トウブシンカマガヤエキ　ノボリホーム",
      "business_type": "③ 乳類販売業",
      "address": "千葉県鎌ケ谷市新鎌ケ谷１－１３－１",
      "lat": 35.779459,
      "lng": 139.998476,
      "geocoding_level": null,
      "phone": "047-441-1511",
      "license_no": "",
      "license_date": null,
      "expire_date": null
    },
    {
      "name": "新京成新鎌ケ谷駅　ホーム",
      "name_kana": "シンケイセイシンカマガヤエキ　ホーム",
      "business_type": "③ 乳類販売業",
      "address": "千葉県鎌ケ谷市新鎌ケ谷１－１３－１",
      "lat": 35.779459,
      "lng": 139.998476,
      "geocoding_level": null,
      "phone": "047-442-2664",
      "license_no": "",
      "license_date": null,
      "expire_date": null
    },
    {
      "name": "東武鎌ケ谷駅　下りホーム",
      "name_kana": "トウブカマガヤエキ　クダリホーム",
      "business_type": "③ 乳類販売業",
      "address": "千葉県鎌ケ谷市道野辺中央２－１－１０",
      "lat": 35.764036,
      "lng": 139.997271,
      "geocoding_level": null,
      "phone": "047-443-8631",
      "license_no": "",
      "license_date": null,
      "expire_date": null
    },
    {
      "name": "ヤクルト鎌ケ谷中央センター",
      "name_kana": "ヤクルトカマガヤチュウオウセンター",
      "business_type": "③ 乳類販売業",
      "address": "千葉県鎌ケ谷市中央１",
      "lat": 35.775334,
      "lng": 140.002726,
      "geocoding_level": null,
      "phone": "",
      "license_no": "",
      "license_date": null,
      "expire_date": null
    },
    {
      "name": "ヤクルト馬込沢センター",
      "name_kana": "ヤクルトマゴメザワセンター",
      "business_type": "③ 乳類販売業",
      "address": "千葉県鎌ケ谷市東道野辺５－１１－１５",
      "lat": 35.750734,
      "lng": 140.001784,
      "geocoding_level": null,
      "phone": "",
      "license_no": "",
      "license_date": null,
      "expire_date": null
    },
    {
      "name": "新京成新鎌ヶ谷駅（改札外）",
      "name_kana": "シンケイセイシンカマガヤエキカイサツガイ",
      "business_type": "③ 乳類販売業",
      "address": "千葉県鎌ケ谷市新鎌ケ谷1丁目13番1号",
      "lat": 35.779459,
      "lng": 139.998476,
      "geocoding_level": null,
      "phone": "047-446-5311",
      "license_no": "",
      "license_date": null,
      "expire_date": null
    },
    {
      "name": "ｲｵﾝﾃﾞｨﾗｲﾄ㈱ ｲｵﾝ鎌ケ谷店 1Ｆレストラン前",
      "name_kana": "イオンディライトカブシキガイシャイオンカマガヤテンイッカイレストランマエ",
      "business_type": "③ 乳類販売業",
      "address": "千葉県鎌ケ谷市新鎌ケ谷2-7-1",
      "lat": 35.77843,
      "lng": 140.001122,
      "geocoding_level": null,
      "phone": "047-441-7711",
      "license_no": "",
      "license_date": null,
      "expire_date": null
    },
    {
      "name": "ローソン鎌ケ谷初富店",
      "name_kana": "ローソンカマガヤハツトミテン",
      "business_type": "① 飲食店営業",
      "address": "千葉県鎌ケ谷市初富８５５－５",
      "lat": 35.780503,
      "lng": 140.027188,
      "geocoding_level": null,
      "phone": "047-446-8160",
      "license_no": "20250419",
      "license_date": "2026-02-12",
      "expire_date": "2032-02-29"
    },
    {
      "name": "ローソン鎌ケ谷初富店",
      "name_kana": "ローソンカマガヤハツトミテン",
      "business_type": "⑩ コンビニエンスストア",
      "address": "千葉県鎌ケ谷市初富８５５－５",
      "lat": 35.780503,
      "lng": 140.027188,
      "geocoding_level": null,
      "phone": "047-446-8160",
      "license_no": "",
      "license_date": null,
      "expire_date": null
    },
    {
      "name": "ローソン鎌ケ谷道野辺本町一丁目店",
      "name_kana": "ローソンカマガヤミチノベホンチョウイッチョユメテン",
      "business_type": "① 飲食店営業",
      "address": "千葉県鎌ケ谷市道野辺本町1丁目14番15号",
      "lat": 35.763763,
      "lng": 139.998449,
      "geocoding_level": null,
      "phone": "047-441-6320",
      "license_no": "2026-54",
      "license_date": "2026-05-14",
      "expire_date": "2032-05-31"
    },
    {
      "name": "ローソン鎌ケ谷道野辺本町一丁目店",
      "name_kana": "ローソンカマガヤミチノベホンチョウイッチョユメテン",
      "business_type": "⑩ コンビニエンスストア",
      "address": "千葉県鎌ケ谷市道野辺本町1丁目14番15号",
      "lat": 35.763763,
      "lng": 139.998449,
      "geocoding_level": null,
      "phone": "047-441-6320",
      "license_no": "",
      "license_date": null,
      "expire_date": null
    },
    {
      "name": "餃子の王将 イオン鎌ヶ谷店",
      "name_kana": "ギョウザノオウショウ　イオンカマガヤテン",
      "business_type": "⑬ その他の食料・飲料販売業",
      "address": "千葉県鎌ケ谷市新鎌ケ谷2丁目7-1 イオン鎌ヶ谷1階",
      "lat": 35.778497,
      "lng": 140.00108,
      "geocoding_level": null,
      "phone": "047-441-0404",
      "license_no": "",
      "license_date": null,
      "expire_date": null
    },
    {
      "name": "餃子の王将　イオン鎌ケ谷店",
      "name_kana": "ギョウザノオウショウイオンカマガヤテン",
      "business_type": "① 飲食店営業",
      "address": "千葉県鎌ケ谷市新鎌ケ谷２－７－１ イオン鎌ケ谷１階",
      "lat": 35.778497,
      "lng": 140.00108,
      "geocoding_level": null,
      "phone": "047-441-0404",
      "license_no": "20230299",
      "license_date": "2023-10-19",
      "expire_date": "2029-11-30"
    },
    {
      "name": "K's　garden鎌ケ谷保育園",
      "name_kana": "ケイズガーデンカマガヤホイクエン",
      "business_type": "㉖ 集団給食施設",
      "address": "千葉県鎌ケ谷市東道野辺2-1-1　NTT鎌ケ谷ビル1F",
      "lat": 35.759664,
      "lng": 139.998276,
      "geocoding_level": null,
      "phone": "0474049166",
      "license_no": "",
      "license_date": null,
      "expire_date": null
    },
    {
      "name": "かつ波奈イオン鎌ヶ谷店",
      "name_kana": "カツハナイオンカマガヤテン",
      "business_type": "① 飲食店営業",
      "address": "千葉県鎌ケ谷市新鎌ケ谷２－７－１イオン鎌ヶ谷店１階",
      "lat": 35.77843,
      "lng": 140.001122,
      "geocoding_level": null,
      "phone": "047-401-7876",
      "license_no": "20220541",
      "license_date": "2023-03-14",
      "expire_date": "2029-03-31"
    },
    {
      "name": "ヴィラデマリアージュ",
      "name_kana": "ヴィラデマリアージュ",
      "business_type": "① 飲食店営業",
      "address": "千葉県鎌ケ谷市東道野辺６－２－９１",
      "lat": 35.751167,
      "lng": 140.002552,
      "geocoding_level": null,
      "phone": "047-401-6091",
      "license_no": "20210154",
      "license_date": "2021-07-20",
      "expire_date": "2027-07-31"
    },
    {
      "name": "ラーメン山岡家千葉鎌ケ谷店",
      "name_kana": "ラーメンヤマオカヤチバカマガヤテン",
      "business_type": "⑬ その他の食料・飲料販売業",
      "address": "千葉県鎌ケ谷市新鎌ヶ谷3丁目3-6",
      "lat": 35.778176,
      "lng": 140.002124,
      "geocoding_level": null,
      "phone": "047-407-2532",
      "license_no": "",
      "license_date": null,
      "expire_date": null
    },
    {
      "name": "ラーメン山岡家　千葉鎌ヶ谷店",
      "name_kana": "ラーメンヤマオカヤ　チバカマガヤテン",
      "business_type": "① 飲食店営業",
      "address": "千葉県鎌ケ谷市新鎌ケ谷３丁目３－６",
      "lat": 35.778177,
      "lng": 140.002132,
      "geocoding_level": null,
      "phone": "047-407-2532",
      "license_no": "20220297",
      "license_date": "2022-10-12",
      "expire_date": "2028-11-30"
    },
    {
      "name": "有限会社ジェットストローク",
      "name_kana": "ユウゲンガイシャジェットストローク",
      "business_type": "③ 乳類販売業",
      "address": "千葉県鎌ケ谷市初富178番2",
      "lat": 35.785986,
      "lng": 139.987468,
      "geocoding_level": null,
      "phone": "",
      "license_no": "",
      "license_date": null,
      "expire_date": null
    },
    {
      "name": "スクルドエンジェル保育園新鎌ケ谷園",
      "name_kana": "スクルドエンジェルホイクエンシンカマガヤエン",
      "business_type": "㉖ 集団給食施設",
      "address": "千葉県鎌ケ谷市新鎌ケ谷一丁目16番10号 新鎌ケ谷駅前ビル2階",
      "lat": 35.780092,
      "lng": 139.998602,
      "geocoding_level": null,
      "phone": "0474688282",
      "license_no": "",
      "license_date": null,
      "expire_date": null
    },
    {
      "name": "スクルドエンジェル保育園鎌ケ谷大仏園",
      "name_kana": "スクルドエンジェルホイクエンカマガヤダイブツエン",
      "business_type": "㉖ 集団給食施設",
      "address": "千葉県鎌ケ谷市鎌ケ谷一丁目5番25号 ABILEK鎌ケ谷3F",
      "lat": 35.759858,
      "lng": 140.012619,
      "geocoding_level": null,
      "phone": "0474368620",
      "license_no": "",
      "license_date": null,
      "expire_date": null
    },
    {
      "name": "インドレストラン　スーリヤ　チャンドラ",
      "name_kana": "スーリヤチャンドラ",
      "business_type": "① 飲食店営業",
      "address": "千葉県鎌ケ谷市東道野辺２－７－３５－１Ｆ",
      "lat": 35.757288,
      "lng": 139.998937,
      "geocoding_level": null,
      "phone": "047-445-0550",
      "license_no": "20210179",
      "license_date": "2021-08-03",
      "expire_date": "2027-08-31"
    },
    {
      "name": "スナック団",
      "name_kana": "スナックダン",
      "business_type": "① 飲食店営業",
      "address": "千葉県鎌ケ谷市富岡２－５－３",
      "lat": 35.767419,
      "lng": 140.00225,
      "geocoding_level": null,
      "phone": "",
      "license_no": "20210157",
      "license_date": "2021-07-14",
      "expire_date": "2027-08-31"
    },
    {
      "name": "麦のアトリエ　ａｉ　ベーカリー",
      "name_kana": "ムギノアトリエアイベーカリー",
      "business_type": "① 飲食店営業",
      "address": "千葉県鎌ケ谷市東道野辺４－１２－１６",
      "lat": 35.754758,
      "lng": 140.005071,
      "geocoding_level": null,
      "phone": "047-767-5028",
      "license_no": "20210161",
      "license_date": "2021-07-14",
      "expire_date": "2027-08-31"
    },
    {
      "name": "麦のアトリエ　ａｉ　ベーカリー",
      "name_kana": "ムギノアトリエアイベーカリー",
      "business_type": "⑪ 菓子製造業",
      "address": "千葉県鎌ケ谷市東道野辺４－１２－１６",
      "lat": 35.754758,
      "lng": 140.005071,
      "geocoding_level": null,
      "phone": "047-767-5028",
      "license_no": "20210025",
      "license_date": "2021-07-14",
      "expire_date": "2027-08-31"
    },
    {
      "name": "セブンイレブン鎌ケ谷道野辺中央４丁目店",
      "name_kana": "セブンイレブンカマガヤミチノベチュウオウヨンチョウメテン",
      "business_type": "① 飲食店営業",
      "address": "千葉県鎌ケ谷市道野辺中央４－６－３",
      "lat": 35.762111,
      "lng": 139.995622,
      "geocoding_level": null,
      "phone": "047-446-2707",
      "license_no": "20210528",
      "license_date": "2022-03-04",
      "expire_date": "2028-03-31"
    },
    {
      "name": "セブンイレブン鎌ケ谷道野辺中央４丁目店",
      "name_kana": "セブンイレブンカマガヤミチノベチュウオウヨンチョウメテン",
      "business_type": "⑩ コンビニエンスストア",
      "address": "千葉県鎌ケ谷市道野辺中央４－６－３",
      "lat": 35.762111,
      "lng": 139.995622,
      "geocoding_level": null,
      "phone": "",
      "license_no": "",
      "license_date": null,
      "expire_date": null
    },
    {
      "name": "ローソン鎌ケ谷二丁目店",
      "name_kana": "ローソンカマガヤニチョウメテン",
      "business_type": "① 飲食店営業",
      "address": "千葉県鎌ケ谷市鎌ケ谷２－１９－３５",
      "lat": 35.756931,
      "lng": 140.005713,
      "geocoding_level": null,
      "phone": "047-443-8891",
      "license_no": "20210169",
      "license_date": "2021-07-14",
      "expire_date": "2027-08-31"
    },
    {
      "name": "ローソン　東道野辺三丁目店",
      "name_kana": "ローソンヒガシミチノベサンチョウメテン",
      "business_type": "⑩ コンビニエンスストア",
      "address": "千葉県鎌ケ谷市東道野辺３－１－２８",
      "lat": 35.756897,
      "lng": 139.998134,
      "geocoding_level": null,
      "phone": "047-443-1951",
      "license_no": "",
      "license_date": null,
      "expire_date": null
    },
    {
      "name": "ローソン　鎌ケ谷二丁目店",
      "name_kana": "ローソンカマガヤニチョウメテン",
      "business_type": "⑩ コンビニエンスストア",
      "address": "千葉県鎌ケ谷市鎌ケ谷２－１９－３５",
      "lat": 35.756931,
      "lng": 140.005713,
      "geocoding_level": null,
      "phone": "047-443-8891",
      "license_no": "",
      "license_date": null,
      "expire_date": null
    },
    {
      "name": "ローソン　鎌ケ谷北中沢店",
      "name_kana": "ローソンカマガヤキタナカザワテン",
      "business_type": "⑩ コンビニエンスストア",
      "address": "千葉県鎌ケ谷市北中沢１－５－３",
      "lat": 35.774464,
      "lng": 139.989812,
      "geocoding_level": null,
      "phone": "047-446-3308",
      "license_no": "",
      "license_date": null,
      "expire_date": null
    },
    {
      "name": "鎌ケ谷リゾート",
      "name_kana": "カマガヤリゾート",
      "business_type": "① 飲食店営業",
      "address": "千葉県鎌ケ谷市中沢１０２１－１",
      "lat": 35.760078,
      "lng": 139.980278,
      "geocoding_level": null,
      "phone": "047-401-9244",
      "license_no": "20210171",
      "license_date": "2021-07-14",
      "expire_date": "2027-08-31"
    },
    {
      "name": "麺や若葉",
      "name_kana": "ワカバ",
      "business_type": "① 飲食店営業",
      "address": "千葉県鎌ケ谷市新鎌ケ谷２－７－１ イオン鎌ケ谷店　２Ｆ　フードコート",
      "lat": 35.778497,
      "lng": 140.00108,
      "geocoding_level": null,
      "phone": "047-779-3339",
      "license_no": "20210192",
      "license_date": "2021-08-03",
      "expire_date": "2027-08-31"
    },
    {
      "name": "ファミリーマート新鎌ヶ谷駅店",
      "name_kana": "ファミリーマートシンカマガヤエキテン",
      "business_type": "⑩ コンビニエンスストア",
      "address": "千葉県鎌ケ谷市新鎌ケ谷一丁目１３番２号",
      "lat": 35.779776,
      "lng": 139.999112,
      "geocoding_level": null,
      "phone": "0474416006",
      "license_no": "",
      "license_date": null,
      "expire_date": null
    },
    {
      "name": "ファミリーマート道野辺中央店",
      "name_kana": "ファミリーマートミチノベチュウオウテン",
      "business_type": "⑩ コンビニエンスストア",
      "address": "千葉県鎌ケ谷市道野辺中央一丁目６番２３号",
      "lat": 35.766095,
      "lng": 139.995938,
      "geocoding_level": null,
      "phone": "0474986522",
      "license_no": "",
      "license_date": null,
      "expire_date": null
    },
    {
      "name": "ファミリーマート新鎌ヶ谷駅構内店",
      "name_kana": "ファミリーマートシンカマガヤエキコウナイテン",
      "business_type": "⑩ コンビニエンスストア",
      "address": "千葉県鎌ケ谷市新鎌ケ谷一丁目１３番１号",
      "lat": 35.779459,
      "lng": 139.998476,
      "geocoding_level": null,
      "phone": "",
      "license_no": "",
      "license_date": null,
      "expire_date": null
    },
    {
      "name": "ファミリーマート新鎌ヶ谷駅店",
      "name_kana": "ファミリーマートシンカマガヤエキテン",
      "business_type": "① 飲食店営業",
      "address": "千葉県鎌ケ谷市新鎌ケ谷１丁目１３番２号",
      "lat": 35.779776,
      "lng": 139.999112,
      "geocoding_level": null,
      "phone": "047-441-6006",
      "license_no": "20230528",
      "license_date": "2024-03-25",
      "expire_date": "2030-04-30"
    },
    {
      "name": "ファミリーマート道野辺中央店",
      "name_kana": "ファミリーマートミチノベチュウオウテン",
      "business_type": "① 飲食店営業",
      "address": "千葉県鎌ケ谷市道野辺中央一丁目6番23号",
      "lat": 35.766095,
      "lng": 139.995938,
      "geocoding_level": null,
      "phone": "047-498-6522",
      "license_no": "20250343",
      "license_date": "2025-11-28",
      "expire_date": "2031-12-31"
    },
    {
      "name": "株式会社清田",
      "name_kana": "カブシキガイシャキヨタ",
      "business_type": "⑧ 米穀類販売業",
      "address": "千葉県鎌ケ谷市東初富6-9-32",
      "lat": 35.759977,
      "lng": 140.013732,
      "geocoding_level": null,
      "phone": "047-443-2477",
      "license_no": "",
      "license_date": null,
      "expire_date": null
    },
    {
      "name": "はなの舞　新鎌ケ谷店",
      "name_kana": "ハナノマイシンカマガヤテン",
      "business_type": "① 飲食店営業",
      "address": "千葉県鎌ケ谷市新鎌ケ谷２－１２－２",
      "lat": 35.780081,
      "lng": 140.001954,
      "geocoding_level": null,
      "phone": "047-441-8755",
      "license_no": "20220273",
      "license_date": "2022-09-28",
      "expire_date": "2028-10-31"
    },
    {
      "name": "居酒屋　桜",
      "name_kana": "サクラ",
      "business_type": "① 飲食店営業",
      "address": "千葉県鎌ケ谷市東道野辺７－２０－６５ ヨシダテンポ１号",
      "lat": 35.742897,
      "lng": 139.99581,
      "geocoding_level": null,
      "phone": "",
      "license_no": "20210210",
      "license_date": "2021-08-06",
      "expire_date": "2027-08-31"
    },
    {
      "name": "ＲＯＬＬＳＡＮＤＷＩＣＨ　ＵＬＵ",
      "name_kana": "ロールサンドイッチウル",
      "business_type": "① 飲食店営業",
      "address": "千葉県鎌ケ谷市南初富４－１６－３４ アルケミー鎌ケ谷Ｃ",
      "lat": 35.767602,
      "lng": 140.004189,
      "geocoding_level": null,
      "phone": "",
      "license_no": "20210208",
      "license_date": "2021-08-06",
      "expire_date": "2027-08-31"
    },
    {
      "name": "鎌ケ谷餃子軒",
      "name_kana": "カマガヤギョウザケン",
      "business_type": "① 飲食店営業",
      "address": "千葉県鎌ケ谷市新鎌ケ谷２－１２－１ アクロスモール新鎌ケ谷２Ｆ",
      "lat": 35.780728,
      "lng": 140.001122,
      "geocoding_level": null,
      "phone": "0474-36-8845",
      "license_no": "20210207",
      "license_date": "2021-08-06",
      "expire_date": "2027-08-31"
    },
    {
      "name": "福茶　アクロスモール新鎌ケ谷店",
      "name_kana": "フクチャアクロスモールシンカマガヤテン",
      "business_type": "① 飲食店営業",
      "address": "千葉県鎌ケ谷市新鎌ケ谷２－１２－１ アクロスモール新鎌ケ谷２Ｆ",
      "lat": 35.780728,
      "lng": 140.001122,
      "geocoding_level": null,
      "phone": "047-402-3393",
      "license_no": "20210236",
      "license_date": "2021-08-24",
      "expire_date": "2027-08-31"
    },
    {
      "name": "アール元気アクロスモール新鎌ヶ谷店",
      "name_kana": "アールゲンキアクロスモールシンカマガヤテン",
      "business_type": "③ 食肉販売業",
      "address": "千葉県鎌ケ谷市新鎌ケ谷２－１２－１ アクロスモール１Ｆ",
      "lat": 35.780728,
      "lng": 140.001122,
      "geocoding_level": null,
      "phone": "047-404-3804",
      "license_no": "20210010",
      "license_date": "2021-10-29",
      "expire_date": "2027-11-30"
    },
    {
      "name": "アール元気アクロスモール新鎌ヶ谷店",
      "name_kana": "アールゲンキアクロスモールシンカマガヤテン",
      "business_type": "⑪ 百貨店、総合スーパー",
      "address": "千葉県鎌ケ谷市新鎌ケ谷２－１２－１ アクロスモール１Ｆ",
      "lat": 35.780728,
      "lng": 140.001122,
      "geocoding_level": null,
      "phone": "047-404-3804",
      "license_no": "",
      "license_date": null,
      "expire_date": null
    },
    {
      "name": "えんでん",
      "name_kana": "エンデン",
      "business_type": "① 飲食店営業",
      "address": "千葉県鎌ケ谷市南初富５－２－６０",
      "lat": 35.772334,
      "lng": 140.003558,
      "geocoding_level": null,
      "phone": "047-442-3188",
      "license_no": "20210202",
      "license_date": "2021-07-29",
      "expire_date": "2027-08-31"
    },
    {
      "name": "私市醸造株式会社",
      "name_kana": "キサイチジョウゾウカブシキガイシャ",
      "business_type": "㉛ 食品の小分け業",
      "address": "千葉県鎌ケ谷市東道野辺6-7-45",
      "lat": 35.748766,
      "lng": 140.002345,
      "geocoding_level": null,
      "phone": "047-443-2511",
      "license_no": "20230001",
      "license_date": "2023-07-31",
      "expire_date": "2028-08-31"
    },
    {
      "name": "私市醸造株式会社",
      "name_kana": "キサイチジョウゾウカブシキガイシャ",
      "business_type": "⑭ 清涼飲料水製造業",
      "address": "千葉県鎌ケ谷市東道野辺6-7-45",
      "lat": 35.74877,
      "lng": 140.002355,
      "geocoding_level": null,
      "phone": "0474432511",
      "license_no": "20240001",
      "license_date": "2024-06-28",
      "expire_date": "2029-07-31"
    },
    {
      "name": "私市醸造株式会社",
      "name_kana": "キサイチジョウゾウカブシキガイシャ",
      "business_type": "⑱ 調味料製造・加工業",
      "address": "千葉県鎌ケ谷市東道野辺6-7-45",
      "lat": 35.748766,
      "lng": 140.002345,
      "geocoding_level": null,
      "phone": "0474432511",
      "license_no": "",
      "license_date": null,
      "expire_date": null
    },
    {
      "name": "私市醸造株式会社",
      "name_kana": "キサイチジョウゾウカブシキガイシャ",
      "business_type": "㉚ 密封包装食品製造業",
      "address": "千葉県鎌ケ谷市東道野辺６－７－４５",
      "lat": 35.74877,
      "lng": 140.002355,
      "geocoding_level": null,
      "phone": "0474432511",
      "license_no": "20240001",
      "license_date": "2024-06-28",
      "expire_date": "2029-07-31"
    },
    {
      "name": "ＧＥＮＴＬＥ　ＣＨＩＣＫＥＮ",
      "name_kana": "ジェントルチキン",
      "business_type": "① 飲食店営業",
      "address": "千葉県鎌ケ谷市鎌ケ谷３－１－４",
      "lat": 35.758102,
      "lng": 140.012449,
      "geocoding_level": null,
      "phone": "",
      "license_no": "20210214",
      "license_date": "2021-08-13",
      "expire_date": "2027-08-31"
    },
    {
      "name": "茂野製麺株式会社",
      "name_kana": "シゲノセイメンカブシキガイシャ",
      "business_type": "㉔ 麺類製造業",
      "address": "千葉県鎌ケ谷市南初富6-2-12",
      "lat": 35.76945,
      "lng": 140.001703,
      "geocoding_level": null,
      "phone": "047-444-1351",
      "license_no": "20220001",
      "license_date": "2022-04-18",
      "expire_date": "2028-05-31"
    },
    {
      "name": "47866事業所",
      "name_kana": "ヨンナナハチロクロクジギョウショ",
      "business_type": "① 飲食店営業",
      "address": "千葉県鎌ケ谷市中沢字南台３１１－１",
      "lat": 35.760078,
      "lng": 139.980278,
      "geocoding_level": null,
      "phone": "047-443-3331",
      "license_no": "20210592",
      "license_date": "2022-03-22",
      "expire_date": "2029-03-31"
    },
    {
      "name": "ジョイフーズ　南鎌ヶ谷店",
      "name_kana": "ジョイフーズ　ミナミカマガヤテン",
      "business_type": "④ 魚介類販売業",
      "address": "千葉県鎌ケ谷市南鎌ヶ谷2-3-50",
      "lat": 35.747576,
      "lng": 140.005181,
      "geocoding_level": null,
      "phone": "0474-41-4700",
      "license_no": "20250008",
      "license_date": "2026-01-23",
      "expire_date": "2032-02-29"
    },
    {
      "name": "ジョイフーズ　南鎌ヶ谷店",
      "name_kana": "ジョイフーズ　ミナミカマガヤテン",
      "business_type": "⑪ 百貨店、総合スーパー",
      "address": "千葉県鎌ケ谷市南鎌ヶ谷2-3-50",
      "lat": 35.747576,
      "lng": 140.005181,
      "geocoding_level": null,
      "phone": "0474-41-4700",
      "license_no": "",
      "license_date": null,
      "expire_date": null
    },
    {
      "name": "マルエイ　新鎌ヶ谷店",
      "name_kana": "マルエイ　シンカマガヤテン",
      "business_type": "④ 魚介類販売業",
      "address": "千葉県鎌ケ谷市南初富1-2-28",
      "lat": 35.778649,
      "lng": 140.006633,
      "geocoding_level": null,
      "phone": "047-498-8889",
      "license_no": "20250011",
      "license_date": "2026-03-31",
      "expire_date": "2032-04-30"
    },
    {
      "name": "新鮮市場マルエイ新鎌ヶ谷店",
      "name_kana": "シンセンイチバマルエイシンカマガヤテン",
      "business_type": "② 食肉販売業（包装済みの食肉のみの販売）",
      "address": "千葉県鎌ケ谷市南初富1-2-28",
      "lat": 35.778649,
      "lng": 140.006633,
      "geocoding_level": null,
      "phone": "047-498-8889",
      "license_no": "",
      "license_date": null,
      "expire_date": null
    },
    {
      "name": "新鮮市場マルエイ新鎌ヶ谷店",
      "name_kana": "シンセンイチバマルエイシンカマガヤテン",
      "business_type": "⑪ 百貨店、総合スーパー",
      "address": "千葉県鎌ケ谷市南初富1-2-28",
      "lat": 35.778649,
      "lng": 140.006633,
      "geocoding_level": null,
      "phone": "047-498-8889",
      "license_no": "",
      "license_date": null,
      "expire_date": null
    },
    {
      "name": "マルエイ　南鎌ケ谷店",
      "name_kana": "マルエイ　ミナミカマガヤテン",
      "business_type": "① 飲食店営業",
      "address": "千葉県鎌ケ谷市南鎌ケ谷2-3-50",
      "lat": 35.747576,
      "lng": 140.005181,
      "geocoding_level": null,
      "phone": "047-441-4700",
      "license_no": "20260079",
      "license_date": "2026-05-28",
      "expire_date": "2032-05-31"
    },
    {
      "name": "セブン-イレブン京成ST鎌ヶ谷大仏店",
      "name_kana": "セブンイレブンケイセイエスティカマガヤダイブツテン",
      "business_type": "⑩ コンビニエンスストア",
      "address": "千葉県鎌ケ谷市鎌ケ谷1-8-1",
      "lat": 35.758065,
      "lng": 140.013658,
      "geocoding_level": null,
      "phone": "047-442-7725",
      "license_no": "",
      "license_date": null,
      "expire_date": null
    },
    {
      "name": "セブン-イレブン京成ST新鎌ヶ谷店",
      "name_kana": "セブンイレブンケイセイエスティシンカマガヤテン",
      "business_type": "⑩ コンビニエンスストア",
      "address": "千葉県鎌ケ谷市新鎌ケ谷1-13-1",
      "lat": 35.779459,
      "lng": 139.998476,
      "geocoding_level": null,
      "phone": "047-441-2700",
      "license_no": "",
      "license_date": null,
      "expire_date": null
    },
    {
      "name": "セブン-イレブン京成ST鎌ヶ谷大仏店",
      "name_kana": "セブンイレブンケイセイエスティカマガヤダイブツテン",
      "business_type": "① 飲食店営業",
      "address": "千葉県鎌ケ谷市鎌ケ谷1-8-1",
      "lat": 35.758065,
      "lng": 140.013658,
      "geocoding_level": null,
      "phone": "047-442-7725",
      "license_no": "20210606",
      "license_date": "2022-03-22",
      "expire_date": "2028-03-31"
    },
    {
      "name": "セブン-イレブン京成ST新鎌ヶ谷店",
      "name_kana": "セブンイレブンケイセイエスティシンカマガヤテン",
      "business_type": "① 飲食店営業",
      "address": "千葉県鎌ケ谷市新鎌ケ谷1-13-1",
      "lat": 35.779459,
      "lng": 139.998476,
      "geocoding_level": null,
      "phone": "047-441-2700",
      "license_no": "20210605",
      "license_date": "2022-03-22",
      "expire_date": "2028-03-31"
    },
    {
      "name": "丸源ラーメン新鎌ケ谷店",
      "name_kana": "マルゲンラーメンシンカマガヤテン",
      "business_type": "① 飲食店営業",
      "address": "千葉県鎌ケ谷市中央１－８－２７",
      "lat": 35.773202,
      "lng": 140.000048,
      "geocoding_level": null,
      "phone": "047-440-8655",
      "license_no": "20210242",
      "license_date": "2021-09-03",
      "expire_date": "2027-09-30"
    },
    {
      "name": "ウエルシア鎌ケ谷西佐津間店",
      "name_kana": "ウエルシアカマガヤニシサツマテン",
      "business_type": "⑪ 百貨店、総合スーパー",
      "address": "千葉県鎌ケ谷市西佐津間1-24-33",
      "lat": 35.801124,
      "lng": 140.001012,
      "geocoding_level": null,
      "phone": "047-446-4845",
      "license_no": "",
      "license_date": null,
      "expire_date": null
    },
    {
      "name": "東武ストア　鎌ケ谷店",
      "name_kana": "トウブストアカマガヤテン",
      "business_type": "⑪ 百貨店、総合スーパー",
      "address": "千葉県鎌ケ谷市道野辺中央２－１－１０",
      "lat": 35.764036,
      "lng": 139.997271,
      "geocoding_level": null,
      "phone": "047-441-5981",
      "license_no": "",
      "license_date": null,
      "expire_date": null
    },
    {
      "name": "セブンイレブン南鎌ケ谷３丁目店",
      "name_kana": "セブンイレブンミナミカマガヤサンチョウメテン",
      "business_type": "① 飲食店営業",
      "address": "千葉県鎌ケ谷市南鎌ケ谷３－１－１",
      "lat": 35.746525,
      "lng": 140.003823,
      "geocoding_level": null,
      "phone": "047-445-2538",
      "license_no": "20210249",
      "license_date": "2021-08-30",
      "expire_date": "2027-09-30"
    },
    {
      "name": "だるまさん",
      "name_kana": "ダルマサン",
      "business_type": "① 飲食店営業",
      "address": "千葉県鎌ケ谷市南鎌ケ谷１－１３－２４",
      "lat": 35.745145,
      "lng": 140.001212,
      "geocoding_level": null,
      "phone": "047-445-4932",
      "license_no": "20210250",
      "license_date": "2021-08-30",
      "expire_date": "2027-09-30"
    },
    {
      "name": "鎌ケ谷給食株式会社",
      "name_kana": "カマガヤキュウショク",
      "business_type": "① 飲食店営業",
      "address": "千葉県鎌ケ谷市中沢９２６",
      "lat": 35.758451,
      "lng": 139.981927,
      "geocoding_level": null,
      "phone": "047-443-6774",
      "license_no": "20210252",
      "license_date": "2021-08-30",
      "expire_date": "2027-09-30"
    },
    {
      "name": "ドミノ・ピザ新鎌ヶ谷店",
      "name_kana": "ドミノピザシンカマガヤテン",
      "business_type": "① 飲食店営業",
      "address": "千葉県鎌ケ谷市初富本町１－１１－４ グリーンフォレスト１Ｆ",
      "lat": 35.774462,
      "lng": 139.996612,
      "geocoding_level": null,
      "phone": "047-441-5222",
      "license_no": "20220229",
      "license_date": "2022-08-25",
      "expire_date": "2028-09-30"
    },
    {
      "name": "鎌倉ベーカリー　新鎌ヶ谷店",
      "name_kana": "カマクラベーカリー　シンカマガヤテン",
      "business_type": "⑪ 菓子製造業",
      "address": "千葉県鎌ケ谷市新鎌ケ谷3-16-9",
      "lat": 35.779496,
      "lng": 140.006916,
      "geocoding_level": null,
      "phone": "",
      "license_no": "20220006",
      "license_date": "2022-04-30",
      "expire_date": "2028-05-31"
    },
    {
      "name": "鎌倉ベーカリー　新鎌ヶ谷店",
      "name_kana": "カマクラベーカリー　シンカマガヤテン",
      "business_type": "③ 乳類販売業",
      "address": "千葉県鎌ケ谷市新鎌ケ谷3-16-9",
      "lat": 35.779496,
      "lng": 140.006916,
      "geocoding_level": null,
      "phone": "",
      "license_no": "",
      "license_date": null,
      "expire_date": null
    },
    {
      "name": "ハーベスト　3384号店",
      "name_kana": "ハーベストサンサンハチヨンゴウテン",
      "business_type": "① 飲食店営業",
      "address": "千葉県鎌ケ谷市佐津間字南木戸568",
      "lat": 35.284053,
      "lng": 136.771127,
      "geocoding_level": null,
      "phone": "",
      "license_no": "20210607",
      "license_date": "2022-03-22",
      "expire_date": "2028-03-31"
    },
    {
      "name": "ハーベスト　ハッピーライフ菜の花館店",
      "name_kana": "ハーベスト　ハッピーライフナノハナカンテン",
      "business_type": "① 飲食店営業",
      "address": "千葉県鎌ケ谷市初富373-11",
      "lat": 35.778964,
      "lng": 139.985328,
      "geocoding_level": null,
      "phone": "",
      "license_no": "20230521",
      "license_date": "2024-03-22",
      "expire_date": "2031-03-31"
    },
    {
      "name": "ＡＮＤ　ＣＡＫＥ",
      "name_kana": "アンドケーキ",
      "business_type": "⑪ 菓子製造業",
      "address": "千葉県鎌ケ谷市南鎌ケ谷４－６－６３－１",
      "lat": 35.74512,
      "lng": 140.005121,
      "geocoding_level": null,
      "phone": "047-442-3240",
      "license_no": "20210033",
      "license_date": "2021-09-28",
      "expire_date": "2027-09-30"
    },
    {
      "name": "ビッグ・エー鎌ヶ谷グリーンハイツ店",
      "name_kana": "ビッグエーカマガヤグリーンハイツテン",
      "business_type": "⑪ 百貨店、総合スーパー",
      "address": "千葉県鎌ケ谷市西道野辺10-26 鎌ケ谷グリーンハイツ",
      "lat": 35.752288,
      "lng": 139.984961,
      "geocoding_level": null,
      "phone": "047-441-5052",
      "license_no": "",
      "license_date": null,
      "expire_date": null
    },
    {
      "name": "ビッグ・エー鎌ヶ谷北初富店",
      "name_kana": "ビッグエーカマガヤキタハツトミテン",
      "business_type": "⑪ 百貨店、総合スーパー",
      "address": "千葉県鎌ケ谷市北初富2-5",
      "lat": 35.776627,
      "lng": 139.992623,
      "geocoding_level": null,
      "phone": "047-498-7105",
      "license_no": "",
      "license_date": null,
      "expire_date": null
    },
    {
      "name": "生パスタ専門店　もっちりーの",
      "name_kana": "モッチリーノ",
      "business_type": "① 飲食店営業",
      "address": "千葉県鎌ケ谷市東道野辺６－２－１　１階",
      "lat": 35.751108,
      "lng": 140.002656,
      "geocoding_level": null,
      "phone": "047-402-6563",
      "license_no": "20210281",
      "license_date": "2021-09-13",
      "expire_date": "2027-10-31"
    },
    {
      "name": "藤剛",
      "name_kana": "トウゴウ",
      "business_type": "⑬ その他の食料・飲料販売業",
      "address": "千葉県鎌ケ谷市東初富1-21-44",
      "lat": 35.771049,
      "lng": 140.013461,
      "geocoding_level": null,
      "phone": "080-5383-8011",
      "license_no": "",
      "license_date": null,
      "expire_date": null
    },
    {
      "name": "ひろ舞",
      "name_kana": "ヒロマイ",
      "business_type": "① 飲食店営業",
      "address": "千葉県鎌ケ谷市新鎌ケ谷１－１６－２０",
      "lat": 35.780939,
      "lng": 139.998774,
      "geocoding_level": null,
      "phone": "",
      "license_no": "20210287",
      "license_date": "2021-09-13",
      "expire_date": "2027-10-31"
    },
    {
      "name": "ケンタッキーフライドチキン新鎌ヶ谷店",
      "name_kana": "ケンタッキーフライドチキンシンカマガヤテン",
      "business_type": "⑬ その他の食料・飲料販売業",
      "address": "千葉県鎌ケ谷市新鎌ケ谷2-9-4",
      "lat": 35.779932,
      "lng": 139.999572,
      "geocoding_level": null,
      "phone": "",
      "license_no": "",
      "license_date": null,
      "expire_date": null
    },
    {
      "name": "あさひベーカリー",
      "name_kana": "アサヒベーカリー",
      "business_type": "⑪ 菓子製造業",
      "address": "千葉県鎌ケ谷市くぬぎ山２－１－５",
      "lat": 35.783387,
      "lng": 139.971963,
      "geocoding_level": null,
      "phone": "",
      "license_no": "20210035",
      "license_date": "2021-10-05",
      "expire_date": "2028-10-31"
    },
    {
      "name": "ワールドプラスジム鎌ヶ谷",
      "name_kana": "ワールドプラスジムカマガヤ",
      "business_type": "⑤ コップ式自動販売機（自動洗浄・屋内設置）",
      "address": "千葉県鎌ケ谷市軽井沢1983-4",
      "lat": 35.784746,
      "lng": 140.01744,
      "geocoding_level": null,
      "phone": "047-442-2336",
      "license_no": "",
      "license_date": null,
      "expire_date": null
    },
    {
      "name": "北海道生まれ　和食処　とんでん　鎌ケ谷店",
      "name_kana": "トンデンカマガヤテン",
      "business_type": "① 飲食店営業",
      "address": "千葉県鎌ケ谷市東鎌ケ谷１－７－３３",
      "lat": 35.763012,
      "lng": 140.01527,
      "geocoding_level": null,
      "phone": "047-445-0361",
      "license_no": "20220320",
      "license_date": "2022-10-31",
      "expire_date": "2028-11-30"
    },
    {
      "name": "小川家",
      "name_kana": "オガワヤ",
      "business_type": "① 飲食店営業",
      "address": "千葉県鎌ケ谷市鎌ケ谷７－６－７７",
      "lat": 35.75347,
      "lng": 140.009993,
      "geocoding_level": null,
      "phone": "",
      "license_no": "20210292",
      "license_date": "2021-09-30",
      "expire_date": "2028-10-31"
    },
    {
      "name": "ラーメンばんだい新鎌ケ谷店",
      "name_kana": "ラーメンバンダイシンカマガヤテン",
      "business_type": "① 飲食店営業",
      "address": "千葉県鎌ケ谷市新鎌ケ谷２－５－６",
      "lat": 35.775972,
      "lng": 140.001204,
      "geocoding_level": null,
      "phone": "047-446-0147",
      "license_no": "20210293",
      "license_date": "2021-09-30",
      "expire_date": "2027-10-31"
    },
    {
      "name": "徳川",
      "name_kana": "トクガワ",
      "business_type": "① 飲食店営業",
      "address": "千葉県鎌ケ谷市新鎌ケ谷１－１１－１３",
      "lat": 35.778612,
      "lng": 139.998737,
      "geocoding_level": null,
      "phone": "047-446-6252",
      "license_no": "20210306",
      "license_date": "2021-09-30",
      "expire_date": "2027-10-31"
    },
    {
      "name": "居酒屋　やんばる",
      "name_kana": "ヤンバル",
      "business_type": "① 飲食店営業",
      "address": "千葉県鎌ケ谷市西佐津間１－２－１",
      "lat": 35.795706,
      "lng": 140.001182,
      "geocoding_level": null,
      "phone": "047-445-0242",
      "license_no": "20210296",
      "license_date": "2021-09-30",
      "expire_date": "2027-10-31"
    },
    {
      "name": "イデカフェ　鎌ケ谷総合病院店",
      "name_kana": "イデカフェカマガヤソウゴウビョウインテン",
      "business_type": "① 飲食店営業",
      "address": "千葉県鎌ケ谷市初富９２９－６ 鎌ケ谷総合病院１Ｆ",
      "lat": 35.777906,
      "lng": 139.996505,
      "geocoding_level": null,
      "phone": "047-443-8082",
      "license_no": "20210307",
      "license_date": "2021-09-30",
      "expire_date": "2027-10-31"
    },
    {
      "name": "イデカフェ　新鎌ケ谷駅中店",
      "name_kana": "イデカフェシンカマガヤエキナカテン",
      "business_type": "① 飲食店営業",
      "address": "千葉県鎌ケ谷市新鎌ケ谷１－１３－１",
      "lat": 35.779459,
      "lng": 139.998476,
      "geocoding_level": null,
      "phone": "047-443-2981",
      "license_no": "20210444",
      "license_date": "2021-12-15",
      "expire_date": "2028-01-31"
    },
    {
      "name": "イデカフェ鎌ケ谷本店",
      "name_kana": "イデカフェカマガヤホンテン",
      "business_type": "① 飲食店営業",
      "address": "千葉県鎌ケ谷市初富８６２－２４",
      "lat": 35.778759,
      "lng": 140.013592,
      "geocoding_level": null,
      "phone": "047-441-7175",
      "license_no": "20220332",
      "license_date": "2022-10-31",
      "expire_date": "2028-11-30"
    },
    {
      "name": "麻布うす皮たい焼き寛太郎",
      "name_kana": "アザブウスカワタイヤキカンタロウ",
      "business_type": "① 飲食店営業",
      "address": "千葉県鎌ケ谷市新鎌ケ谷１－１３－３",
      "lat": 35.779747,
      "lng": 139.998996,
      "geocoding_level": null,
      "phone": "047-401-3615",
      "license_no": "20230351",
      "license_date": "2023-12-01",
      "expire_date": "2029-12-31"
    },
    {
      "name": "クイーンズパステル新鎌ヶ谷店",
      "name_kana": "クイーンズパステルシンカマガヤテン",
      "business_type": "⑬ その他の食料・飲料販売業",
      "address": "千葉県鎌ケ谷市新鎌ケ谷2-12-1 アクロスモール新鎌ヶ谷  2階",
      "lat": 35.780728,
      "lng": 140.001122,
      "geocoding_level": null,
      "phone": "047-444-8883",
      "license_no": "",
      "license_date": null,
      "expire_date": null
    },
    {
      "name": "Atelier F*",
      "name_kana": "アトリエエフ",
      "business_type": "⑰ 農産保存食料品製造・加工業",
      "address": "千葉県鎌ケ谷市初富本町1-6-88 Atelier F*",
      "lat": 35.774362,
      "lng": 139.999056,
      "geocoding_level": null,
      "phone": "0474121129",
      "license_no": "",
      "license_date": null,
      "expire_date": null
    },
    {
      "name": "Ａｔｅｌｉｅｒ　Ｆ＊",
      "name_kana": "アトリエエフ",
      "business_type": "① 飲食店営業",
      "address": "千葉県鎌ケ谷市初富本町１－６－８８－１F",
      "lat": 35.774362,
      "lng": 139.999056,
      "geocoding_level": null,
      "phone": "0474121129",
      "license_no": "20240108",
      "license_date": "2024-06-27",
      "expire_date": "2029-07-31"
    },
    {
      "name": "Ａｔｅｌｉｅｒ　Ｆ＊",
      "name_kana": "アトリエエフ",
      "business_type": "⑪ 菓子製造業",
      "address": "千葉県鎌ケ谷市初富本町１－６－８８－１F",
      "lat": 35.774362,
      "lng": 139.999056,
      "geocoding_level": null,
      "phone": "0474121129",
      "license_no": "20240009",
      "license_date": "2024-06-27",
      "expire_date": "2029-07-31"
    },
    {
      "name": "たこ助鯛へい　鎌ケ谷店",
      "name_kana": "タコスケタイヘイカマガヤテン",
      "business_type": "① 飲食店営業",
      "address": "千葉県鎌ケ谷市新鎌ケ谷２－７－１ イオン鎌ケ谷ＳＣ　１Ｆ",
      "lat": 35.778497,
      "lng": 140.00108,
      "geocoding_level": null,
      "phone": "047-441-2228",
      "license_no": "20210609",
      "license_date": "2022-03-14",
      "expire_date": "2028-04-30"
    },
    {
      "name": "footprints coffee",
      "name_kana": "フットプリンツコーヒー",
      "business_type": "⑯ コーヒー製造・加工業（飲料の製造を除く。）",
      "address": "千葉県鎌ケ谷市くぬぎ山2-12-60 ワコーレエレガンスくぬぎ山205",
      "lat": 35.781795,
      "lng": 139.971168,
      "geocoding_level": null,
      "phone": "08056469866",
      "license_no": "",
      "license_date": null,
      "expire_date": null
    },
    {
      "name": "生活協同組合コープみらい　コープ鎌ケ谷店",
      "name_kana": "セイカツキョウドウクミアイ　コープカマガヤテン",
      "business_type": "⑪ 百貨店、総合スーパー",
      "address": "千葉県鎌ケ谷市道野辺本町1-5-1",
      "lat": 35.763212,
      "lng": 140.00024,
      "geocoding_level": null,
      "phone": "047-443-9953",
      "license_no": "",
      "license_date": null,
      "expire_date": null
    },
    {
      "name": "生活協同組合コープみらい　コープ鎌ヶ谷店",
      "name_kana": "セイカツキョウドウクミアイコープミライ　コープカマガヤテン",
      "business_type": "③ 食肉販売業",
      "address": "千葉県鎌ケ谷市道野辺本町1-5-1",
      "lat": 35.763212,
      "lng": 140.00024,
      "geocoding_level": null,
      "phone": "047-443-9953",
      "license_no": "20230003",
      "license_date": "2023-06-01",
      "expire_date": "2030-06-30"
    },
    {
      "name": "生活協同組合コープみらい　コープ鎌ヶ谷店",
      "name_kana": "セイカツキョウドウクミアイコープミライ　コープカマガヤテン",
      "business_type": "① 飲食店営業",
      "address": "千葉県鎌ケ谷市道野辺本町1-5-1",
      "lat": 35.763212,
      "lng": 140.00024,
      "geocoding_level": null,
      "phone": "047-443-9953",
      "license_no": "20230083",
      "license_date": "2023-06-01",
      "expire_date": "2030-06-30"
    },
    {
      "name": "亀戸食品有限会社",
      "name_kana": "カメイドショクヒン",
      "business_type": "⑯ 水産製品製造業",
      "address": "千葉県鎌ケ谷市軽井沢１９９３－３",
      "lat": 35.787873,
      "lng": 140.018945,
      "geocoding_level": null,
      "phone": "047-443-2989",
      "license_no": "20210001",
      "license_date": "2021-10-14",
      "expire_date": "2027-11-30"
    },
    {
      "name": "サイゼリヤアクロスモール新鎌ヶ谷店",
      "name_kana": "サイゼリヤアクロスモールシンカマガヤテン",
      "business_type": "⑬ その他の食料・飲料販売業",
      "address": "千葉県鎌ケ谷市新鎌ケ谷2-12-1 アクロスモール新鎌ヶ谷1F",
      "lat": 35.780728,
      "lng": 140.001122,
      "geocoding_level": null,
      "phone": "047-441-6860",
      "license_no": "",
      "license_date": null,
      "expire_date": null
    },
    {
      "name": "サイゼリヤ船橋馬込店",
      "name_kana": "サイゼリヤフナバシマゴメテン",
      "business_type": "⑬ その他の食料・飲料販売業",
      "address": "千葉県鎌ケ谷市東道野辺5-22-23",
      "lat": 35.745899,
      "lng": 139.997351,
      "geocoding_level": null,
      "phone": "047-445-6510",
      "license_no": "",
      "license_date": null,
      "expire_date": null
    },
    {
      "name": "サイゼリヤ　ショッピングプラザ鎌ヶ谷店",
      "name_kana": "サイゼリヤ　ショッピングプラザカマガヤテン",
      "business_type": "① 飲食店営業",
      "address": "千葉県鎌ケ谷市富岡1-1-3 ショッピングプラザ鎌ヶ谷2F",
      "lat": 35.771338,
      "lng": 139.999859,
      "geocoding_level": null,
      "phone": "047-441-7775",
      "license_no": "20250335",
      "license_date": "2025-11-26",
      "expire_date": "2031-12-31"
    },
    {
      "name": "サイゼリヤショッピングプラザ鎌ヶ谷店",
      "name_kana": "サイゼリヤショッピングプラザカマガヤテン",
      "business_type": "⑬ その他の食料・飲料販売業",
      "address": "千葉県鎌ケ谷市富岡1-1-3 ショッピングプラザ鎌ヶ谷2F",
      "lat": 35.770817,
      "lng": 139.999679,
      "geocoding_level": null,
      "phone": "047-441-7775",
      "license_no": "",
      "license_date": null,
      "expire_date": null
    },
    {
      "name": "とんや",
      "name_kana": "トンヤ",
      "business_type": "① 飲食店営業",
      "address": "千葉県鎌ケ谷市北中沢２－１１－２５",
      "lat": 35.771291,
      "lng": 139.98639,
      "geocoding_level": null,
      "phone": "",
      "license_no": "20210360",
      "license_date": "2021-10-29",
      "expire_date": "2027-11-30"
    },
    {
      "name": "ヴィ・ド・フランス新鎌ヶ谷店",
      "name_kana": "ヴィ・ド・フランスシンカマガヤテン",
      "business_type": "⑬ その他の食料・飲料販売業",
      "address": "千葉県鎌ケ谷市新鎌ケ谷1-13-3",
      "lat": 35.779747,
      "lng": 139.998996,
      "geocoding_level": null,
      "phone": "047-498-8008",
      "license_no": "",
      "license_date": null,
      "expire_date": null
    },
    {
      "name": "ウエルシア鎌ヶ谷くぬぎ山店",
      "name_kana": "ウエルシアカマガヤクヌギヤマテン",
      "business_type": "⑪ 百貨店、総合スーパー",
      "address": "千葉県鎌ケ谷市くぬぎ山3-14-14",
      "lat": 35.778586,
      "lng": 139.969545,
      "geocoding_level": null,
      "phone": "047-394-5017",
      "license_no": "",
      "license_date": null,
      "expire_date": null
    },
    {
      "name": "ニチイケアセンター鎌ケ谷",
      "name_kana": "ニチイケアセンターカマガヤ",
      "business_type": "㉖ 集団給食施設",
      "address": "千葉県鎌ケ谷市富岡1-9-18",
      "lat": 35.767615,
      "lng": 139.999258,
      "geocoding_level": null,
      "phone": "047-441-8207",
      "license_no": "",
      "license_date": null,
      "expire_date": null
    },
    {
      "name": "株式会社ヨーク　ヨークフーズ　鎌ヶ谷店",
      "name_kana": "カブシキガイシャヨーク　ヨークフーズ　カマガヤテン",
      "business_type": "⑪ 百貨店、総合スーパー",
      "address": "千葉県鎌ケ谷市富岡１－１－３",
      "lat": 35.770817,
      "lng": 139.999679,
      "geocoding_level": null,
      "phone": "0474411112",
      "license_no": "",
      "license_date": null,
      "expire_date": null
    },
    {
      "name": "麺屋雷神飲み屋",
      "name_kana": "ライジン",
      "business_type": "① 飲食店営業",
      "address": "千葉県鎌ケ谷市南初富４－１－３４ １Ｆ",
      "lat": 35.772655,
      "lng": 140.003959,
      "geocoding_level": null,
      "phone": "",
      "license_no": "20210354",
      "license_date": "2021-10-29",
      "expire_date": "2027-11-30"
    },
    {
      "name": "焼肉レストラン　赤坂",
      "name_kana": "アカサカ",
      "business_type": "① 飲食店営業",
      "address": "千葉県鎌ケ谷市東鎌ケ谷２－２１－６",
      "lat": 35.761705,
      "lng": 140.014735,
      "geocoding_level": null,
      "phone": "047-444-4246",
      "license_no": "20210355",
      "license_date": "2021-10-29",
      "expire_date": "2027-11-30"
    },
    {
      "name": "小さな森の家　鎌ケ谷大仏ホール",
      "name_kana": "チイサナモリノイエ　カマガヤダイブツホール",
      "business_type": "⑫ 自動販売機による販売業（コップ式自動販売機（自動洗浄・屋内設置）及び営業許可の対象となる自動販売機を除く）",
      "address": "千葉県鎌ケ谷市鎌ケ谷3-6-29",
      "lat": 35.756402,
      "lng": 140.011607,
      "geocoding_level": null,
      "phone": "0120-131-599",
      "license_no": "",
      "license_date": null,
      "expire_date": null
    },
    {
      "name": "セブンイレブン　鎌ケ谷総合病院前店",
      "name_kana": "セブンイレブンカマガヤソウゴウビョウインマエテン",
      "business_type": "① 飲食店営業",
      "address": "千葉県鎌ケ谷市新鎌ケ谷１－９－６",
      "lat": 35.77751,
      "lng": 139.997531,
      "geocoding_level": null,
      "phone": "047-442-7118",
      "license_no": "20210367",
      "license_date": "2021-11-05",
      "expire_date": "2027-11-30"
    },
    {
      "name": "セブンイレブン　鎌ケ谷総合病院前店",
      "name_kana": "セブンイレブンカマガヤソウゴウビョウインマエテン",
      "business_type": "⑩ コンビニエンスストア",
      "address": "千葉県鎌ケ谷市新鎌ケ谷１－９－６",
      "lat": 35.77751,
      "lng": 139.997531,
      "geocoding_level": null,
      "phone": "",
      "license_no": "",
      "license_date": null,
      "expire_date": null
    },
    {
      "name": "FEED ME オレンジジュース自動販売機　北総線　新鎌ヶ谷駅",
      "name_kana": "フィードミーオレンジジュースジドウハンバイキ　ホクソウセン　シンカマガヤエキ",
      "business_type": "② 調理機能を有する自動販売機（要許可）",
      "address": "千葉県鎌ケ谷市新鎌ケ谷1-13-1 新鎌ヶ谷駅　1階",
      "lat": 35.779459,
      "lng": 139.998476,
      "geocoding_level": null,
      "phone": "048-861-1621",
      "license_no": "20220007",
      "license_date": "2023-02-21",
      "expire_date": "2028-02-29"
    },
    {
      "name": "FEED ME オレンジジュース自動販売機　イオン鎌ヶ谷店",
      "name_kana": "フィードミーオレンジジュースジドウハンバイキ　イオンカマガヤテン",
      "business_type": "② 調理機能を有する自動販売機（要許可）",
      "address": "千葉県鎌ケ谷市新鎌ケ谷2-7-1 イオン鎌ヶ谷店　地下1階",
      "lat": 35.77843,
      "lng": 140.001122,
      "geocoding_level": null,
      "phone": "048-861-1621",
      "license_no": "20230004",
      "license_date": "2023-08-04",
      "expire_date": "2028-08-31"
    },
    {
      "name": "ファミリーマート東武新鎌ヶ谷駅店",
      "name_kana": "ファミリーマートトウブシンカマガヤエキテン",
      "business_type": "⑩ コンビニエンスストア",
      "address": "千葉県鎌ケ谷市新鎌ケ谷2-10-1",
      "lat": 35.78013,
      "lng": 139.999438,
      "geocoding_level": null,
      "phone": "047-446-8700",
      "license_no": "",
      "license_date": null,
      "expire_date": null
    },
    {
      "name": "ビッグ・エー鎌ケ谷丸山店",
      "name_kana": "ビッグエーカマガヤマルヤマテン",
      "business_type": "⑪ 百貨店、総合スーパー",
      "address": "千葉県鎌ケ谷市丸山1-2-10",
      "lat": 35.762897,
      "lng": 140.009483,
      "geocoding_level": null,
      "phone": "047-446-4435",
      "license_no": "",
      "license_date": null,
      "expire_date": null
    },
    {
      "name": "ビッグ・エー鎌ヶ谷北初富店",
      "name_kana": "ビッグエーカマガヤキタハツトミテン",
      "business_type": "⑪ 百貨店、総合スーパー",
      "address": "千葉県鎌ケ谷市北初富2-5",
      "lat": 35.776627,
      "lng": 139.992623,
      "geocoding_level": null,
      "phone": "047-498-7105",
      "license_no": "",
      "license_date": null,
      "expire_date": null
    },
    {
      "name": "串カツ田中　アクロスモール新鎌ケ谷店",
      "name_kana": "クシカツタナカアクロスモールシンカマガヤテン",
      "business_type": "① 飲食店営業",
      "address": "千葉県鎌ケ谷市新鎌ケ谷２－１２－１ アクロスモール新鎌ケ谷１階１２７０区画",
      "lat": 35.780987,
      "lng": 140.001294,
      "geocoding_level": null,
      "phone": "",
      "license_no": "20210370",
      "license_date": "2021-11-12",
      "expire_date": "2027-11-30"
    },
    {
      "name": "はな膳　鎌ケ谷道野辺中央店",
      "name_kana": "ハナゼンカマガヤミチノベチュウオウテン",
      "business_type": "① 飲食店営業",
      "address": "千葉県鎌ケ谷市道野辺中央２－９－４ ライフマンション１Ｆ",
      "lat": 35.763727,
      "lng": 139.995309,
      "geocoding_level": null,
      "phone": "047-441-8707",
      "license_no": "20210571",
      "license_date": "2022-02-28",
      "expire_date": "2028-03-31"
    },
    {
      "name": "鎌スタキッチン",
      "name_kana": "カマスタキッチン",
      "business_type": "① 飲食店営業",
      "address": "千葉県鎌ケ谷市中沢４５９",
      "lat": 35.759335,
      "lng": 139.976859,
      "geocoding_level": null,
      "phone": "",
      "license_no": "20230465",
      "license_date": "2024-02-14",
      "expire_date": "2030-03-31"
    },
    {
      "name": "カフェ・カービー",
      "name_kana": "カフェカービー",
      "business_type": "① 飲食店営業",
      "address": "千葉県鎌ケ谷市中沢４５９",
      "lat": 35.759335,
      "lng": 139.976859,
      "geocoding_level": null,
      "phone": "",
      "license_no": "20230466",
      "license_date": "2024-02-14",
      "expire_date": "2030-03-31"
    },
    {
      "name": "社会福祉法人　輝　くるみ園",
      "name_kana": "シャカイフクシホウジン　カガヤキ　クルミエン",
      "business_type": "㉖ 集団給食施設",
      "address": "千葉県鎌ケ谷市道野辺本町1‐4‐34",
      "lat": 35.763413,
      "lng": 139.998536,
      "geocoding_level": null,
      "phone": "0474410057",
      "license_no": "",
      "license_date": null,
      "expire_date": null
    },
    {
      "name": "青汁の店　ケール",
      "name_kana": "ケール",
      "business_type": "① 飲食店営業",
      "address": "千葉県鎌ケ谷市右京塚３－１３",
      "lat": 35.764967,
      "lng": 140.006525,
      "geocoding_level": null,
      "phone": "047-446-0843",
      "license_no": "20210377",
      "license_date": "2021-11-15",
      "expire_date": "2026-12-31"
    },
    {
      "name": "松屋　鎌ヶ谷店",
      "name_kana": "マツヤ　カマガヤテン",
      "business_type": "① 飲食店営業",
      "address": "千葉県鎌ケ谷市東初富4丁目2番83号",
      "lat": 35.766065,
      "lng": 140.006244,
      "geocoding_level": null,
      "phone": "080-5928-0819",
      "license_no": "20230110",
      "license_date": "2023-06-12",
      "expire_date": "2029-07-31"
    },
    {
      "name": "松屋　新鎌ヶ谷店",
      "name_kana": "マツヤ　シンカマガヤテン",
      "business_type": "① 飲食店営業",
      "address": "千葉県鎌ケ谷市新鎌ケ谷1-13-3",
      "lat": 35.779747,
      "lng": 139.998996,
      "geocoding_level": null,
      "phone": "070-4696-5224",
      "license_no": "20230480",
      "license_date": "2024-03-05",
      "expire_date": "2030-03-31"
    },
    {
      "name": "松屋・松のや　東鎌ヶ谷店",
      "name_kana": "マツヤ・マツノヤ　ヒガシカマガヤテン",
      "business_type": "① 飲食店営業",
      "address": "千葉県鎌ケ谷市東鎌ケ谷2-20-6",
      "lat": 35.763374,
      "lng": 140.016359,
      "geocoding_level": null,
      "phone": "090-6345-1853",
      "license_no": "20250058",
      "license_date": "2025-05-22",
      "expire_date": "2031-05-31"
    },
    {
      "name": "株式会社ヨーク　ヨークマート東道野辺店",
      "name_kana": "カブシキガイシャヨーク　ヨークマートヒガシミチノベテン",
      "business_type": "⑪ 百貨店、総合スーパー",
      "address": "千葉県鎌ケ谷市東道野辺５－１６－３８",
      "lat": 35.748868,
      "lng": 139.999609,
      "geocoding_level": null,
      "phone": "047-442-7877",
      "license_no": "",
      "license_date": null,
      "expire_date": null
    },
    {
      "name": "株式会社ヨーク　ヨークマート東道野辺店",
      "name_kana": "カブシキガイシャヨーク　ヨークマートヒガシミチノベテン",
      "business_type": "⑤ コップ式自動販売機（自動洗浄・屋内設置）",
      "address": "千葉県鎌ケ谷市東道野辺５－１６－３８",
      "lat": 35.748868,
      "lng": 139.999609,
      "geocoding_level": null,
      "phone": "047-442-7877",
      "license_no": "",
      "license_date": null,
      "expire_date": null
    },
    {
      "name": "周珈琲",
      "name_kana": "アマネコーヒー",
      "business_type": "① 飲食店営業",
      "address": "千葉県鎌ケ谷市東中沢２－１－５６　１F",
      "lat": 35.776004,
      "lng": 139.993335,
      "geocoding_level": null,
      "phone": "",
      "license_no": "20210380",
      "license_date": "2021-11-15",
      "expire_date": "2027-12-31"
    },
    {
      "name": "すみっこマルシェ",
      "name_kana": "スミッコマルシェ",
      "business_type": "① 飲食店営業",
      "address": "千葉県鎌ケ谷市中沢２５３－１０",
      "lat": 35.755458,
      "lng": 139.976896,
      "geocoding_level": null,
      "phone": "",
      "license_no": "20210625",
      "license_date": "2022-03-22",
      "expire_date": "2028-03-31"
    },
    {
      "name": "びっくりドンキー鎌ヶ谷店",
      "name_kana": "ビックリドンキーカマガヤテン",
      "business_type": "⑬ その他の食料・飲料販売業",
      "address": "千葉県鎌ケ谷市新鎌ケ谷3-3-4",
      "lat": 35.777613,
      "lng": 140.002043,
      "geocoding_level": null,
      "phone": "0474427773",
      "license_no": "",
      "license_date": null,
      "expire_date": null
    },
    {
      "name": "社会福祉法人　輝　ふじのこ保育園",
      "name_kana": "シャカイフクシホウジン　カガヤキ　フジノコホイクエン",
      "business_type": "㉖ 集団給食施設",
      "address": "千葉県鎌ケ谷市初富82-1",
      "lat": 35.7808,
      "lng": 139.977633,
      "geocoding_level": null,
      "phone": "0474023811",
      "license_no": "",
      "license_date": null,
      "expire_date": null
    },
    {
      "name": "社会福祉法人　輝　りすのこ園",
      "name_kana": "シャカイフクシホウジン　カガヤキ　リスノコエン",
      "business_type": "㉖ 集団給食施設",
      "address": "千葉県鎌ケ谷市道野辺本町2-1-28 カーラシティ弐番館2階",
      "lat": 35.762929,
      "lng": 139.997634,
      "geocoding_level": null,
      "phone": "0474433740",
      "license_no": "",
      "license_date": null,
      "expire_date": null
    },
    {
      "name": "すき家　鎌ヶ谷初富店",
      "name_kana": "スキヤ　カマガヤハツトミテン",
      "business_type": "⑬ その他の食料・飲料販売業",
      "address": "千葉県鎌ケ谷市新鎌ケ谷2丁目1番14号",
      "lat": 35.774914,
      "lng": 140.000671,
      "geocoding_level": null,
      "phone": "",
      "license_no": "",
      "license_date": null,
      "expire_date": null
    },
    {
      "name": "ファミリーマート鎌ヶ谷南初富六丁目店",
      "name_kana": "ファミリーマートカマガヤミナミハツトミロクチョウメテン",
      "business_type": "⑩ コンビニエンスストア",
      "address": "千葉県鎌ケ谷市南初富6－5－51",
      "lat": 35.766428,
      "lng": 140.005027,
      "geocoding_level": null,
      "phone": "",
      "license_no": "",
      "license_date": null,
      "expire_date": null
    },
    {
      "name": "ファミリーマート 鎌ヶ谷南初富六丁目店",
      "name_kana": "ファミリーマートカマガヤミナミハツトミロクチョウメテン",
      "business_type": "① 飲食店営業",
      "address": "千葉県鎌ケ谷市南初富6丁目5番51号",
      "lat": 35.766428,
      "lng": 140.005027,
      "geocoding_level": null,
      "phone": "047-498-7750",
      "license_no": "20250317",
      "license_date": "2025-11-25",
      "expire_date": "2031-12-31"
    },
    {
      "name": "すくすくの杜鎌ヶ谷園",
      "name_kana": "スクスクノモリカマガヤエン",
      "business_type": "㉖ 集団給食施設",
      "address": "千葉県鎌ケ谷市富岡1-1-1　ショッピングプラザ鎌ケ谷別棟",
      "lat": 35.771501,
      "lng": 139.999524,
      "geocoding_level": null,
      "phone": "0474468833",
      "license_no": "",
      "license_date": null,
      "expire_date": null
    },
    {
      "name": "マンマパスタ新鎌ヶ谷店",
      "name_kana": "マンマパスタシンカマガヤテン",
      "business_type": "⑬ その他の食料・飲料販売業",
      "address": "千葉県鎌ケ谷市新鎌ケ谷２丁目５番２４号",
      "lat": 35.775792,
      "lng": 140.001117,
      "geocoding_level": null,
      "phone": "047-443-7621",
      "license_no": "",
      "license_date": null,
      "expire_date": null
    },
    {
      "name": "株式会社　ヤサカ　本社工場",
      "name_kana": "カブシキガイシャ　ヤサカ　ホンシャコウジョウ",
      "business_type": "㉗ 器具、容器包装の製造・加工業（合成樹脂が使用された器具又は容器包装の製造、加工に限る。）",
      "address": "千葉県鎌ケ谷市東道野辺６丁目９番９号",
      "lat": 35.748068,
      "lng": 140.002916,
      "geocoding_level": null,
      "phone": "0474452955",
      "license_no": "",
      "license_date": null,
      "expire_date": null
    },
    {
      "name": "株式会社　ヤサカ　第二工場",
      "name_kana": "カブシキガイシャ　ヤサカ　ダイニコウジョウ",
      "business_type": "㉗ 器具、容器包装の製造・加工業（合成樹脂が使用された器具又は容器包装の製造、加工に限る。）",
      "address": "千葉県鎌ケ谷市初富８０３ー３５",
      "lat": 35.778957,
      "lng": 140.025603,
      "geocoding_level": null,
      "phone": "0474454805",
      "license_no": "",
      "license_date": null,
      "expire_date": null
    },
    {
      "name": "たかし保育園新鎌ケ谷",
      "name_kana": "タカシホイクエンシンカマガヤ",
      "business_type": "㉖ 集団給食施設",
      "address": "千葉県鎌ケ谷市初富919－15",
      "lat": 35.779665,
      "lng": 140.007829,
      "geocoding_level": null,
      "phone": "0474368118",
      "license_no": "",
      "license_date": null,
      "expire_date": null
    },
    {
      "name": "有限会社　なかじま",
      "name_kana": "ナカジマ",
      "business_type": "① 飲食店営業",
      "address": "千葉県鎌ケ谷市初富本町１－２３－３１",
      "lat": 35.777311,
      "lng": 139.993846,
      "geocoding_level": null,
      "phone": "047-443-8720",
      "license_no": "20210414",
      "license_date": "2021-11-29",
      "expire_date": "2027-12-31"
    },
    {
      "name": "万屋",
      "name_kana": "ヨロズヤ",
      "business_type": "① 飲食店営業",
      "address": "千葉県鎌ケ谷市東道野辺７－２２－８５ 平原店舗１０２",
      "lat": 35.742197,
      "lng": 139.992493,
      "geocoding_level": null,
      "phone": "",
      "license_no": "20210418",
      "license_date": "2021-11-29",
      "expire_date": "2027-12-31"
    },
    {
      "name": "ＩＮＤＩＡ　ＦＯＯＤＳ　ＲＡＪＡ",
      "name_kana": "ラージャ",
      "business_type": "① 飲食店営業",
      "address": "千葉県鎌ケ谷市丸山１－２－８",
      "lat": 35.763004,
      "lng": 140.009241,
      "geocoding_level": null,
      "phone": "",
      "license_no": "20210421",
      "license_date": "2021-12-10",
      "expire_date": "2027-12-31"
    },
    {
      "name": "大戸屋　アクロスモール新鎌ヶ谷店",
      "name_kana": "オオトヤアクロスモールシンカマガヤテン",
      "business_type": "⑥ 弁当販売業",
      "address": "千葉県鎌ケ谷市新鎌ケ谷2-12-1 アクロスモール新鎌ヶ谷2F",
      "lat": 35.780728,
      "lng": 140.001122,
      "geocoding_level": null,
      "phone": "0474408777",
      "license_no": "",
      "license_date": null,
      "expire_date": null
    },
    {
      "name": "大戸屋　アクロスモール新鎌ケ谷店",
      "name_kana": "オオトヤアクロスモールシンカマガヤテン",
      "business_type": "① 飲食店営業",
      "address": "千葉県鎌ケ谷市新鎌ケ谷２－１２－１ アクロスモール新鎌ケ谷２Ｆ",
      "lat": 35.780728,
      "lng": 140.001122,
      "geocoding_level": null,
      "phone": "047-440-8777",
      "license_no": "20230031",
      "license_date": "2023-04-10",
      "expire_date": "2029-05-31"
    },
    {
      "name": "國乃や",
      "name_kana": "クニノヤ",
      "business_type": "⑪ 菓子製造業",
      "address": "千葉県鎌ケ谷市東初富４－１６－２５ ＴＫビル２Ｆ",
      "lat": 35.764513,
      "lng": 140.008159,
      "geocoding_level": null,
      "phone": "",
      "license_no": "20210050",
      "license_date": "2021-12-28",
      "expire_date": "2028-01-31"
    },
    {
      "name": "花の木",
      "name_kana": "ハナノキ",
      "business_type": "① 飲食店営業",
      "address": "千葉県鎌ケ谷市東道野辺４－６－２２",
      "lat": 35.755212,
      "lng": 140.001663,
      "geocoding_level": null,
      "phone": "",
      "license_no": "20210457",
      "license_date": "2021-12-28",
      "expire_date": "2028-01-31"
    },
    {
      "name": "NISHI HALAL FOOD",
      "name_kana": "ニシハラールフード",
      "business_type": "① 魚介類販売業（包装済みの魚介類のみの販売）",
      "address": "千葉県鎌ケ谷市くぬぎ山5-2-1 伊藤ビル101",
      "lat": 35.782718,
      "lng": 139.97605,
      "geocoding_level": null,
      "phone": "08049423824",
      "license_no": "",
      "license_date": null,
      "expire_date": null
    },
    {
      "name": "NISHI HALAL FOOD",
      "name_kana": "ニシハラールフード",
      "business_type": "② 食肉販売業（包装済みの食肉のみの販売）",
      "address": "千葉県鎌ケ谷市くぬぎ山5-2-1 伊藤ビル101",
      "lat": 35.782718,
      "lng": 139.97605,
      "geocoding_level": null,
      "phone": "08049423824",
      "license_no": "",
      "license_date": null,
      "expire_date": null
    },
    {
      "name": "NISHI HALAL FOOD",
      "name_kana": "ニシハラールフード",
      "business_type": "⑥ 弁当販売業",
      "address": "千葉県鎌ケ谷市くぬぎ山5-2-1 伊藤ビル101",
      "lat": 35.782718,
      "lng": 139.97605,
      "geocoding_level": null,
      "phone": "08049423824",
      "license_no": "",
      "license_date": null,
      "expire_date": null
    },
    {
      "name": "NISHI HALAL FOOD",
      "name_kana": "ニシハラールフード",
      "business_type": "⑧ 米穀類販売業",
      "address": "千葉県鎌ケ谷市くぬぎ山5-2-1 伊藤ビル101",
      "lat": 35.782718,
      "lng": 139.97605,
      "geocoding_level": null,
      "phone": "08049423824",
      "license_no": "",
      "license_date": null,
      "expire_date": null
    },
    {
      "name": "NISHI HALAL FOOD",
      "name_kana": "ニシハラールフード",
      "business_type": "⑬ その他の食料・飲料販売業",
      "address": "千葉県鎌ケ谷市くぬぎ山5-2-1 伊藤ビル101",
      "lat": 35.782718,
      "lng": 139.97605,
      "geocoding_level": null,
      "phone": "08049423824",
      "license_no": "",
      "license_date": null,
      "expire_date": null
    },
    {
      "name": "ジェット　ストローク",
      "name_kana": "ジェットストローク",
      "business_type": "① 飲食店営業",
      "address": "千葉県鎌ケ谷市初富１７８－２",
      "lat": 35.785986,
      "lng": 139.987468,
      "geocoding_level": null,
      "phone": "047-446-5557",
      "license_no": "20210460",
      "license_date": "2022-01-11",
      "expire_date": "2028-01-31"
    },
    {
      "name": "ncafe+tsubomi",
      "name_kana": "エヌカフェツボミ",
      "business_type": "㉔ その他の食料品製造・加工業",
      "address": "千葉県鎌ケ谷市初富本町1-5-1",
      "lat": 35.773265,
      "lng": 139.998296,
      "geocoding_level": null,
      "phone": "",
      "license_no": "",
      "license_date": null,
      "expire_date": null
    },
    {
      "name": "ｎ*ｃａｆｅ",
      "name_kana": "エヌカフェ",
      "business_type": "⑪ 菓子製造業",
      "address": "千葉県鎌ケ谷市初富本町１－５－１ 小川店舗１階",
      "lat": 35.773265,
      "lng": 139.998296,
      "geocoding_level": null,
      "phone": "",
      "license_no": "20210063",
      "license_date": "2022-03-14",
      "expire_date": "2028-04-30"
    },
    {
      "name": "マンマパスタ新鎌ヶ谷店",
      "name_kana": "マンマパスタシンカマガヤテン",
      "business_type": "① 飲食店営業",
      "address": "千葉県鎌ケ谷市新鎌ケ谷２丁目５−２４",
      "lat": 35.775795,
      "lng": 140.001079,
      "geocoding_level": null,
      "phone": "047-443-7621",
      "license_no": "20230123",
      "license_date": "2023-06-20",
      "expire_date": "2029-07-31"
    },
    {
      "name": "新富飯店",
      "name_kana": "シントミハンテン",
      "business_type": "① 飲食店営業",
      "address": "千葉県鎌ケ谷市東初富４－３６－１０",
      "lat": 35.763428,
      "lng": 140.009652,
      "geocoding_level": null,
      "phone": "",
      "license_no": "20210481",
      "license_date": "2022-01-31",
      "expire_date": "2028-02-29"
    },
    {
      "name": "一休分店",
      "name_kana": "イッキュウブンテン",
      "business_type": "① 飲食店営業",
      "address": "千葉県鎌ケ谷市富岡２－５－２０",
      "lat": 35.767119,
      "lng": 140.002094,
      "geocoding_level": null,
      "phone": "",
      "license_no": "20210487",
      "license_date": "2022-01-31",
      "expire_date": "2028-02-29"
    },
    {
      "name": "マクドナルド　新鎌ケ谷駅前店",
      "name_kana": "マクドナルドシンカマガヤエキマエテン",
      "business_type": "① 飲食店営業",
      "address": "千葉県鎌ケ谷市新鎌ケ谷２－９－１",
      "lat": 35.779958,
      "lng": 139.999624,
      "geocoding_level": null,
      "phone": "047-441-0746",
      "license_no": "20220358",
      "license_date": "2022-11-17",
      "expire_date": "2028-12-31"
    },
    {
      "name": "マクドナルド　新鎌ケ谷駅前店",
      "name_kana": "マクドナルドシンカマガヤエキマエテン",
      "business_type": "③ 乳類販売業",
      "address": "千葉県鎌ケ谷市新鎌ケ谷２－９－１",
      "lat": 35.779958,
      "lng": 139.999624,
      "geocoding_level": null,
      "phone": "047-441-0746",
      "license_no": "",
      "license_date": null,
      "expire_date": null
    },
    {
      "name": "マクドナルド　464鎌ヶ谷店",
      "name_kana": "マクドナルドヨンロクヨンカマガヤテン",
      "business_type": "① 飲食店営業",
      "address": "千葉県鎌ケ谷市中央１丁目8番13号",
      "lat": 35.773738,
      "lng": 140.000706,
      "geocoding_level": null,
      "phone": "047-445-3211",
      "license_no": "20240331",
      "license_date": "2024-11-25",
      "expire_date": "2030-12-31"
    },
    {
      "name": "マクドナルド　464鎌ヶ谷店",
      "name_kana": "マクドナルドヨンロクヨンカマガヤテン",
      "business_type": "③ 乳類販売業",
      "address": "千葉県鎌ケ谷市中央１丁目8番13号",
      "lat": 35.773738,
      "lng": 140.000706,
      "geocoding_level": null,
      "phone": "047-445-3211",
      "license_no": "",
      "license_date": null,
      "expire_date": null
    },
    {
      "name": "アール元気アクロスモール新鎌ヶ谷店",
      "name_kana": "アールゲンキアクロスモールシンカマガヤテン",
      "business_type": "① 飲食店営業",
      "address": "千葉県鎌ケ谷市新鎌ケ谷２－１２－１ アクロスモール１Ｆ",
      "lat": 35.780728,
      "lng": 140.001122,
      "geocoding_level": null,
      "phone": "047-404-3804",
      "license_no": "20210496",
      "license_date": "2022-02-01",
      "expire_date": "2028-02-29"
    },
    {
      "name": "アール元気アクロスモール新鎌ヶ谷店",
      "name_kana": "アールゲンキアクロスモールシンカマガヤテン",
      "business_type": "④ 魚介類販売業",
      "address": "千葉県鎌ケ谷市新鎌ケ谷２－１２－１ アクロスモール１Ｆ",
      "lat": 35.780728,
      "lng": 140.001122,
      "geocoding_level": null,
      "phone": "047-404-3804",
      "license_no": "20210011",
      "license_date": "2022-02-01",
      "expire_date": "2028-02-29"
    },
    {
      "name": "たぬき",
      "name_kana": "タヌキ",
      "business_type": "① 飲食店営業",
      "address": "千葉県鎌ケ谷市東中沢２－２４－２７",
      "lat": 35.77037,
      "lng": 139.990008,
      "geocoding_level": null,
      "phone": "",
      "license_no": "20210499",
      "license_date": "2022-02-01",
      "expire_date": "2028-02-29"
    },
    {
      "name": "中国料理　香満楼",
      "name_kana": "シャンマンロウ",
      "business_type": "① 飲食店営業",
      "address": "千葉県鎌ケ谷市新鎌ケ谷１－１７－２",
      "lat": 35.780061,
      "lng": 139.9991,
      "geocoding_level": null,
      "phone": "047-442-7728",
      "license_no": "20210495",
      "license_date": "2022-02-08",
      "expire_date": "2028-02-29"
    },
    {
      "name": "Ｎｏｍａｄ　Ｃｏｆｆｅｅ",
      "name_kana": "ノーマッドコーヒー",
      "business_type": "⑯ コーヒー製造・加工業（飲料の製造を除く。）",
      "address": "千葉県鎌ケ谷市富岡１－６－３７ ペアーブラッサムＬ１０２（県内一円）",
      "lat": 35.768088,
      "lng": 140.0003,
      "geocoding_level": null,
      "phone": "090-4367-2262",
      "license_no": "",
      "license_date": null,
      "expire_date": null
    },
    {
      "name": "喫茶ニューフジコ　ギャラリー＆キッチン",
      "name_kana": "キッサニューフジコギャラリーアンドキッチン",
      "business_type": "① 飲食店営業",
      "address": "千葉県鎌ケ谷市初富本町２－８－３４",
      "lat": 35.772143,
      "lng": 139.998205,
      "geocoding_level": null,
      "phone": "",
      "license_no": "20210508",
      "license_date": "2022-02-15",
      "expire_date": "2028-02-29"
    },
    {
      "name": "喫茶ニューフジコ　ギャラリー＆キッチン",
      "name_kana": "ニューフジコ",
      "business_type": "⑪ 菓子製造業",
      "address": "千葉県鎌ケ谷市初富本町２－８－３４",
      "lat": 35.772143,
      "lng": 139.998205,
      "geocoding_level": null,
      "phone": "",
      "license_no": "20210058",
      "license_date": "2022-02-21",
      "expire_date": "2028-02-29"
    },
    {
      "name": "セブン－イレブン　鎌ヶ谷軽井沢店",
      "name_kana": "セブンイレブンカマガヤカルイザワテン",
      "business_type": "① 飲食店営業",
      "address": "千葉県鎌ケ谷市軽井沢１９８３－６８",
      "lat": 35.784681,
      "lng": 140.016361,
      "geocoding_level": null,
      "phone": "047-446-5551",
      "license_no": "20210511",
      "license_date": "2022-02-18",
      "expire_date": "2028-02-29"
    },
    {
      "name": "セブンーイレブン　鎌ケ谷軽井沢店",
      "name_kana": "セブンイレブンカマガヤカルイザワテン",
      "business_type": "⑩ コンビニエンスストア",
      "address": "千葉県鎌ケ谷市軽井沢１９８３－６８",
      "lat": 35.784681,
      "lng": 140.016361,
      "geocoding_level": null,
      "phone": "047-446-5551",
      "license_no": "",
      "license_date": null,
      "expire_date": null
    },
    {
      "name": "さわやかプラザ軽井沢",
      "name_kana": "サワヤカプラザカルイザワ",
      "business_type": "① 飲食店営業",
      "address": "千葉県鎌ケ谷市軽井沢２１０６－６",
      "lat": 35.796469,
      "lng": 140.026489,
      "geocoding_level": null,
      "phone": "",
      "license_no": "20210510",
      "license_date": "2022-02-18",
      "expire_date": "2029-02-28"
    },