{
  "meta": {
    "updated": 1783568789,
    "sources": [
      {
        "source": "厚生労働省 食品衛生申請等システム（オープンデータ）",
        "license": "公共データ利用規約（第1.0版, PDL1.0）"
      }
    ]
  },
  "data": [
    {
      "name": "MEGAドン・キホーテ小松島",
      "name_kana": "メガ・ドン・キホーテコマツジマ",
      "business_type": "⑤ コップ式自動販売機（自動洗浄・屋内設置）",
      "address": "徳島県小松島市小松島町領田２０",
      "lat": 34.005372,
      "lng": 134.571799,
      "geocoding_level": null,
      "phone": "",
      "license_no": "",
      "license_date": null,
      "expire_date": null
    },
    {
      "name": "くすりのレデイ　羽ノ浦店",
      "name_kana": "クスリノレデイ　ハノウラテン",
      "business_type": "③ 乳類販売業",
      "address": "徳島県小松島市大林町字高橋51番地1",
      "lat": 33.966046,
      "lng": 134.619969,
      "geocoding_level": null,
      "phone": "0885-34-9221",
      "license_no": "",
      "license_date": null,
      "expire_date": null
    },
    {
      "name": "くすりのレデイ　羽ノ浦店",
      "name_kana": "クスリノレデイ　ハノウラテン",
      "business_type": "⑤ コップ式自動販売機（自動洗浄・屋内設置）",
      "address": "徳島県小松島市大林町字高橋51番地1",
      "lat": 33.966046,
      "lng": 134.619969,
      "geocoding_level": null,
      "phone": "0885-34-9221",
      "license_no": "",
      "license_date": null,
      "expire_date": null
    },
    {
      "name": "くすりのレデイ　小松島店",
      "name_kana": "クスリノレデイ　コマツジマテン",
      "business_type": "③ 乳類販売業",
      "address": "徳島県小松島市小松島町字若井崎１０番地８",
      "lat": 34.013666,
      "lng": 134.580046,
      "geocoding_level": null,
      "phone": "0885-38-6202",
      "license_no": "",
      "license_date": null,
      "expire_date": null
    },
    {
      "name": "くすりのレデイ　江田店",
      "name_kana": "クスリノレデイ　エダテン",
      "business_type": "③ 乳類販売業",
      "address": "徳島県小松島市中田町出口26番地",
      "lat": 34.015688,
      "lng": 134.568098,
      "geocoding_level": null,
      "phone": "0885-38-6006",
      "license_no": "",
      "license_date": null,
      "expire_date": null
    },
    {
      "name": "くすりのレデイ　江田店",
      "name_kana": "クスリノレデイ　エダテン",
      "business_type": "⑤ コップ式自動販売機（自動洗浄・屋内設置）",
      "address": "徳島県小松島市中田町出口26番地",
      "lat": 34.015688,
      "lng": 134.568098,
      "geocoding_level": null,
      "phone": "0885-38-6006",
      "license_no": "",
      "license_date": null,
      "expire_date": null
    },
    {
      "name": "くすりのレデイ　大林店",
      "name_kana": "クスリノレデイ　オオバヤシテン",
      "business_type": "③ 乳類販売業",
      "address": "徳島県小松島市大林町字宮ノ本82番地1",
      "lat": 33.97578,
      "lng": 134.615075,
      "geocoding_level": null,
      "phone": "0885-38-9115",
      "license_no": "",
      "license_date": null,
      "expire_date": null
    },
    {
      "name": "くすりのレデイ　大林店",
      "name_kana": "クスリノレデイ　オオバヤシテン",
      "business_type": "⑤ コップ式自動販売機（自動洗浄・屋内設置）",
      "address": "徳島県小松島市大林町字宮ノ本82番地1",
      "lat": 33.97578,
      "lng": 134.615075,
      "geocoding_level": null,
      "phone": "0885-38-9115",
      "license_no": "",
      "license_date": null,
      "expire_date": null
    },
    {
      "name": "コーナン徳島小松島店",
      "name_kana": "コーナントクシマコマツシマテン",
      "business_type": "⑪ 百貨店、総合スーパー",
      "address": "徳島県小松島市小松島町字房浜１番地1",
      "lat": 34.012201,
      "lng": 134.581357,
      "geocoding_level": null,
      "phone": "0885-35-2320",
      "license_no": "",
      "license_date": null,
      "expire_date": null
    },
    {
      "name": "ファミリーマート小松島松島町店",
      "name_kana": "ファミリーマートコマツシママツシマチョウテン",
      "business_type": "① 飲食店営業",
      "address": "徳島県小松島市松島町字松島４９番１",
      "lat": 34.007988,
      "lng": 134.583727,
      "geocoding_level": null,
      "phone": "0885-33-1505",
      "license_no": "45340",
      "license_date": "2022-09-01",
      "expire_date": "2027-10-31"
    },
    {
      "name": "ファミリーマート小松島松島町店",
      "name_kana": "ファミリーマートコマツシママツシマチョウテン",
      "business_type": "⑩ コンビニエンスストア",
      "address": "徳島県小松島市松島町字松島４９番１",
      "lat": 34.007988,
      "lng": 134.583727,
      "geocoding_level": null,
      "phone": "0885-33-1505",
      "license_no": "",
      "license_date": null,
      "expire_date": null
    },
    {
      "name": "ファミリーマート小松島横須店",
      "name_kana": "ファミリーマートコマツシマヨコステン",
      "business_type": "① 飲食店営業",
      "address": "徳島県小松島市横須町８－４６",
      "lat": 34.002426,
      "lng": 134.594077,
      "geocoding_level": null,
      "phone": "0885-35-0322",
      "license_no": "45650",
      "license_date": "2025-01-20",
      "expire_date": "2030-01-31"
    },
    {
      "name": "ファミリーマート小松島横須店",
      "name_kana": "ファミリーマートコマツシマヨコステン",
      "business_type": "⑩ コンビニエンスストア",
      "address": "徳島県小松島市横須町８－４６",
      "lat": 34.002426,
      "lng": 134.594077,
      "geocoding_level": null,
      "phone": "0885-35-0322",
      "license_no": "",
      "license_date": null,
      "expire_date": null
    },
    {
      "name": "ダイナム徳島小松島店",
      "name_kana": "ダイナムトクシマコマツシマテン",
      "business_type": "⑤ コップ式自動販売機（自動洗浄・屋内設置）",
      "address": "徳島県小松島市中郷町字露ケ本21-1",
      "lat": 34.009077,
      "lng": 134.568351,
      "geocoding_level": null,
      "phone": "070-1455-7758",
      "license_no": "",
      "license_date": null,
      "expire_date": null
    },
    {
      "name": "キョーエイ小松島店　清流物語",
      "name_kana": "キョーエイコマツジマテン　セイリュウモノガタリ",
      "business_type": "⑫ 自動販売機による販売業（コップ式自動販売機（自動洗浄・屋内設置）及び営業許可の対象となる自動販売機を除く）",
      "address": "徳島県小松島市小松島町字若井崎10-1",
      "lat": 34.012923,
      "lng": 134.579851,
      "geocoding_level": null,
      "phone": "",
      "license_no": "",
      "license_date": null,
      "expire_date": null
    },
    {
      "name": "キョーエイルピア店　清流物語",
      "name_kana": "キョーエイルピアテン　セイリュウモノガタリ",
      "business_type": "⑫ 自動販売機による販売業（コップ式自動販売機（自動洗浄・屋内設置）及び営業許可の対象となる自動販売機を除く）",
      "address": "徳島県小松島市小松島町字領田20番地",
      "lat": 34.005252,
      "lng": 134.572313,
      "geocoding_level": null,
      "phone": "",
      "license_no": "",
      "license_date": null,
      "expire_date": null
    },
    {
      "name": "クスリキリン堂　小松島店",
      "name_kana": "クスリキリンドウ　コマツジマテン",
      "business_type": "② 食肉販売業（包装済みの食肉のみの販売）",
      "address": "徳島県小松島市中田町字原ノ下2-1",
      "lat": 34.013649,
      "lng": 134.577582,
      "geocoding_level": null,
      "phone": "0885-35-1015",
      "license_no": "",
      "license_date": null,
      "expire_date": null
    },
    {
      "name": "クスリキリン堂　小松島店",
      "name_kana": "クスリキリンドウ　コマツジマテン",
      "business_type": "③ 乳類販売業",
      "address": "徳島県小松島市中田町字原ノ下2-1",
      "lat": 34.013649,
      "lng": 134.577582,
      "geocoding_level": null,
      "phone": "0885-35-1015",
      "license_no": "",
      "license_date": null,
      "expire_date": null
    },
    {
      "name": "クスリキリン堂　小松島店",
      "name_kana": "クスリキリンドウ　コマツジマテン",
      "business_type": "⑬ その他の食料・飲料販売業",
      "address": "徳島県小松島市中田町字原ノ下2-1",
      "lat": 34.013649,
      "lng": 134.577582,
      "geocoding_level": null,
      "phone": "0885-35-1015",
      "license_no": "",
      "license_date": null,
      "expire_date": null
    },
    {
      "name": "ドン・キホーテ小松島ルピア店",
      "name_kana": "ドン・キホーテコマツシマルピアテン",
      "business_type": "⑪ 百貨店、総合スーパー",
      "address": "徳島県小松島市小松島町字領田20番地 小松島ショッピングプラザルピア　1・2F区画",
      "lat": 34.005252,
      "lng": 134.572313,
      "geocoding_level": null,
      "phone": "0570-00-7080",
      "license_no": "",
      "license_date": null,
      "expire_date": null
    },
    {
      "name": "カフェ＆ショップ　Ｌｗｃ",
      "name_kana": "カフェアンドショップ　エルダブリューシー",
      "business_type": "⑬ その他の食料・飲料販売業",
      "address": "徳島県小松島市中田町字内開１８番地１",
      "lat": 34.01413,
      "lng": 134.580456,
      "geocoding_level": null,
      "phone": "090-2782-6486",
      "license_no": "",
      "license_date": null,
      "expire_date": null
    },
    {
      "name": "美馬珈琲",
      "name_kana": "ミマコーヒー",
      "business_type": "⑯ コーヒー製造・加工業（飲料の製造を除く。）",
      "address": "徳島県小松島市和田島町字遠見35番地の11",
      "lat": 34.006593,
      "lng": 134.630513,
      "geocoding_level": null,
      "phone": "0885373988",
      "license_no": "",
      "license_date": null,
      "expire_date": null
    },
    {
      "name": "千歳産業",
      "name_kana": "チトセサンギョウ",
      "business_type": "③ 乳類販売業",
      "address": "徳島県小松島市中田町新開29-2",
      "lat": 34.013916,
      "lng": 134.581999,
      "geocoding_level": null,
      "phone": "",
      "license_no": "",
      "license_date": null,
      "expire_date": null
    },
    {
      "name": "おおざと薬局",
      "name_kana": "オオザトヤッキョク",
      "business_type": "③ 乳類販売業",
      "address": "徳島県小松島市坂野町平田21-5",
      "lat": 33.981018,
      "lng": 134.633438,
      "geocoding_level": null,
      "phone": "",
      "license_no": "",
      "license_date": null,
      "expire_date": null
    },
    {
      "name": "医療法人メディカルケア",
      "name_kana": "イリョウホウジンメディカルケア",
      "business_type": "③ 乳類販売業",
      "address": "徳島県小松島市中田町新開48",
      "lat": 34.013261,
      "lng": 134.583546,
      "geocoding_level": null,
      "phone": "",
      "license_no": "",
      "license_date": null,
      "expire_date": null
    },
    {
      "name": "小松島病院1F",
      "name_kana": "コマツシマビョウインイチエフ",
      "business_type": "③ 乳類販売業",
      "address": "徳島県小松島市小松島市田浦町近里83-11",
      "lat": 34.003118,
      "lng": 134.568912,
      "geocoding_level": null,
      "phone": "",
      "license_no": "",
      "license_date": null,
      "expire_date": null
    },
    {
      "name": "ライフクリニック",
      "name_kana": "ライフクリニック",
      "business_type": "③ 乳類販売業",
      "address": "徳島県小松島市赤石町14-27",
      "lat": 33.980204,
      "lng": 134.611103,
      "geocoding_level": null,
      "phone": "",
      "license_no": "",
      "license_date": null,
      "expire_date": null
    },
    {
      "name": "湯処あらたえ小松島店",
      "name_kana": "ユドコロアラタエコマツシマテン",
      "business_type": "③ 乳類販売業",
      "address": "徳島県小松島市立江町黒岩13番地1",
      "lat": 33.976642,
      "lng": 134.605592,
      "geocoding_level": null,
      "phone": "0885-38-2611",
      "license_no": "",
      "license_date": null,
      "expire_date": null
    },
    {
      "name": "湯処あらたえ小松島店",
      "name_kana": "ユドコロアラタエコマツシマテン",
      "business_type": "⑬ その他の食料・飲料販売業",
      "address": "徳島県小松島市立江町黒岩13番地1",
      "lat": 33.976642,
      "lng": 134.605592,
      "geocoding_level": null,
      "phone": "0885-38-2611",
      "license_no": "",
      "license_date": null,
      "expire_date": null
    },
    {
      "name": "ｏｄｅｎ",
      "name_kana": "オデン",
      "business_type": "① 飲食店営業",
      "address": "徳島県小松島市金磯町９番１０号 コーポＶ１Ｆ",
      "lat": 33.99269,
      "lng": 134.604122,
      "geocoding_level": null,
      "phone": "08062830830",
      "license_no": "45143",
      "license_date": "2021-06-03",
      "expire_date": "2026-07-31"
    },
    {
      "name": "みそのファーム",
      "name_kana": "ミソノファーム",
      "business_type": "① 飲食店営業",
      "address": "徳島県小松島市櫛淵町字中田１１７",
      "lat": 33.955759,
      "lng": 134.575055,
      "geocoding_level": null,
      "phone": "0885-37-0315",
      "license_no": "45160",
      "license_date": "2021-06-14",
      "expire_date": "2026-07-31"
    },
    {
      "name": "ガスト 小松島店",
      "name_kana": "ガストコマツシマテン",
      "business_type": "⑬ その他の食料・飲料販売業",
      "address": "徳島県小松島市日開野町勝久４－２",
      "lat": 34.004557,
      "lng": 134.570823,
      "geocoding_level": null,
      "phone": "0885-35-0252",
      "license_no": "",
      "license_date": null,
      "expire_date": null
    },
    {
      "name": "イーティーズ小松島江田店",
      "name_kana": "イーティーズコマツジマエダテン",
      "business_type": "① 飲食店営業",
      "address": "徳島県小松島市江田町字腰前３３番地 ダイレックス小松島江田店内",
      "lat": 34.019114,
      "lng": 134.565492,
      "geocoding_level": null,
      "phone": "0885-38-7117",
      "license_no": "45732",
      "license_date": "2026-03-17",
      "expire_date": "2031-04-30"
    },
    {
      "name": "ディオ小松島店（パクパク）",
      "name_kana": "ディオコマツシマテン　パクパク",
      "business_type": "① 飲食店営業",
      "address": "徳島県小松島市立江町字青森１番２",
      "lat": 33.977717,
      "lng": 134.609889,
      "geocoding_level": null,
      "phone": "",
      "license_no": "47126",
      "license_date": "2025-04-01",
      "expire_date": "2030-04-30"
    },
    {
      "name": "ディオ小松島店（鮮魚）",
      "name_kana": "ディオコマツシマテン　センギョ",
      "business_type": "① 飲食店営業",
      "address": "徳島県小松島市立江町字青森１番２",
      "lat": 33.977717,
      "lng": 134.609889,
      "geocoding_level": null,
      "phone": "",
      "license_no": "47123",
      "license_date": "2025-04-01",
      "expire_date": "2030-04-30"
    },
    {
      "name": "ディオ小松島店（鮮魚）",
      "name_kana": "ディオコマツシマテン　センギョ",
      "business_type": "④ 魚介類販売業",
      "address": "徳島県小松島市立江町字青森１番２",
      "lat": 33.977717,
      "lng": 134.609889,
      "geocoding_level": null,
      "phone": "",
      "license_no": "47125",
      "license_date": "2025-04-01",
      "expire_date": "2030-04-30"
    },
    {
      "name": "ディオ小松島店",
      "name_kana": "ディオコマツシマテン",
      "business_type": "③ 食肉販売業",
      "address": "徳島県小松島市立江町字青森１番２",
      "lat": 33.977717,
      "lng": 134.609889,
      "geocoding_level": null,
      "phone": "",
      "license_no": "47124",
      "license_date": "2025-04-01",
      "expire_date": "2030-04-30"
    },
    {
      "name": "株式会社ハローズ江田店",
      "name_kana": "カブシキガイシャハローズエダテン",
      "business_type": "⑪ 百貨店、総合スーパー",
      "address": "徳島県小松島市江田町腰前53番地",
      "lat": 34.015978,
      "lng": 134.567723,
      "geocoding_level": null,
      "phone": "0885-35-1186",
      "license_no": "",
      "license_date": null,
      "expire_date": null
    },
    {
      "name": "株式会社ハローズ大林店",
      "name_kana": "カブシキガイシャハローズオオバヤシテン",
      "business_type": "⑪ 百貨店、総合スーパー",
      "address": "徳島県小松島市大林町字宮ノ本85番地2",
      "lat": 33.975553,
      "lng": 134.61468,
      "geocoding_level": null,
      "phone": "088-623-0086",
      "license_no": "",
      "license_date": null,
      "expire_date": null
    },
    {
      "name": "株式会社ハローズ江田店",
      "name_kana": "カブシキカイシャハローズエダテン",
      "business_type": "③ 乳類販売業",
      "address": "徳島県小松島市江田町腰前５３番地",
      "lat": 34.015978,
      "lng": 134.567723,
      "geocoding_level": null,
      "phone": "0885-35-1186",
      "license_no": "",
      "license_date": null,
      "expire_date": null
    },
    {
      "name": "株式会社ハローズ江田店",
      "name_kana": "カブシキカイシャハローズエダテン",
      "business_type": "⑤ コップ式自動販売機（自動洗浄・屋内設置）",
      "address": "徳島県小松島市江田町腰前５３番地",
      "lat": 34.015978,
      "lng": 134.567723,
      "geocoding_level": null,
      "phone": "0885-35-1186",
      "license_no": "",
      "license_date": null,
      "expire_date": null
    },
    {
      "name": "株式会社ハローズ大林店",
      "name_kana": "カブシキガイシャハローズオオバヤシテン",
      "business_type": "① 飲食店営業",
      "address": "徳島県小松島市大林町字宮ノ本８５番地２",
      "lat": 33.975553,
      "lng": 134.61468,
      "geocoding_level": null,
      "phone": "0885-35-6686",
      "license_no": "47237",
      "license_date": "2025-04-01",
      "expire_date": "2030-04-30"
    },
    {
      "name": "株式会社ハローズ大林店",
      "name_kana": "カブシキガイシャハローズオオバヤシテン",
      "business_type": "③ 食肉販売業",
      "address": "徳島県小松島市大林町字宮ノ本８５番地２",
      "lat": 33.975553,
      "lng": 134.61468,
      "geocoding_level": null,
      "phone": "0885-35-6686",
      "license_no": "47238",
      "license_date": "2025-04-01",
      "expire_date": "2030-04-30"
    },
    {
      "name": "株式会社ハローズ大林店",
      "name_kana": "カブシキガイシャハローズオオバヤシテン",
      "business_type": "④ 魚介類販売業",
      "address": "徳島県小松島市大林町字宮ノ本８５番地２",
      "lat": 33.975553,
      "lng": 134.61468,
      "geocoding_level": null,
      "phone": "0885-35-6686",
      "license_no": "47239",
      "license_date": "2025-04-01",
      "expire_date": "2030-04-30"
    },
    {
      "name": "株式会社ハローズ大林店",
      "name_kana": "カブシキガイシャハローズオオバヤシテン",
      "business_type": "⑪ 菓子製造業",
      "address": "徳島県小松島市大林町字宮ノ本８５番地２",
      "lat": 33.975553,
      "lng": 134.61468,
      "geocoding_level": null,
      "phone": "0885-35-6686",
      "license_no": "47240",
      "license_date": "2025-04-01",
      "expire_date": "2030-04-30"
    },
    {
      "name": "株式会社ハローズ　大林店",
      "name_kana": "カブシキガイシャハローズ　オオバヤシテン",
      "business_type": "③ 乳類販売業",
      "address": "徳島県小松島市大林町字宮ノ本８５番地２",
      "lat": 33.975553,
      "lng": 134.61468,
      "geocoding_level": null,
      "phone": "0885-35-6686",
      "license_no": "",
      "license_date": null,
      "expire_date": null
    },
    {
      "name": "株式会社　日新",
      "name_kana": "カブシキガイシャ　ニッシン",
      "business_type": "⑤ コップ式自動販売機（自動洗浄・屋内設置）",
      "address": "徳島県小松島市横須町5-38",
      "lat": 34.003847,
      "lng": 134.596728,
      "geocoding_level": null,
      "phone": "",
      "license_no": "",
      "license_date": null,
      "expire_date": null
    },
    {
      "name": "特別養護老人ホーム　千歳苑",
      "name_kana": "トクベツヨウゴロウジンホーム　チトセエン",
      "business_type": "⑤ コップ式自動販売機（自動洗浄・屋内設置）",
      "address": "徳島県小松島市小松島町字元根井54-1",
      "lat": 34.015287,
      "lng": 134.591151,
      "geocoding_level": null,
      "phone": "0885332040",
      "license_no": "",
      "license_date": null,
      "expire_date": null
    },
    {
      "name": "ローソン小松島立江町店",
      "name_kana": "ローソンコマツシマタツエチョウテン",
      "business_type": "① 魚介類販売業（包装済みの魚介類のみの販売）",
      "address": "徳島県小松島市立江町字馬渕２９－１",
      "lat": 33.963239,
      "lng": 134.613123,
      "geocoding_level": null,
      "phone": "",
      "license_no": "",
      "license_date": null,
      "expire_date": null
    },
    {
      "name": "ローソン小松島立江町店",
      "name_kana": "ローソンコマツシマタツエチョウテン",
      "business_type": "② 食肉販売業（包装済みの食肉のみの販売）",
      "address": "徳島県小松島市立江町字馬渕２９－１",
      "lat": 33.963239,
      "lng": 134.613123,
      "geocoding_level": null,
      "phone": "",
      "license_no": "",
      "license_date": null,
      "expire_date": null
    },
    {
      "name": "ローソン小松島立江町店",
      "name_kana": "ローソンコマツシマタツエチョウテン",
      "business_type": "③ 乳類販売業",
      "address": "徳島県小松島市立江町字馬渕２９－１",
      "lat": 33.963239,
      "lng": 134.613123,
      "geocoding_level": null,
      "phone": "",
      "license_no": "",
      "license_date": null,
      "expire_date": null
    },
    {
      "name": "ローソン小松島立江町店",
      "name_kana": "ローソンコマツシマタツエチョウテン",
      "business_type": "⑩ コンビニエンスストア",
      "address": "徳島県小松島市立江町字馬渕２９－１",
      "lat": 33.963239,
      "lng": 134.613123,
      "geocoding_level": null,
      "phone": "",
      "license_no": "",
      "license_date": null,
      "expire_date": null
    },
    {
      "name": "ローソン小松島立江町店",
      "name_kana": "ローソンコマツシマタツエチョウテン",
      "business_type": "① 飲食店営業",
      "address": "徳島県小松島市立江町字馬渕２９－１",
      "lat": 33.965014,
      "lng": 134.612001,
      "geocoding_level": null,
      "phone": "0885-35-7355",
      "license_no": "45188",
      "license_date": "2021-06-28",
      "expire_date": "2026-07-31"
    },
    {
      "name": "特別養護老人ホーム千歳苑",
      "name_kana": "トクベツヨウゴロウジンホームチトセエン",
      "business_type": "㉖ 集団給食施設",
      "address": "徳島県小松島市小松島町字元根井54番地1",
      "lat": 34.015164,
      "lng": 134.590986,
      "geocoding_level": null,
      "phone": "0885332040",
      "license_no": "",
      "license_date": null,
      "expire_date": null
    },
    {
      "name": "パブハウスセピア",
      "name_kana": "パブハウスセピア",
      "business_type": "① 飲食店営業",
      "address": "徳島県小松島市小松島町字外開１５番７号",
      "lat": 34.010107,
      "lng": 134.585896,
      "geocoding_level": null,
      "phone": "",
      "license_no": "47748",
      "license_date": "2021-07-09",
      "expire_date": "2026-07-31"
    },
    {
      "name": "（株）ぶつだんのもり",
      "name_kana": "カブシキガイシャ　ブツダンノモリ",
      "business_type": "① 飲食店営業",
      "address": "徳島県小松島市江田町字敷地前１１８－１",
      "lat": 34.020271,
      "lng": 134.557218,
      "geocoding_level": null,
      "phone": "088-669-1115",
      "license_no": "47759",
      "license_date": "2021-07-09",
      "expire_date": "2026-07-31"
    },
    {
      "name": "なかむら",
      "name_kana": "ナカムラ",
      "business_type": "⑪ 菓子製造業",
      "address": "徳島県小松島市赤石町字野神南２９１－６",
      "lat": 33.982321,
      "lng": 134.616293,
      "geocoding_level": null,
      "phone": "0885-37-1245",
      "license_no": "47770",
      "license_date": "2021-07-09",
      "expire_date": "2026-07-31"
    },
    {
      "name": "富永商店",
      "name_kana": "トミナガショウテン",
      "business_type": "① 飲食店営業",
      "address": "徳島県小松島市大林町字岩戸４０－２",
      "lat": 33.971692,
      "lng": 134.613325,
      "geocoding_level": null,
      "phone": "0885-37-1988",
      "license_no": "47750",
      "license_date": "2021-07-09",
      "expire_date": "2026-07-31"
    },
    {
      "name": "喫茶　ニジョー",
      "name_kana": "キッサ　ニジョー",
      "business_type": "① 飲食店営業",
      "address": "徳島県小松島市小松島町外開１５の１",
      "lat": 34.010352,
      "lng": 134.58623,
      "geocoding_level": null,
      "phone": "0885-32-0281",
      "license_no": "47751",
      "license_date": "2021-07-09",
      "expire_date": "2026-07-31"
    },
    {
      "name": "とらや",
      "name_kana": "トラヤ",
      "business_type": "⑪ 菓子製造業",
      "address": "徳島県小松島市小松島町字外開２８番３号",
      "lat": 34.009692,
      "lng": 134.584701,
      "geocoding_level": null,
      "phone": "0885-32-0153",
      "license_no": "47774",
      "license_date": "2021-07-09",
      "expire_date": "2026-07-31"
    },
    {
      "name": "濱醤油醸造場株式会社",
      "name_kana": "ハマショウユジョウゾウジョウカブシキガイシャ",
      "business_type": "㉚ 密封包装食品製造業",
      "address": "徳島県小松島市立江町字若松３４番地",
      "lat": 33.968441,
      "lng": 134.606253,
      "geocoding_level": null,
      "phone": "0885-37-1128",
      "license_no": "47777",
      "license_date": "2021-07-09",
      "expire_date": "2026-07-31"
    },
    {
      "name": "えびすや",
      "name_kana": "エビスヤ",
      "business_type": "① 飲食店営業",
      "address": "徳島県小松島市横須町５番１７号 小松島競輪場内",
      "lat": 34.004312,
      "lng": 134.596663,
      "geocoding_level": null,
      "phone": "090-7627-4310",
      "license_no": "47757",
      "license_date": "2021-07-09",
      "expire_date": "2026-07-31"
    },
    {
      "name": "北乃屋",
      "name_kana": "キタノヤ",
      "business_type": "㉕ そうざい製造業",
      "address": "徳島県小松島市中田町内開５－１",
      "lat": 33.953044,
      "lng": 134.576669,
      "geocoding_level": null,
      "phone": "0885-33-1154",
      "license_no": "47767",
      "license_date": "2021-07-09",
      "expire_date": "2026-07-31"
    },
    {
      "name": "中華　幸蘭",
      "name_kana": "チュウカ　コウラン",
      "business_type": "① 飲食店営業",
      "address": "徳島県小松島市金磯町９－５０",
      "lat": 33.99001,
      "lng": 134.603011,
      "geocoding_level": null,
      "phone": "0885-33-2147",
      "license_no": "47755",
      "license_date": "2021-07-09",
      "expire_date": "2026-07-31"
    },
    {
      "name": "フィッシング御影屋",
      "name_kana": "フィッシングミカゲヤ",
      "business_type": "① 飲食店営業",
      "address": "徳島県小松島市南小松島町１－２６",
      "lat": 34.005743,
      "lng": 134.590186,
      "geocoding_level": null,
      "phone": "0885-32-1030",
      "license_no": "47758",
      "license_date": "2021-07-09",
      "expire_date": "2026-07-31"
    },
    {
      "name": "特定非営利活動法人フレンドハウス",
      "name_kana": "トクテイヒエイリカツドウホウジンフレンドハウス",
      "business_type": "㉕ そうざい製造業",
      "address": "徳島県小松島市小松島町元根井５２番地６",
      "lat": 34.014522,
      "lng": 134.590887,
      "geocoding_level": null,
      "phone": "0885-33-2590",
      "license_no": "45179",
      "license_date": "2021-06-23",
      "expire_date": "2026-07-31"
    },
    {
      "name": "株式会社キョーエイ　ルピア店",
      "name_kana": "キョーエイ　ルピアテン",
      "business_type": "⑪ 百貨店、総合スーパー",
      "address": "徳島県小松島市小松島町字領田20番地",
      "lat": 34.005252,
      "lng": 134.572313,
      "geocoding_level": null,
      "phone": "",
      "license_no": "",
      "license_date": null,
      "expire_date": null
    },
    {
      "name": "にっぱち居酒屋　鳥兄弟　羽ノ浦店",
      "name_kana": "ニッパチイザカヤ　トリキョウダイ　ハノウラテン",
      "business_type": "① 飲食店営業",
      "address": "徳島県小松島市大林町字高橋１３４－１",
      "lat": 33.965488,
      "lng": 134.61876,
      "geocoding_level": null,
      "phone": "0885-38-6061",
      "license_no": "47850",
      "license_date": "2021-07-20",
      "expire_date": "2026-07-31"
    },
    {
      "name": "ファミリーマート小松島金磯",
      "name_kana": "ファミリマートコマツシマカナイソ",
      "business_type": "⑩ コンビニエンスストア",
      "address": "徳島県小松島市金磯町字南弁天前5－1",
      "lat": 33.991854,
      "lng": 134.604024,
      "geocoding_level": null,
      "phone": "",
      "license_no": "",
      "license_date": null,
      "expire_date": null
    },
    {
      "name": "ファミリーマート小松島横須",
      "name_kana": "ファミリマートコマツシマヨコス",
      "business_type": "⑩ コンビニエンスストア",
      "address": "徳島県小松島市横須町8－46",
      "lat": 34.002425,
      "lng": 134.594082,
      "geocoding_level": null,
      "phone": "0885-35-0322",
      "license_no": "",
      "license_date": null,
      "expire_date": null
    },
    {
      "name": "ユーフーズ㈱徳島工場",
      "name_kana": "ユーフーズカブトクシマコウジョウ",
      "business_type": "㉔ その他の食料品製造・加工業",
      "address": "徳島県小松島市金磯町8-90",
      "lat": 33.989984,
      "lng": 134.606143,
      "geocoding_level": null,
      "phone": "0885-34-9990",
      "license_no": "",
      "license_date": null,
      "expire_date": null
    },
    {
      "name": "花しんばり子ども園",
      "name_kana": "ハナシンバリコドモエン",
      "business_type": "㉖ 集団給食施設",
      "address": "徳島県小松島市大林町字金岡７０番地１",
      "lat": 33.979476,
      "lng": 134.614298,
      "geocoding_level": null,
      "phone": "",
      "license_no": "",
      "license_date": null,
      "expire_date": null
    },
    {
      "name": "かもめ保育園",
      "name_kana": "カモメホイクエン",
      "business_type": "㉖ 集団給食施設",
      "address": "徳島県小松島市和田島町字西林６６－１",
      "lat": 34.003635,
      "lng": 134.633551,
      "geocoding_level": null,
      "phone": "",
      "license_no": "",
      "license_date": null,
      "expire_date": null
    },
    {
      "name": "東海産　和田島加工場",
      "name_kana": "アズマカイサンワダジマカコウジョウ",
      "business_type": "⑯ 水産製品製造業",
      "address": "徳島県小松島市和田島町字遠見８５－２４３",
      "lat": 34.008793,
      "lng": 134.631057,
      "geocoding_level": null,
      "phone": "0885381662",
      "license_no": "45291",
      "license_date": "2023-07-20",
      "expire_date": "2028-07-31"
    },
    {
      "name": "ファミリーマート小松島和田島",
      "name_kana": "ファミリーマートコマツシマワダジマ",
      "business_type": "⑩ コンビニエンスストア",
      "address": "徳島県小松島市和田島町字浜塚116番地1",
      "lat": 33.994051,
      "lng": 134.636241,
      "geocoding_level": null,
      "phone": "",
      "license_no": "",
      "license_date": null,
      "expire_date": null
    },
    {
      "name": "ファミリーマート小松島大林町",
      "name_kana": "ファミリーマートコマツシマオオバヤシチョウ",
      "business_type": "⑩ コンビニエンスストア",
      "address": "徳島県小松島市大林町字森ノ本22番地1",
      "lat": 33.977013,
      "lng": 134.613019,
      "geocoding_level": null,
      "phone": "0885-35-7236",
      "license_no": "",
      "license_date": null,
      "expire_date": null
    },
    {
      "name": "ミリオン羽浦店",
      "name_kana": "ミリオンハノウラテン",
      "business_type": "⑫ 自動販売機による販売業（コップ式自動販売機（自動洗浄・屋内設置）及び営業許可の対象となる自動販売機を除く）",
      "address": "徳島県小松島市大林町字高橋46番地",
      "lat": 33.966594,
      "lng": 134.61878,
      "geocoding_level": null,
      "phone": "0885-38-0171",
      "license_no": "",
      "license_date": null,
      "expire_date": null
    },
    {
      "name": "県前保育所",
      "name_kana": "アガタマエホイクショ",
      "business_type": "㉖ 集団給食施設",
      "address": "徳島県小松島市中郷町字加藤１８－１",
      "lat": 34.007853,
      "lng": 134.571706,
      "geocoding_level": null,
      "phone": "0885-32-5081",
      "license_no": "",
      "license_date": null,
      "expire_date": null
    },
    {
      "name": "泰地保育所",
      "name_kana": "タイチホイクショ",
      "business_type": "㉖ 集団給食施設",
      "address": "徳島県小松島市中郷町字西久保４－１",
      "lat": 34.01342,
      "lng": 134.567551,
      "geocoding_level": null,
      "phone": "0885-32-9024",
      "license_no": "",
      "license_date": null,
      "expire_date": null
    },
    {
      "name": "横須保育所",
      "name_kana": "ヨコスホイクショ",
      "business_type": "㉖ 集団給食施設",
      "address": "徳島県小松島市横須町１１－７",
      "lat": 34.000931,
      "lng": 134.59402,
      "geocoding_level": null,
      "phone": "0885-32-2745",
      "license_no": "",
      "license_date": null,
      "expire_date": null
    },
    {
      "name": "立江保育所",
      "name_kana": "タツエホイクショ",
      "business_type": "㉖ 集団給食施設",
      "address": "徳島県小松島市立江町字鍋寺１０９－４",
      "lat": 33.963513,
      "lng": 134.600173,
      "geocoding_level": null,
      "phone": "0885-37-2286",
      "license_no": "",
      "license_date": null,
      "expire_date": null
    },
    {
      "name": "さかの認定こども園",
      "name_kana": "サカノニンテイコドモエン",
      "business_type": "㉖ 集団給食施設",
      "address": "徳島県小松島市坂野町字根上り１３－１",
      "lat": 33.982479,
      "lng": 134.632902,
      "geocoding_level": null,
      "phone": "0885-37-1770",
      "license_no": "",
      "license_date": null,
      "expire_date": null
    },
    {
      "name": "小松島中学校",
      "name_kana": "コマツシマチュウガッコウ",
      "business_type": "㉖ 集団給食施設",
      "address": "徳島県小松島市日開野町字弥三次3-1",
      "lat": 34.002488,
      "lng": 134.576908,
      "geocoding_level": null,
      "phone": "",
      "license_no": "",
      "license_date": null,
      "expire_date": null
    },
    {
      "name": "小松島南中学校",
      "name_kana": "コマツシマミナミチュウガッコウ",
      "business_type": "㉖ 集団給食施設",
      "address": "徳島県小松島市立江町字赤石78-2",
      "lat": 33.978165,
      "lng": 134.606304,
      "geocoding_level": null,
      "phone": "",
      "license_no": "",
      "license_date": null,
      "expire_date": null
    },
    {
      "name": "サラダ館神田瀬店",
      "name_kana": "サラダカンカンダセテン",
      "business_type": "⑬ その他の食料・飲料販売業",
      "address": "徳島県小松島市神田瀬町12-14",
      "lat": 34.006413,
      "lng": 134.577,
      "geocoding_level": null,
      "phone": "0885350007",
      "license_no": "",
      "license_date": null,
      "expire_date": null
    },
    {
      "name": "高倉米穀店",
      "name_kana": "タカクラベイコクテン",
      "business_type": "⑧ 米穀類販売業",
      "address": "徳島県小松島市横須町9-12",
      "lat": 34.002497,
      "lng": 134.593485,
      "geocoding_level": null,
      "phone": "0885320859",
      "license_no": "",
      "license_date": null,
      "expire_date": null
    },
    {
      "name": "ドラッグコスモス中田駅店",
      "name_kana": "ドラッグコスモスチュウデンエキテン",
      "business_type": "⑪ 百貨店、総合スーパー",
      "address": "徳島県小松島市中郷町西野1-26",
      "lat": 34.013306,
      "lng": 134.569496,
      "geocoding_level": null,
      "phone": "0885-35-0159",
      "license_no": "",
      "license_date": null,
      "expire_date": null
    },
    {
      "name": "ドラッグコスモス大林店",
      "name_kana": "ドラッグコスモスオオハヤシテン",
      "business_type": "⑪ 百貨店、総合スーパー",
      "address": "徳島県小松島市大林町中新田77-1",
      "lat": 33.97032,
      "lng": 134.616135,
      "geocoding_level": null,
      "phone": "0885-35-7166",
      "license_no": "",
      "license_date": null,
      "expire_date": null
    },
    {
      "name": "ドラッグコスモス芝生店",
      "name_kana": "ドラッグコスモスシボウテン",
      "business_type": "⑪ 百貨店、総合スーパー",
      "address": "徳島県小松島市芝生町96-1",
      "lat": 33.995439,
      "lng": 134.585491,
      "geocoding_level": null,
      "phone": "0885-38-9898",
      "license_no": "",
      "license_date": null,
      "expire_date": null
    },
    {
      "name": "みはらしの丘あいさい広場",
      "name_kana": "ミハラシノオカアイサイヒロバ",
      "business_type": "⑬ その他の食料・飲料販売業",
      "address": "徳島県小松島市立江町炭屋ヶ谷47-3",
      "lat": 33.976648,
      "lng": 134.603305,
      "geocoding_level": null,
      "phone": "0885-38-0112",
      "license_no": "",
      "license_date": null,
      "expire_date": null
    },
    {
      "name": "岸壁おもてなし物産店",
      "name_kana": "ガンペキオモテナシブッサンテン",
      "business_type": "⑬ その他の食料・飲料販売業",
      "address": "徳島県小松島市和田津開町字北401,401-2",
      "lat": 33.987147,
      "lng": 134.628695,
      "geocoding_level": null,
      "phone": "0884-70-5880",
      "license_no": "",
      "license_date": null,
      "expire_date": null
    },
    {
      "name": "岸壁おもてなし物産店",
      "name_kana": "ガンペキオモテナシブッサンテン",
      "business_type": "⑬ その他の食料・飲料販売業",
      "address": "徳島県小松島市和田津開町字北401、401-2",
      "lat": 33.987147,
      "lng": 134.628695,
      "geocoding_level": null,
      "phone": "0884-70-5880",
      "license_no": "",
      "license_date": null,
      "expire_date": null
    },
    {
      "name": "大丈夫ネコ",
      "name_kana": "ダイジョウブネコ",
      "business_type": "㉔ その他の食料品製造・加工業",
      "address": "徳島県小松島市大林町字岩戸18-33",
      "lat": 33.973304,
      "lng": 134.613123,
      "geocoding_level": null,
      "phone": "09051407999",
      "license_no": "",
      "license_date": null,
      "expire_date": null
    },
    {
      "name": "ローソン小松島日開野町店",
      "name_kana": "ローソンコマツシマヒガイノチョウテン",
      "business_type": "⑩ コンビニエンスストア",
      "address": "徳島県小松島市日開野町字勝久23-1",
      "lat": 34.003581,
      "lng": 134.56963,
      "geocoding_level": null,
      "phone": "0885327655",
      "license_no": "",
      "license_date": null,
      "expire_date": null
    },
    {
      "name": "ロゼッタカフェカンパニー",
      "name_kana": "ロゼッタカフェカンパニー",
      "business_type": "⑯ コーヒー製造・加工業（飲料の製造を除く。）",
      "address": "徳島県小松島市堀川町2-4",
      "lat": 34.005967,
      "lng": 134.584517,
      "geocoding_level": null,
      "phone": "",
      "license_no": "",
      "license_date": null,
      "expire_date": null
    },
    {
      "name": "ギフトのデパート　まるふく",
      "name_kana": "ギフトノデパートマルフク",
      "business_type": "⑬ その他の食料・飲料販売業",
      "address": "徳島県小松島市小松島市5-28",
      "lat": 34.011676,
      "lng": 134.586667,
      "geocoding_level": null,
      "phone": "0885325271",
      "license_no": "",
      "license_date": null,
      "expire_date": null
    },
    {
      "name": "セーミフーズ株式会社　赤石南工場",
      "name_kana": "セーミフーズカブシキガイシャ　アカイシミナミコウジョウ",
      "business_type": "⑨ 食肉処理業",
      "address": "徳島県小松島市田野町字赤石南３６２番１号",
      "lat": 33.985057,
      "lng": 134.5905,
      "geocoding_level": null,
      "phone": "0885-32-8938",
      "license_no": "47775",
      "license_date": "2021-07-09",
      "expire_date": "2026-07-31"
    },
    {
      "name": "tbb coffee",
      "name_kana": "ティー・ビー・ビー・コーヒー",
      "business_type": "㉑ 製茶業",
      "address": "徳島県小松島市坂野町字島の内１１２番地",
      "lat": 33.977251,
      "lng": 134.630164,
      "geocoding_level": null,
      "phone": "050-3558-2162",
      "license_no": "",
      "license_date": null,
      "expire_date": null
    },
    {
      "name": "cafe cotori",
      "name_kana": "カフェ　コトリ",
      "business_type": "⑯ コーヒー製造・加工業（飲料の製造を除く。）",
      "address": "徳島県小松島市小松島町字外開28-23",
      "lat": 34.009922,
      "lng": 134.584823,
      "geocoding_level": null,
      "phone": "",
      "license_no": "",
      "license_date": null,
      "expire_date": null
    },
    {
      "name": "KOMATUSIMA COFFEE",
      "name_kana": "コマツシマ コーヒー",
      "business_type": "⑯ コーヒー製造・加工業（飲料の製造を除く。）",
      "address": "徳島県小松島市田浦町西原43-4",
      "lat": 33.992764,
      "lng": 134.549977,
      "geocoding_level": null,
      "phone": "08029794107",
      "license_no": "",
      "license_date": null,
      "expire_date": null
    },
    {
      "name": "ダイレックス小松島店",
      "name_kana": "ダイレックスコマツシマテン",
      "business_type": "⑪ 百貨店、総合スーパー",
      "address": "徳島県小松島市日開野町字加々ませ3番1",
      "lat": 34.001866,
      "lng": 134.576134,
      "geocoding_level": null,
      "phone": "0885-35-0169",
      "license_no": "",
      "license_date": null,
      "expire_date": null
    },
    {
      "name": "ダイレックス小松島江田店",
      "name_kana": "ダイレックスコマツシマエダテン",
      "business_type": "⑪ 百貨店、総合スーパー",
      "address": "徳島県小松島市江田町字腰前33番地",
      "lat": 34.019114,
      "lng": 134.565492,
      "geocoding_level": null,
      "phone": "0885-34-9225",
      "license_no": "",
      "license_date": null,
      "expire_date": null
    },
    {
      "name": "アイランド・クラシック・フーズ株式会社",
      "name_kana": "アイランド・クラシック・フーズカブシキガイシャ",
      "business_type": "⑯ 水産製品製造業",
      "address": "徳島県小松島市和田島町遠見８５番地４１",
      "lat": 34.009698,
      "lng": 134.630824,
      "geocoding_level": null,
      "phone": "",
      "license_no": "45137",
      "license_date": "2024-05-24",
      "expire_date": "2029-07-31"
    },
    {
      "name": "とくし丸10号",
      "name_kana": "トクシマルジュウゴウ",
      "business_type": "① 魚介類販売業（包装済みの魚介類のみの販売）",
      "address": "徳島県小松島市和田島町浜塚9-5",
      "lat": 33.995455,
      "lng": 134.632536,
      "geocoding_level": null,
      "phone": "090-2785-5840",
      "license_no": "",
      "license_date": null,
      "expire_date": null
    },
    {
      "name": "とくし丸10号",
      "name_kana": "トクシマルジュウゴウ",
      "business_type": "② 食肉販売業（包装済みの食肉のみの販売）",
      "address": "徳島県小松島市和田島町浜塚9-5",
      "lat": 33.995455,
      "lng": 134.632536,
      "geocoding_level": null,
      "phone": "090-2785-5840",
      "license_no": "",
      "license_date": null,
      "expire_date": null
    },
    {
      "name": "とくし丸10号",
      "name_kana": "トクシマルジュウゴウ",
      "business_type": "③ 乳類販売業",
      "address": "徳島県小松島市和田島町浜塚9-5",
      "lat": 33.995455,
      "lng": 134.632536,
      "geocoding_level": null,
      "phone": "090-2785-5840",
      "license_no": "",
      "license_date": null,
      "expire_date": null
    },
    {
      "name": "餃子の王将小松島店",
      "name_kana": "ギョウザノオウショウコマツシマテン",
      "business_type": "⑬ その他の食料・飲料販売業",
      "address": "徳島県小松島市日開野町加々ませ2-4",
      "lat": 34.001681,
      "lng": 134.575302,
      "geocoding_level": null,
      "phone": "0885325163",
      "license_no": "",
      "license_date": null,
      "expire_date": null
    },
    {
      "name": "コメリハードアンドグリーン大林店",
      "name_kana": "コメリハードアンドグリーンオオハヤシテン",
      "business_type": "⑧ 米穀類販売業",
      "address": "徳島県小松島市大林町字中新田７－３",
      "lat": 33.968877,
      "lng": 134.618745,
      "geocoding_level": null,
      "phone": "0885-35-6021",
      "license_no": "",
      "license_date": null,
      "expire_date": null
    },
    {
      "name": "お弁当・お惣菜　ｉｎｏｕｅ",
      "name_kana": "オベントウ　オソウザイ　イノウエ",
      "business_type": "⑬ その他の食料・飲料販売業",
      "address": "徳島県小松島市日開野町字行地８－３１",
      "lat": 33.999779,
      "lng": 134.59051,
      "geocoding_level": null,
      "phone": "",
      "license_no": "",
      "license_date": null,
      "expire_date": null
    },
    {
      "name": "Ｃｏｍｅｃｏ　ｔｏ　Ｐａｎ",
      "name_kana": "コメコ　ト　パン",
      "business_type": "⑬ その他の食料・飲料販売業",
      "address": "徳島県小松島市小松島町字南開４３－４",
      "lat": 34.001709,
      "lng": 134.587455,
      "geocoding_level": null,
      "phone": "",
      "license_no": "",
      "license_date": null,
      "expire_date": null
    }
  ]
}
