{
  "meta": {
    "updated": 1783568789,
    "sources": [
      {
        "source": "厚生労働省 食品衛生申請等システム（オープンデータ）",
        "license": "公共データ利用規約（第1.0版, PDL1.0）"
      }
    ]
  },
  "data": [
    {
      "name": "株式会社樋渡商店",
      "name_kana": "カブシキガイシャヒワタシショウテン",
      "business_type": "⑧ 米穀類販売業",
      "address": "山形県最上郡戸沢村大字津谷５５",
      "lat": 38.739352,
      "lng": 140.187008,
      "geocoding_level": null,
      "phone": "0233-72-2515",
      "license_no": "",
      "license_date": null,
      "expire_date": null
    },
    {
      "name": "特別養護老人ホームまごころ荘",
      "name_kana": "トクベツヨウゴロウジンホームマゴコロソウ",
      "business_type": "① 飲食店営業",
      "address": "山形県最上郡戸沢村大字蔵岡野中沢前山２７５９",
      "lat": 38.726208,
      "lng": 140.18445,
      "geocoding_level": 3,
      "phone": "",
      "license_no": "1021",
      "license_date": "2024-05-20",
      "expire_date": "2030-05-31"
    },
    {
      "name": "ナカムラ",
      "name_kana": "ナカムラ",
      "business_type": "⑰ 農産保存食料品製造・加工業",
      "address": "山形県最上郡戸沢村蔵岡131",
      "lat": 38.72618,
      "lng": 140.185637,
      "geocoding_level": null,
      "phone": "0233-72-2445",
      "license_no": "",
      "license_date": null,
      "expire_date": null
    },
    {
      "name": "とざわ農楽市",
      "name_kana": "トザワノライチ",
      "business_type": "⑦ 野菜果物販売業",
      "address": "山形県最上郡戸沢村大字蔵岡３７０４－２０",
      "lat": 38.728794,
      "lng": 140.162205,
      "geocoding_level": null,
      "phone": "0233722242",
      "license_no": "",
      "license_date": null,
      "expire_date": null
    },
    {
      "name": "早坂誠也",
      "name_kana": "ハヤサカセイヤ",
      "business_type": "⑦ 野菜果物販売業",
      "address": "山形県最上郡戸沢村大字角川９３１",
      "lat": 38.670004,
      "lng": 140.147584,
      "geocoding_level": null,
      "phone": "09053947184",
      "license_no": "",
      "license_date": null,
      "expire_date": null
    },
    {
      "name": "戸沢営農センター",
      "name_kana": "トザワエイノウセンター",
      "business_type": "① 魚介類販売業（包装済みの魚介類のみの販売）",
      "address": "山形県最上郡戸沢村名高",
      "lat": 38.751136,
      "lng": 140.193873,
      "geocoding_level": null,
      "phone": "0233-72-2104",
      "license_no": "",
      "license_date": null,
      "expire_date": null
    },
    {
      "name": "戸沢営農センター",
      "name_kana": "トザワエイノウセンター",
      "business_type": "② 食肉販売業（包装済みの食肉のみの販売）",
      "address": "山形県最上郡戸沢村名高",
      "lat": 38.751136,
      "lng": 140.193873,
      "geocoding_level": null,
      "phone": "0233-72-2104",
      "license_no": "",
      "license_date": null,
      "expire_date": null
    },
    {
      "name": "戸沢営農センター",
      "name_kana": "トザワエイノウセンター",
      "business_type": "③ 乳類販売業",
      "address": "山形県最上郡戸沢村名高",
      "lat": 38.751136,
      "lng": 140.193873,
      "geocoding_level": null,
      "phone": "0233-72-2104",
      "license_no": "",
      "license_date": null,
      "expire_date": null
    },
    {
      "name": "Yショップ角川店",
      "name_kana": "ワイショップツノガワテン",
      "business_type": "① 魚介類販売業（包装済みの魚介類のみの販売）",
      "address": "山形県最上郡戸沢村角川478-2",
      "lat": 38.697293,
      "lng": 140.149975,
      "geocoding_level": null,
      "phone": "0233-73-2021",
      "license_no": "",
      "license_date": null,
      "expire_date": null
    },
    {
      "name": "Yショップ角川店",
      "name_kana": "ワイショップツノガワテン",
      "business_type": "② 食肉販売業（包装済みの食肉のみの販売）",
      "address": "山形県最上郡戸沢村角川478-2",
      "lat": 38.697293,
      "lng": 140.149975,
      "geocoding_level": null,
      "phone": "0233-73-2021",
      "license_no": "",
      "license_date": null,
      "expire_date": null
    },
    {
      "name": "Yショップ角川店",
      "name_kana": "ワイショップツノガワテン",
      "business_type": "③ 乳類販売業",
      "address": "山形県最上郡戸沢村角川478-2",
      "lat": 38.697293,
      "lng": 140.149975,
      "geocoding_level": null,
      "phone": "0233-73-2021",
      "license_no": "",
      "license_date": null,
      "expire_date": null
    },
    {
      "name": "今神温泉",
      "name_kana": "イマガミオンセン",
      "business_type": "① 飲食店営業",
      "address": "山形県最上郡戸沢村大字角川字今神山１９７６",
      "lat": 38.677013,
      "lng": 140.111888,
      "geocoding_level": 3,
      "phone": "0233732311",
      "license_no": "1098",
      "license_date": "2021-07-27",
      "expire_date": "2027-05-31"
    },
    {
      "name": "ファミリーマート最上戸沢店",
      "name_kana": "ファミリーマートモガミトザワテン",
      "business_type": "① 飲食店営業",
      "address": "山形県最上郡戸沢村大字古口字上真柄９８－１",
      "lat": 38.73814,
      "lng": 140.144448,
      "geocoding_level": 3,
      "phone": "0233729032",
      "license_no": "1022",
      "license_date": "2022-05-27",
      "expire_date": "2028-05-31"
    },
    {
      "name": "秀まる屋",
      "name_kana": "ヒデマルヤ",
      "business_type": "⑰ 農産保存食料品製造・加工業",
      "address": "山形県最上郡戸沢村蔵岡87",
      "lat": 38.725888,
      "lng": 140.187537,
      "geocoding_level": null,
      "phone": "0233-72-6272",
      "license_no": "",
      "license_date": null,
      "expire_date": null
    },
    {
      "name": "佐々木和子",
      "name_kana": "ササキカズコ",
      "business_type": "⑰ 農産保存食料品製造・加工業",
      "address": "山形県最上郡戸沢村大字角川８４１",
      "lat": 38.676484,
      "lng": 140.144861,
      "geocoding_level": null,
      "phone": "",
      "license_no": "",
      "license_date": null,
      "expire_date": null
    },
    {
      "name": "髙橋富和子",
      "name_kana": "タカハシトワコ",
      "business_type": "⑰ 農産保存食料品製造・加工業",
      "address": "山形県最上郡戸沢村大字神田５６６",
      "lat": 38.793813,
      "lng": 140.143421,
      "geocoding_level": null,
      "phone": "",
      "license_no": "",
      "license_date": null,
      "expire_date": null
    },
    {
      "name": "早坂ひろ子",
      "name_kana": "ハヤサカヒロコ",
      "business_type": "⑰ 農産保存食料品製造・加工業",
      "address": "山形県最上郡戸沢村大字神田９６７",
      "lat": 38.763464,
      "lng": 140.17767,
      "geocoding_level": null,
      "phone": "",
      "license_no": "",
      "license_date": null,
      "expire_date": null
    },
    {
      "name": "工房もも",
      "name_kana": "コウボウモモ",
      "business_type": "⑰ 農産保存食料品製造・加工業",
      "address": "山形県最上郡戸沢村大字蔵岡１５７０",
      "lat": 38.707228,
      "lng": 140.183645,
      "geocoding_level": null,
      "phone": "",
      "license_no": "",
      "license_date": null,
      "expire_date": null
    },
    {
      "name": "工房モモ",
      "name_kana": "コウボウモモ",
      "business_type": "㉙ 漬物製造業",
      "address": "山形県最上郡戸沢村大字蔵岡１５７０",
      "lat": 38.726208,
      "lng": 140.18445,
      "geocoding_level": 3,
      "phone": "0233722646",
      "license_no": "1168",
      "license_date": "2022-12-22",
      "expire_date": "2028-05-31"
    },
    {
      "name": "工房　もも",
      "name_kana": "コウボウ　モモ",
      "business_type": "㉕ そうざい製造業",
      "address": "山形県最上郡戸沢村大字蔵岡１５７０",
      "lat": 38.726208,
      "lng": 140.18445,
      "geocoding_level": 3,
      "phone": "",
      "license_no": "1005",
      "license_date": "2025-05-15",
      "expire_date": "2030-05-31"
    },
    {
      "name": "荒川正子",
      "name_kana": "アラカワマサコ",
      "business_type": "⑰ 農産保存食料品製造・加工業",
      "address": "山形県最上郡戸沢村大字岩清水１１９",
      "lat": 38.744288,
      "lng": 140.195632,
      "geocoding_level": null,
      "phone": "",
      "license_no": "",
      "license_date": null,
      "expire_date": null
    },
    {
      "name": "芦原良子",
      "name_kana": "アシハラリョウコ",
      "business_type": "⑰ 農産保存食料品製造・加工業",
      "address": "山形県最上郡戸沢村大字蔵岡１５１",
      "lat": 38.726369,
      "lng": 140.184438,
      "geocoding_level": null,
      "phone": "0233722449",
      "license_no": "",
      "license_date": null,
      "expire_date": null
    },
    {
      "name": "セブン－イレブン戸沢津谷店",
      "name_kana": "セブンイレブントザワツヤテン",
      "business_type": "① 飲食店営業",
      "address": "山形県最上郡戸沢村大字津谷鞭打野１８３０－２１５他",
      "lat": 38.739709,
      "lng": 140.18525,
      "geocoding_level": 3,
      "phone": "",
      "license_no": "1009",
      "license_date": "2025-05-15",
      "expire_date": "2031-05-31"
    },
    {
      "name": "セブン－イレブン戸沢津谷店",
      "name_kana": "セブンイレブントザワツヤテン",
      "business_type": "① 魚介類販売業（包装済みの魚介類のみの販売）",
      "address": "山形県最上郡戸沢村大字津谷鞭打野１８３０－２１５他",
      "lat": 38.736393,
      "lng": 140.192129,
      "geocoding_level": null,
      "phone": "",
      "license_no": "",
      "license_date": null,
      "expire_date": null
    },
    {
      "name": "セブン－イレブン戸沢津谷店",
      "name_kana": "セブンイレブントザワツヤテン",
      "business_type": "② 食肉販売業（包装済みの食肉のみの販売）",
      "address": "山形県最上郡戸沢村大字津谷鞭打野１８３０－２１５他",
      "lat": 38.736393,
      "lng": 140.192129,
      "geocoding_level": null,
      "phone": "",
      "license_no": "",
      "license_date": null,
      "expire_date": null
    },
    {
      "name": "セブン－イレブン戸沢津谷店",
      "name_kana": "セブンイレブントザワツヤテン",
      "business_type": "③ 乳類販売業",
      "address": "山形県最上郡戸沢村大字津谷鞭打野１８３０－２１５他",
      "lat": 38.736393,
      "lng": 140.192129,
      "geocoding_level": null,
      "phone": "",
      "license_no": "",
      "license_date": null,
      "expire_date": null
    },
    {
      "name": "戸沢のぼたもち",
      "name_kana": "トザワノボタモチ",
      "business_type": "⑪ 菓子製造業",
      "address": "山形県最上郡戸沢村大字古口３７４",
      "lat": 38.73814,
      "lng": 140.144448,
      "geocoding_level": 3,
      "phone": "0233722012",
      "license_no": "1224",
      "license_date": "2021-11-25",
      "expire_date": "2028-05-31"
    },
    {
      "name": "のぐちっ娘",
      "name_kana": "ノグチッコ",
      "business_type": "⑰ 農産保存食料品製造・加工業",
      "address": "山形県最上郡戸沢村大字松坂１１６－６",
      "lat": 38.776615,
      "lng": 140.183583,
      "geocoding_level": null,
      "phone": "",
      "license_no": "",
      "license_date": null,
      "expire_date": null
    },
    {
      "name": "食彩工房のぐちっ娘",
      "name_kana": "ショクサイコウボウノグチッコ",
      "business_type": "㉙ 漬物製造業",
      "address": "山形県最上郡戸沢村大字松坂１１６－６",
      "lat": 38.776724375,
      "lng": 140.183350198,
      "geocoding_level": 8,
      "phone": "",
      "license_no": "1264",
      "license_date": "2024-03-05",
      "expire_date": "2029-05-31"
    },
    {
      "name": "のぐちっ娘",
      "name_kana": "ノグチッコ",
      "business_type": "⑰ 農産保存食料品製造・加工業",
      "address": "山形県最上郡戸沢村大字松坂１１６－６",
      "lat": 38.776615,
      "lng": 140.183583,
      "geocoding_level": null,
      "phone": "",
      "license_no": "",
      "license_date": null,
      "expire_date": null
    },
    {
      "name": "のぐちっ娘",
      "name_kana": "ノグチッコ",
      "business_type": "⑰ 農産保存食料品製造・加工業",
      "address": "山形県最上郡戸沢村大字松坂１１６－６",
      "lat": 38.776615,
      "lng": 140.183583,
      "geocoding_level": null,
      "phone": "",
      "license_no": "",
      "license_date": null,
      "expire_date": null
    },
    {
      "name": "白糸の滝ドライブイン",
      "name_kana": "シライトノタキドライブイン",
      "business_type": "① 魚介類販売業（包装済みの魚介類のみの販売）",
      "address": "山形県最上郡戸沢村古口字土湯1496-1",
      "lat": 38.757447,
      "lng": 140.088744,
      "geocoding_level": null,
      "phone": "0234-57-2011",
      "license_no": "",
      "license_date": null,
      "expire_date": null
    },
    {
      "name": "白糸の滝ドライブイン",
      "name_kana": "シライトノタキドライブイン",
      "business_type": "② 食肉販売業（包装済みの食肉のみの販売）",
      "address": "山形県最上郡戸沢村古口字土湯1496-1",
      "lat": 38.757447,
      "lng": 140.088744,
      "geocoding_level": null,
      "phone": "0234-57-2011",
      "license_no": "",
      "license_date": null,
      "expire_date": null
    },
    {
      "name": "白糸の滝ドライブイン",
      "name_kana": "シライトノタキドライブイン",
      "business_type": "③ 乳類販売業",
      "address": "山形県最上郡戸沢村古口字土湯1496-1",
      "lat": 38.757447,
      "lng": 140.088744,
      "geocoding_level": null,
      "phone": "0234-57-2011",
      "license_no": "",
      "license_date": null,
      "expire_date": null
    },
    {
      "name": "白糸の滝ドライブイン",
      "name_kana": "シライトノタキドライブイン",
      "business_type": "④ 氷雪販売業",
      "address": "山形県最上郡戸沢村古口字土湯1496-1",
      "lat": 38.757447,
      "lng": 140.088744,
      "geocoding_level": null,
      "phone": "0234-57-2011",
      "license_no": "",
      "license_date": null,
      "expire_date": null
    },
    {
      "name": "白糸の滝ドライブイン",
      "name_kana": "シライトノタキドライブイン",
      "business_type": "⑤ コップ式自動販売機（自動洗浄・屋内設置）",
      "address": "山形県最上郡戸沢村古口字土湯1496-1",
      "lat": 38.757447,
      "lng": 140.088744,
      "geocoding_level": null,
      "phone": "0234-57-2011",
      "license_no": "",
      "license_date": null,
      "expire_date": null
    },
    {
      "name": "白糸の滝ドライブイン",
      "name_kana": "シライトノタキドライブイン",
      "business_type": "⑥ 弁当販売業",
      "address": "山形県最上郡戸沢村古口字土湯1496-1",
      "lat": 38.757447,
      "lng": 140.088744,
      "geocoding_level": null,
      "phone": "0234-57-2011",
      "license_no": "",
      "license_date": null,
      "expire_date": null
    },
    {
      "name": "白糸の滝ドライブイン",
      "name_kana": "シライトノタキドライブイン",
      "business_type": "⑦ 野菜果物販売業",
      "address": "山形県最上郡戸沢村古口字土湯1496-1",
      "lat": 38.757447,
      "lng": 140.088744,
      "geocoding_level": null,
      "phone": "0234-57-2011",
      "license_no": "",
      "license_date": null,
      "expire_date": null
    },
    {
      "name": "白糸の滝ドライブイン",
      "name_kana": "シライトノタキドライブイン",
      "business_type": "⑧ 米穀類販売業",
      "address": "山形県最上郡戸沢村古口字土湯1496-1",
      "lat": 38.757447,
      "lng": 140.088744,
      "geocoding_level": null,
      "phone": "0234-57-2011",
      "license_no": "",
      "license_date": null,
      "expire_date": null
    },
    {
      "name": "白糸の滝ドライブイン",
      "name_kana": "シライトノタキドライブイン",
      "business_type": "⑨ 通信販売・訪問販売による販売業",
      "address": "山形県最上郡戸沢村古口字土湯1496-1",
      "lat": 38.757447,
      "lng": 140.088744,
      "geocoding_level": null,
      "phone": "0234-57-2011",
      "license_no": "",
      "license_date": null,
      "expire_date": null
    },
    {
      "name": "白糸の滝ドライブイン",
      "name_kana": "シライトノタキドライブイン",
      "business_type": "⑩ コンビニエンスストア",
      "address": "山形県最上郡戸沢村古口字土湯1496-1",
      "lat": 38.757447,
      "lng": 140.088744,
      "geocoding_level": null,
      "phone": "0234-57-2011",
      "license_no": "",
      "license_date": null,
      "expire_date": null
    },
    {
      "name": "白糸の滝ドライブイン",
      "name_kana": "シライトノタキドライブイン",
      "business_type": "⑫ 自動販売機による販売業（コップ式自動販売機（自動洗浄・屋内設置）及び営業許可の対象となる自動販売機を除く）",
      "address": "山形県最上郡戸沢村古口字土湯1496-1",
      "lat": 38.757447,
      "lng": 140.088744,
      "geocoding_level": null,
      "phone": "0234-57-2011",
      "license_no": "",
      "license_date": null,
      "expire_date": null
    },
    {
      "name": "白糸の滝ドライブイン",
      "name_kana": "シライトノタキドライブイン",
      "business_type": "⑬ その他の食料・飲料販売業",
      "address": "山形県最上郡戸沢村古口字土湯1496-1",
      "lat": 38.757447,
      "lng": 140.088744,
      "geocoding_level": null,
      "phone": "0234-57-2011",
      "license_no": "",
      "license_date": null,
      "expire_date": null
    },
    {
      "name": "白糸の滝ドライブイン（外売店）",
      "name_kana": "シライトノタキドライブイン　ソトバイテン",
      "business_type": "① 飲食店営業",
      "address": "山形県最上郡戸沢村大字古口字土湯１４９６－１",
      "lat": 38.73814,
      "lng": 140.144448,
      "geocoding_level": 3,
      "phone": "",
      "license_no": "1022",
      "license_date": "2024-05-20",
      "expire_date": "2029-05-31"
    },
    {
      "name": "パーラー白糸の滝（外売店）",
      "name_kana": "パーラーシライトノタキ　ソトバイテン",
      "business_type": "① 飲食店営業",
      "address": "山形県最上郡戸沢村大字古口字土湯１４９５－１",
      "lat": 38.73814,
      "lng": 140.144448,
      "geocoding_level": 3,
      "phone": "",
      "license_no": "1023",
      "license_date": "2024-05-20",
      "expire_date": "2029-05-31"
    },
    {
      "name": "白糸の滝ドライブイン（食堂）",
      "name_kana": "シライトノタキドライブイン　ショクドウ",
      "business_type": "① 飲食店営業",
      "address": "山形県最上郡戸沢村大字古口字土湯１４９６－１",
      "lat": 38.73814,
      "lng": 140.144448,
      "geocoding_level": 3,
      "phone": "",
      "license_no": "1006",
      "license_date": "2025-05-15",
      "expire_date": "2031-05-31"
    },
    {
      "name": "白糸の滝ドライブイン（コンビニエンス部門）",
      "name_kana": "シライトノタキドライブイン　コンビニエンスブモン",
      "business_type": "① 飲食店営業",
      "address": "山形県最上郡戸沢村大字古口字土湯１４９６－１",
      "lat": 38.73814,
      "lng": 140.144448,
      "geocoding_level": 3,
      "phone": "",
      "license_no": "1007",
      "license_date": "2025-05-15",
      "expire_date": "2031-05-31"
    },
    {
      "name": "パーラー白糸の滝（食堂）",
      "name_kana": "パーラーシライトノタキ　ショクドウ",
      "business_type": "① 飲食店営業",
      "address": "山形県最上郡戸沢村大字古口字土湯１４９５－１",
      "lat": 38.73814,
      "lng": 140.144448,
      "geocoding_level": 3,
      "phone": "",
      "license_no": "1008",
      "license_date": "2025-05-15",
      "expire_date": "2031-05-31"
    },
    {
      "name": "のぐちっ娘",
      "name_kana": "ノグチッコ",
      "business_type": "⑦ 野菜果物販売業",
      "address": "山形県最上郡戸沢村大字松坂１１６－６",
      "lat": 38.776615,
      "lng": 140.183583,
      "geocoding_level": null,
      "phone": "",
      "license_no": "",
      "license_date": null,
      "expire_date": null
    },
    {
      "name": "中華そば雲ノ糸　最上川店",
      "name_kana": "チュウカソバクモノイトモガミガワテン",
      "business_type": "① 飲食店営業",
      "address": "山形県最上郡戸沢村大字古口字草薙2919‐1の内",
      "lat": 38.73814,
      "lng": 140.144448,
      "geocoding_level": 3,
      "phone": "07028341652",
      "license_no": "1191",
      "license_date": "2025-02-12",
      "expire_date": "2031-05-31"
    },
    {
      "name": "戸沢村立戸沢学園",
      "name_kana": "トザワソンリツトザワガクエン",
      "business_type": "㉖ 集団給食施設",
      "address": "山形県最上郡戸沢村大字蔵岡２９０５－７",
      "lat": 38.731272,
      "lng": 140.173259,
      "geocoding_level": null,
      "phone": "0233-72-3242",
      "license_no": "",
      "license_date": null,
      "expire_date": null
    },
    {
      "name": "芭蕉ドライブイン",
      "name_kana": "バショウドライブイン",
      "business_type": "① 飲食店営業",
      "address": "山形県最上郡戸沢村大字蔵岡３７０５",
      "lat": 38.726208,
      "lng": 140.18445,
      "geocoding_level": 3,
      "phone": "0233722231",
      "license_no": "1293",
      "license_date": "2022-03-04",
      "expire_date": "2027-05-31"
    },
    {
      "name": "そば処　芭蕉庵",
      "name_kana": "ソバトコロ　バショウアン",
      "business_type": "① 飲食店営業",
      "address": "山形県最上郡戸沢村大字古口８６－１",
      "lat": 38.73814,
      "lng": 140.144448,
      "geocoding_level": 3,
      "phone": "0233722001",
      "license_no": "1016",
      "license_date": "2022-05-20",
      "expire_date": "2028-05-31"
    },
    {
      "name": "最上峡芭蕉ライン観光株式会社",
      "name_kana": "モガミキョウバショウラインカンコウカブシキガイシャ",
      "business_type": "① 飲食店営業",
      "address": "山形県最上郡戸沢村大字古口８６－１",
      "lat": 38.73814,
      "lng": 140.144448,
      "geocoding_level": 3,
      "phone": "0233722001",
      "license_no": "1017",
      "license_date": "2022-05-20",
      "expire_date": "2028-05-31"
    },
    {
      "name": "川の駅最上峡くさなぎ",
      "name_kana": "カワノエキモガミキョウクサナギ",
      "business_type": "① 飲食店営業",
      "address": "山形県最上郡戸沢村大字古口１５２５－２",
      "lat": 38.73814,
      "lng": 140.144448,
      "geocoding_level": 3,
      "phone": "0233572111",
      "license_no": "1018",
      "license_date": "2022-05-20",
      "expire_date": "2028-05-31"
    },
    {
      "name": "ファーストフード",
      "name_kana": "ファーストフード",
      "business_type": "① 飲食店営業",
      "address": "山形県最上郡戸沢村蔵岡3008-1",
      "lat": 38.726208,
      "lng": 140.18445,
      "geocoding_level": 3,
      "phone": "0233-72-3303",
      "license_no": "1027",
      "license_date": "2023-05-18",
      "expire_date": "2028-05-31"
    },
    {
      "name": "レストラン",
      "name_kana": "レストラン",
      "business_type": "① 飲食店営業",
      "address": "山形県最上郡戸沢村大字蔵岡３００８－１",
      "lat": 38.726208,
      "lng": 140.18445,
      "geocoding_level": 3,
      "phone": "",
      "license_no": "1018",
      "license_date": "2024-05-20",
      "expire_date": "2030-05-31"
    },
    {
      "name": "うめちゃんキムチ",
      "name_kana": "ウメチャンキムチ",
      "business_type": "① 飲食店営業",
      "address": "山形県最上郡戸沢村大字蔵岡３００８－１",
      "lat": 38.726208,
      "lng": 140.18445,
      "geocoding_level": 3,
      "phone": "",
      "license_no": "1012",
      "license_date": "2026-05-15",
      "expire_date": "2031-05-31"
    },
    {
      "name": "呑喰処　和なごみ",
      "name_kana": "ノミクイドコロワナゴミ",
      "business_type": "① 飲食店営業",
      "address": "山形県最上郡戸沢村大字神田吹張１７２６－５",
      "lat": 38.76422,
      "lng": 140.178805,
      "geocoding_level": 3,
      "phone": "0233723132",
      "license_no": "1015",
      "license_date": "2022-05-19",
      "expire_date": "2028-05-31"
    },
    {
      "name": "安食商店",
      "name_kana": "アジキショウテン",
      "business_type": "② 食肉販売業（包装済みの食肉のみの販売）",
      "address": "山形県最上郡戸沢村大字角川５３５",
      "lat": 38.656873,
      "lng": 140.117341,
      "geocoding_level": null,
      "phone": "0233732005",
      "license_no": "",
      "license_date": null,
      "expire_date": null
    },
    {
      "name": "安食商店",
      "name_kana": "アジキショウテン",
      "business_type": "③ 乳類販売業",
      "address": "山形県最上郡戸沢村大字角川５３５",
      "lat": 38.656873,
      "lng": 140.117341,
      "geocoding_level": null,
      "phone": "0233732005",
      "license_no": "",
      "license_date": null,
      "expire_date": null
    },
    {
      "name": "安食商店",
      "name_kana": "アジキショウテン",
      "business_type": "① 飲食店営業",
      "address": "山形県最上郡戸沢村大字角川５３５",
      "lat": 38.694566869,
      "lng": 140.150926378,
      "geocoding_level": 8,
      "phone": "0233-73-2005",
      "license_no": "1030",
      "license_date": "2023-05-18",
      "expire_date": "2028-05-31"
    },
    {
      "name": "田中商店",
      "name_kana": "タナカショウテン",
      "business_type": "③ 乳類販売業",
      "address": "山形県最上郡戸沢村大字古口４１０－２",
      "lat": 38.738689,
      "lng": 140.141967,
      "geocoding_level": null,
      "phone": "0233722168",
      "license_no": "",
      "license_date": null,
      "expire_date": null
    },
    {
      "name": "アイビー株式会社くさなぎ",
      "name_kana": "アイビーカブシキガイシャクサナギ",
      "business_type": "② 食肉販売業（包装済みの食肉のみの販売）",
      "address": "山形県最上郡戸沢村大字古口１５２５－２",
      "lat": 38.766555,
      "lng": 140.051241,
      "geocoding_level": null,
      "phone": "0234514121",
      "license_no": "",
      "license_date": null,
      "expire_date": null
    },
    {
      "name": "アイビー株式会社くさなぎ",
      "name_kana": "アイビーカブシキガイシャクサナギ",
      "business_type": "③ 乳類販売業",
      "address": "山形県最上郡戸沢村大字古口１５２５－２",
      "lat": 38.766555,
      "lng": 140.051241,
      "geocoding_level": null,
      "phone": "0234514121",
      "license_no": "",
      "license_date": null,
      "expire_date": null
    },
    {
      "name": "アイビー（株）舟番所",
      "name_kana": "アイビーカブフナバンショ",
      "business_type": "② 食肉販売業（包装済みの食肉のみの販売）",
      "address": "山形県最上郡戸沢村古口８６－１",
      "lat": 38.737866,
      "lng": 140.149953,
      "geocoding_level": null,
      "phone": "",
      "license_no": "",
      "license_date": null,
      "expire_date": null
    },
    {
      "name": "アイビー（株）舟番所",
      "name_kana": "アイビーカブフナバンショ",
      "business_type": "③ 乳類販売業",
      "address": "山形県最上郡戸沢村古口８６－１",
      "lat": 38.737866,
      "lng": 140.149953,
      "geocoding_level": null,
      "phone": "",
      "license_no": "",
      "license_date": null,
      "expire_date": null
    },
    {
      "name": "川の駅最上峡くさなぎ",
      "name_kana": "カワノエキモガミキョウクサナギ",
      "business_type": "① 飲食店営業",
      "address": "山形県最上郡戸沢村古口１５２５－２",
      "lat": 38.766814,
      "lng": 140.050565,
      "geocoding_level": null,
      "phone": "0234572111",
      "license_no": "1089",
      "license_date": "2022-08-09",
      "expire_date": "2029-05-31"
    },
    {
      "name": "矢口浩",
      "name_kana": "ヤグチヒロシ",
      "business_type": "⑰ 農産保存食料品製造・加工業",
      "address": "山形県最上郡戸沢村大字蔵岡１６０－１",
      "lat": 38.726731,
      "lng": 140.183733,
      "geocoding_level": null,
      "phone": "0233723758",
      "license_no": "",
      "license_date": null,
      "expire_date": null
    },
    {
      "name": "株式会社藤丸",
      "name_kana": "カブシキガイシャフジマル",
      "business_type": "㉗ 冷凍食品製造業",
      "address": "山形県最上郡戸沢村大字角川２４４－２",
      "lat": 38.705679396,
      "lng": 140.140961751,
      "geocoding_level": 8,
      "phone": "",
      "license_no": "1018",
      "license_date": "2026-05-26",
      "expire_date": "2032-05-31"
    },
    {
      "name": "株式会社戸沢村産業振興公社　いきいきランドぽんぽ館",
      "name_kana": "トザワムラサンギョウシンコウコウシャ　イキイキランドポンポカン",
      "business_type": "① 飲食店営業",
      "address": "山形県最上郡戸沢村大字松坂１５５",
      "lat": 38.783147,
      "lng": 140.183968,
      "geocoding_level": null,
      "phone": "0233723600",
      "license_no": "1181",
      "license_date": "2023-02-21",
      "expire_date": "2028-05-31"
    },
    {
      "name": "三左衛門そば",
      "name_kana": "サンザエモンソバ",
      "business_type": "㉔ 麺類製造業",
      "address": "山形県最上郡戸沢村大字角川１３９３－７",
      "lat": 38.681806998,
      "lng": 140.164736464,
      "geocoding_level": 8,
      "phone": "",
      "license_no": "1019",
      "license_date": "2023-05-15",
      "expire_date": "2028-05-31"
    },
    {
      "name": "三左衛門そば",
      "name_kana": "サンザエモンソバ",
      "business_type": "① 飲食店営業",
      "address": "山形県最上郡戸沢村大字角川１３９３－７",
      "lat": 38.681806998,
      "lng": 140.164736464,
      "geocoding_level": 8,
      "phone": "",
      "license_no": "1019",
      "license_date": "2024-05-20",
      "expire_date": "2029-05-31"
    },
    {
      "name": "有限会社矢作菓子店　川の駅最上峡くさなぎ店",
      "name_kana": "ユウゲンガイシャヤハギカシテンカワノエキモガミキョウクサナギテン",
      "business_type": "⑪ 菓子製造業",
      "address": "山形県最上郡戸沢村大字古口１５２５－２",
      "lat": 38.73814,
      "lng": 140.144448,
      "geocoding_level": 3,
      "phone": "0234-57-2873",
      "license_no": "1020",
      "license_date": "2023-05-15",
      "expire_date": "2028-05-31"
    },
    {
      "name": "仙人堂",
      "name_kana": "センニンドウ",
      "business_type": "① 飲食店営業",
      "address": "山形県最上郡戸沢村小外川",
      "lat": 38.751326,
      "lng": 140.081735,
      "geocoding_level": 3,
      "phone": "",
      "license_no": "1034",
      "license_date": "2023-05-24",
      "expire_date": "2028-05-31"
    },
    {
      "name": "農家民宿阿部",
      "name_kana": "ノウカミンシュクアベ",
      "business_type": "① 飲食店営業",
      "address": "山形県最上郡戸沢村大字角川1４６９",
      "lat": 38.6871273,
      "lng": 140.160488377,
      "geocoding_level": 8,
      "phone": "0233-73-2160",
      "license_no": "1017",
      "license_date": "2023-05-15",
      "expire_date": "2028-05-31"
    },
    {
      "name": "戸沢村食の学校",
      "name_kana": "トザワムラショクノガッコウ",
      "business_type": "㉕ そうざい製造業",
      "address": "山形県最上郡戸沢村大字角川１９７５",
      "lat": 38.677013,
      "lng": 140.111888,
      "geocoding_level": 3,
      "phone": "0233732032",
      "license_no": "1031",
      "license_date": "2023-05-18",
      "expire_date": "2028-05-31"
    },
    {
      "name": "食の学校",
      "name_kana": "ショクノガッコウ",
      "business_type": "⑰ 農産保存食料品製造・加工業",
      "address": "山形県最上郡戸沢村大字角川１９７５",
      "lat": 38.690291,
      "lng": 140.154486,
      "geocoding_level": null,
      "phone": "0233732032",
      "license_no": "",
      "license_date": null,
      "expire_date": null
    },
    {
      "name": "戸沢村食の学校",
      "name_kana": "トザワムラショクノガッコウ",
      "business_type": "㉙ 漬物製造業",
      "address": "山形県最上郡戸沢村大字角川１９７５",
      "lat": 38.677013,
      "lng": 140.111888,
      "geocoding_level": 3,
      "phone": "0233732032",
      "license_no": "1032",
      "license_date": "2023-05-24",
      "expire_date": "2028-05-31"
    },
    {
      "name": "食の学校",
      "name_kana": "ショクノガッコウ",
      "business_type": "⑪ 菓子製造業",
      "address": "山形県最上郡戸沢村大字角川１９７５",
      "lat": 38.677013,
      "lng": 140.111888,
      "geocoding_level": 3,
      "phone": "",
      "license_no": "1011",
      "license_date": "2026-05-15",
      "expire_date": "2031-05-31"
    },
    {
      "name": "いきいきランドぽんぽ館",
      "name_kana": "イキイキランドランドポンポカン",
      "business_type": "③ 乳類販売業",
      "address": "山形県最上郡戸沢村松坂155",
      "lat": 38.783147,
      "lng": 140.183968,
      "geocoding_level": null,
      "phone": "0233723600",
      "license_no": "",
      "license_date": null,
      "expire_date": null
    },
    {
      "name": "寺台農園",
      "name_kana": "テラダイノウエン",
      "business_type": "㉙ 漬物製造業",
      "address": "山形県最上郡戸沢村大字角川５８２－１",
      "lat": 38.693173,
      "lng": 140.150405,
      "geocoding_level": null,
      "phone": "",
      "license_no": "1209",
      "license_date": "2023-11-28",
      "expire_date": "2030-05-31"
    },
    {
      "name": "DCMニコット　戸沢店",
      "name_kana": "ディーシーエムニコット　トザワテン",
      "business_type": "⑬ その他の食料・飲料販売業",
      "address": "山形県最上郡戸沢村名高１５９３－４８５",
      "lat": 38.747562,
      "lng": 140.180801,
      "geocoding_level": null,
      "phone": "0145-26-2600",
      "license_no": "",
      "license_date": null,
      "expire_date": null
    },
    {
      "name": "早坂精肉店",
      "name_kana": "ハヤサカセイニクテン",
      "business_type": "③ 食肉販売業",
      "address": "山形県最上郡戸沢村津谷1660-1",
      "lat": 38.739709,
      "lng": 140.18525,
      "geocoding_level": 3,
      "phone": "0233-72-2422",
      "license_no": "1027",
      "license_date": "2024-05-20",
      "expire_date": "2029-05-31"
    },
    {
      "name": "早坂精肉店",
      "name_kana": "ハヤサカセイニクテン",
      "business_type": "① 魚介類販売業（包装済みの魚介類のみの販売）",
      "address": "山形県最上郡戸沢村大字津谷１６６０－１",
      "lat": 38.742337,
      "lng": 140.183879,
      "geocoding_level": null,
      "phone": "0233722422",
      "license_no": "",
      "license_date": null,
      "expire_date": null
    },
    {
      "name": "早坂精肉店",
      "name_kana": "ハヤサカセイニクテン",
      "business_type": "① 飲食店営業",
      "address": "山形県最上郡戸沢村大字津谷１６６０－１",
      "lat": 38.739709,
      "lng": 140.18525,
      "geocoding_level": 3,
      "phone": "",
      "license_no": "1028",
      "license_date": "2023-05-18",
      "expire_date": "2028-05-31"
    },
    {
      "name": "たけのこ",
      "name_kana": "タケノコ",
      "business_type": "① 飲食店営業",
      "address": "山形県最上郡戸沢村大字津谷鞭打野２０９１－６",
      "lat": 38.739709,
      "lng": 140.18525,
      "geocoding_level": 3,
      "phone": "",
      "license_no": "1029",
      "license_date": "2023-05-18",
      "expire_date": "2028-05-31"
    },
    {
      "name": "戸沢村エゴマの会",
      "name_kana": "トザワムラエゴマノカイ",
      "business_type": "⑲ 食用油脂製造業",
      "address": "山形県最上郡戸沢村大字蔵岡字上の山３７３２",
      "lat": 38.707228,
      "lng": 140.183645,
      "geocoding_level": null,
      "phone": "",
      "license_no": "1020",
      "license_date": "2024-05-20",
      "expire_date": "2029-05-31"
    },
    {
      "name": "農家民宿　ほたる",
      "name_kana": "ノウカミンシュク　ホタル",
      "business_type": "① 飲食店営業",
      "address": "山形県最上郡戸沢村大字角川１３１４",
      "lat": 38.676478354,
      "lng": 140.164293682,
      "geocoding_level": 8,
      "phone": "",
      "license_no": "1024",
      "license_date": "2024-05-20",
      "expire_date": "2029-05-31"
    },
    {
      "name": "日韓ひろば",
      "name_kana": "ニッカンヒロバ",
      "business_type": "① 飲食店営業",
      "address": "山形県最上郡戸沢村ほか山形県一円",
      "lat": 38.737601,
      "lng": 140.143569,
      "geocoding_level": 2,
      "phone": "",
      "license_no": "1013",
      "license_date": "2024-05-14",
      "expire_date": "2029-05-31"
    },
    {
      "name": "韓国家庭料理　日韓ひろば",
      "name_kana": "カンコクカテイリョウリ　ニッカンヒロバ",
      "business_type": "① 飲食店営業",
      "address": "山形県最上郡戸沢村大字蔵岡上の山３７１８－１",
      "lat": 38.726208,
      "lng": 140.18445,
      "geocoding_level": 3,
      "phone": "",
      "license_no": "1019",
      "license_date": "2026-05-27",
      "expire_date": "2032-05-31"
    },
    {
      "name": "民宿たなか　ふきのとう",
      "name_kana": "ミンシュクタナカ　フキノトウ",
      "business_type": "① 飲食店営業",
      "address": "山形県最上郡戸沢村大字角川１３１６－２",
      "lat": 38.677025039,
      "lng": 140.164395206,
      "geocoding_level": 8,
      "phone": "",
      "license_no": "1025",
      "license_date": "2024-05-20",
      "expire_date": "2029-05-31"
    },
    {
      "name": "佐藤長三郎そば",
      "name_kana": "サトウチョウザブロウソバ",
      "business_type": "① 飲食店営業",
      "address": "山形県最上郡戸沢村大字古口４０４",
      "lat": 38.73814,
      "lng": 140.144448,
      "geocoding_level": 3,
      "phone": "",
      "license_no": "1026",
      "license_date": "2024-05-20",
      "expire_date": "2029-05-31"
    },
    {
      "name": "三河屋古川",
      "name_kana": "ミカワヤフルカワ",
      "business_type": "① 飲食店営業",
      "address": "山形県最上郡戸沢村大字津谷８－２",
      "lat": 38.739709,
      "lng": 140.18525,
      "geocoding_level": 3,
      "phone": "",
      "license_no": "1028",
      "license_date": "2024-05-20",
      "expire_date": "2030-05-31"
    },
    {
      "name": "三河屋古川",
      "name_kana": "ミカワヤフルカワ",
      "business_type": "④ 魚介類販売業",
      "address": "山形県最上郡戸沢村大字津谷８－２",
      "lat": 38.739709,
      "lng": 140.18525,
      "geocoding_level": 3,
      "phone": "0233-72-2871",
      "license_no": "1013",
      "license_date": "2025-05-16",
      "expire_date": "2031-05-31"
    },
    {
      "name": "三河屋古川",
      "name_kana": "ミカワヤフルカワ",
      "business_type": "② 食肉販売業（包装済みの食肉のみの販売）",
      "address": "山形県最上郡戸沢村大字津谷８－２",
      "lat": 38.740124,
      "lng": 140.184653,
      "geocoding_level": null,
      "phone": "",
      "license_no": "",
      "license_date": null,
      "expire_date": null
    },
    {
      "name": "佐藤菓子店",
      "name_kana": "サトウカシテン",
      "business_type": "③ 乳類販売業",
      "address": "山形県最上郡戸沢村大字神田２２８７－１",
      "lat": 38.766123,
      "lng": 140.174811,
      "geocoding_level": null,
      "phone": "",
      "license_no": "",
      "license_date": null,
      "expire_date": null
    },
    {
      "name": "佐藤菓子店",
      "name_kana": "サトウカシテン",
      "business_type": "⑪ 菓子製造業",
      "address": "山形県最上郡戸沢村大字神田２２８７－１",
      "lat": 38.76422,
      "lng": 140.178805,
      "geocoding_level": 3,
      "phone": "",
      "license_no": "1017",
      "license_date": "2025-05-23",
      "expire_date": "2030-05-31"
    },
    {
      "name": "農家民宿安食",
      "name_kana": "ノウカミンシュクアジキ",
      "business_type": "① 飲食店営業",
      "address": "山形県最上郡戸沢村大字松坂３４８",
      "lat": 38.769235318,
      "lng": 140.196008058,
      "geocoding_level": 8,
      "phone": "",
      "license_no": "1029",
      "license_date": "2024-05-20",
      "expire_date": "2029-05-31"
    },
    {
      "name": "いきいきランドぽんぽ館",
      "name_kana": "イキイキランドポンポカン",
      "business_type": "⑬ その他の食料・飲料販売業",
      "address": "山形県最上郡戸沢村松坂１５５",
      "lat": 38.783147,
      "lng": 140.183968,
      "geocoding_level": null,
      "phone": "",
      "license_no": "",
      "license_date": null,
      "expire_date": null
    },
    {
      "name": "呑喰処　和",
      "name_kana": "ノミクイドコロ　ナゴミ",
      "business_type": "① 飲食店営業",
      "address": "山形県最上郡戸沢村ほか山形県一円",
      "lat": 38.737622,
      "lng": 140.143702,
      "geocoding_level": null,
      "phone": "",
      "license_no": "1065",
      "license_date": "2025-09-01",
      "expire_date": "2031-05-31"
    },
    {
      "name": "米クラフト",
      "name_kana": "マイクラフト",
      "business_type": "⑪ 菓子製造業",
      "address": "山形県最上郡戸沢村大字角川１４９２番地１",
      "lat": 38.68838704,
      "lng": 140.159846574,
      "geocoding_level": 8,
      "phone": "",
      "license_no": "1178",
      "license_date": "2026-01-05",
      "expire_date": "2031-05-31"
    },
    {
      "name": "戸城",
      "name_kana": "トジョウ",
      "business_type": "① 飲食店営業",
      "address": "山形県最上郡戸沢村大字名高１５９３－３０２",
      "lat": 38.7527,
      "lng": 140.193176,
      "geocoding_level": 3,
      "phone": "",
      "license_no": "1020",
      "license_date": "2026-05-27",
      "expire_date": "2031-05-31"
    },
    {
      "name": "八萬石",
      "name_kana": "ハチマンゴク",
      "business_type": "① 飲食店営業",
      "address": "山形県最上郡戸沢村大字古口３４７－８",
      "lat": 38.73814,
      "lng": 140.144448,
      "geocoding_level": 3,
      "phone": "",
      "license_no": "1021",
      "license_date": "2026-05-27",
      "expire_date": "2031-05-31"
    },
    {
      "name": "すみれ",
      "name_kana": "スミレ",
      "business_type": "① 飲食店営業",
      "address": "山形県最上郡戸沢村大字蔵岡１２４０－２２",
      "lat": 38.726208,
      "lng": 140.18445,
      "geocoding_level": 3,
      "phone": "",
      "license_no": "1022",
      "license_date": "2026-05-27",
      "expire_date": "2031-05-31"
    },
    {
      "name": "八郎兵衛茶屋",
      "name_kana": "ハチロウベエチャヤ",
      "business_type": "① 飲食店営業",
      "address": "山形県最上郡戸沢村大字古口１４２３－７",
      "lat": 38.73814,
      "lng": 140.144448,
      "geocoding_level": 3,
      "phone": "",
      "license_no": "1023",
      "license_date": "2026-05-27",
      "expire_date": "2031-05-31"
    },
    {
      "name": "有限会社スーパーヤハギ",
      "name_kana": "ユウゲンガイシャスーパーヤハギ",
      "business_type": "① 魚介類販売業（包装済みの魚介類のみの販売）",
      "address": "山形県最上郡戸沢村大字古口４４１",
      "lat": 38.73845,
      "lng": 140.139767,
      "geocoding_level": null,
      "phone": "",
      "license_no": "",
      "license_date": null,
      "expire_date": null
    },
    {
      "name": "有限会社スーパーヤハギ",
      "name_kana": "ユウゲンガイシャスーパーヤハギ",
      "business_type": "② 食肉販売業（包装済みの食肉のみの販売）",
      "address": "山形県最上郡戸沢村大字古口４４１",
      "lat": 38.73845,
      "lng": 140.139767,
      "geocoding_level": null,
      "phone": "",
      "license_no": "",
      "license_date": null,
      "expire_date": null
    },
    {
      "name": "有限会社スーパーヤハギ",
      "name_kana": "ユウゲンガイシャスーパーヤハギ",
      "business_type": "③ 乳類販売業",
      "address": "山形県最上郡戸沢村大字古口４４１",
      "lat": 38.73845,
      "lng": 140.139767,
      "geocoding_level": null,
      "phone": "",
      "license_no": "",
      "license_date": null,
      "expire_date": null
    },
    {
      "name": "のぐちっ娘",
      "name_kana": "ノグチッコ",
      "business_type": "㉕ そうざい製造業",
      "address": "山形県最上郡戸沢村大字松坂１１６－６",
      "lat": 38.776724375,
      "lng": 140.183350198,
      "geocoding_level": 8,
      "phone": "",
      "license_no": "1024",
      "license_date": "2026-05-26",
      "expire_date": "2031-05-31"
    },
    {
      "name": "農家民宿　与惣右エ門",
      "name_kana": "ノウカミンシュク　ヨソウエモン",
      "business_type": "① 飲食店営業",
      "address": "山形県最上郡戸沢村大字角川１２００",
      "lat": 38.662905592,
      "lng": 140.167900261,
      "geocoding_level": 8,
      "phone": "",
      "license_no": "1026",
      "license_date": "2026-05-27",
      "expire_date": "2031-05-31"
    }
  ]
}
