{
  "meta": {
    "updated": 1783568789,
    "sources": [
      {
        "source": "厚生労働省 食品衛生申請等システム（オープンデータ）",
        "license": "公共データ利用規約（第1.0版, PDL1.0）"
      }
    ]
  },
  "data": [
    {
      "name": "ルネサンスイオンタウン吉川美南",
      "name_kana": "ルネサンスイオンタウンヨシカワミナミ",
      "business_type": "⑫ 自動販売機による販売業（コップ式自動販売機（自動洗浄・屋内設置）及び営業許可の対象となる自動販売機を除く）",
      "address": "埼玉県吉川市美南3-23-1増床区画3F",
      "lat": 35.866531,
      "lng": 139.857766,
      "geocoding_level": null,
      "phone": "",
      "license_no": "",
      "license_date": null,
      "expire_date": null
    },
    {
      "name": "スポーツクラブ ルネサンス・イオンタウン吉川美南",
      "name_kana": "スポーツクラブ ルネサンス・イオンタウンヨシカワミナミ",
      "business_type": "⑤ コップ式自動販売機（自動洗浄・屋内設置）",
      "address": "埼玉県吉川市美南3丁目25-1 イオンタウン吉川美南 東街区  3F",
      "lat": 35.865592,
      "lng": 139.857926,
      "geocoding_level": null,
      "phone": "",
      "license_no": "",
      "license_date": null,
      "expire_date": null
    },
    {
      "name": "ダイソー　吉川栄町店",
      "name_kana": "ダイソー　ヨシカワサカエチョウテン",
      "business_type": "⑬ その他の食料・飲料販売業",
      "address": "埼玉県吉川市栄町１４８５－１",
      "lat": 35.887154,
      "lng": 139.859595,
      "geocoding_level": null,
      "phone": "",
      "license_no": "",
      "license_date": null,
      "expire_date": null
    },
    {
      "name": "コーナン吉川栄町店",
      "name_kana": "コーナンヨシカワサカエチョウテン",
      "business_type": "⑪ 百貨店、総合スーパー",
      "address": "埼玉県吉川市栄町797番地1",
      "lat": 35.885775,
      "lng": 139.851215,
      "geocoding_level": null,
      "phone": "048-984-6660",
      "license_no": "",
      "license_date": null,
      "expire_date": null
    },
    {
      "name": "キッチンオリジン　吉川店",
      "name_kana": "キッチンオリジン　ヨシカワテン",
      "business_type": "① 飲食店営業",
      "address": "埼玉県吉川市木売１－７－２ 誠第７ビル１階",
      "lat": 35.876843,
      "lng": 139.844029,
      "geocoding_level": null,
      "phone": "048-971-6816",
      "license_no": "指令草保第1-433号",
      "license_date": "2023-09-14",
      "expire_date": "2029-09-30"
    },
    {
      "name": "キッチンオリジン　吉川店",
      "name_kana": "キッチンオリジン　ヨシカワテン",
      "business_type": "⑬ その他の食料・飲料販売業",
      "address": "埼玉県吉川市木売１－７－２ 誠第７ビル１階",
      "lat": 35.876843,
      "lng": 139.844029,
      "geocoding_level": null,
      "phone": "048-971-6816",
      "license_no": "",
      "license_date": null,
      "expire_date": null
    },
    {
      "name": "れんげ食堂Toshu  イオンタウン吉川美南店",
      "name_kana": "レンゲショクドウトウシュウイオンタウンヨシカワミナミテン",
      "business_type": "⑬ その他の食料・飲料販売業",
      "address": "埼玉県吉川市美南３－１２",
      "lat": 35.865238,
      "lng": 139.855939,
      "geocoding_level": null,
      "phone": "048-940-7001",
      "license_no": "",
      "license_date": null,
      "expire_date": null
    },
    {
      "name": "Foodwarehouse　イオンタウン吉川美南店",
      "name_kana": "フードウェアハウス　イオンタウンヨシカワミナミテン",
      "business_type": "⑪ 百貨店、総合スーパー",
      "address": "埼玉県吉川市美南3-23-1 (イオンタウン吉川美南17街区114）",
      "lat": 35.866519,
      "lng": 139.8579,
      "geocoding_level": null,
      "phone": "048-940-8367",
      "license_no": "",
      "license_date": null,
      "expire_date": null
    },
    {
      "name": "ライフ吉川駅前店",
      "name_kana": "ライフヨシカワエキマエテン",
      "business_type": "⑫ 自動販売機による販売業（コップ式自動販売機（自動洗浄・屋内設置）及び営業許可の対象となる自動販売機を除く）",
      "address": "埼玉県吉川市保1丁目13-3",
      "lat": 35.878428,
      "lng": 139.844223,
      "geocoding_level": null,
      "phone": "",
      "license_no": "",
      "license_date": null,
      "expire_date": null
    },
    {
      "name": "ライフ吉川栄町店",
      "name_kana": "ライフヨシカワサカエチョウテン",
      "business_type": "⑫ 自動販売機による販売業（コップ式自動販売機（自動洗浄・屋内設置）及び営業許可の対象となる自動販売機を除く）",
      "address": "埼玉県吉川市栄町797-1",
      "lat": 35.885662,
      "lng": 139.851247,
      "geocoding_level": null,
      "phone": "048-983-7800",
      "license_no": "",
      "license_date": null,
      "expire_date": null
    },
    {
      "name": "加藤運輸有限会社　吉川物流センター",
      "name_kana": "カトウウンユユウゲンガイシャ　ヨシカワブツリュウセンター",
      "business_type": "⑤ コップ式自動販売機（自動洗浄・屋内設置）",
      "address": "埼玉県吉川市関600-1",
      "lat": 35.895242,
      "lng": 139.848967,
      "geocoding_level": null,
      "phone": "048-972-4500",
      "license_no": "",
      "license_date": null,
      "expire_date": null
    },
    {
      "name": "加藤運輸有限会社　吉川物流センター",
      "name_kana": "カトウウンユユウゲンガイシャ　ヨシカワブツリュウセンター",
      "business_type": "⑤ コップ式自動販売機（自動洗浄・屋内設置）",
      "address": "埼玉県吉川市関600-1",
      "lat": 35.895242,
      "lng": 139.848967,
      "geocoding_level": null,
      "phone": "048-972-4500",
      "license_no": "",
      "license_date": null,
      "expire_date": null
    },
    {
      "name": "（株）丸和運輸機関　本社６階（シースルー機）",
      "name_kana": "マルワウンユキカンホンシャロクカイ",
      "business_type": "⑤ コップ式自動販売機（自動洗浄・屋内設置）",
      "address": "埼玉県吉川市旭７－１－６階",
      "lat": 35.931774,
      "lng": 139.841933,
      "geocoding_level": null,
      "phone": "048-991-1000",
      "license_no": "",
      "license_date": null,
      "expire_date": null
    },
    {
      "name": "酒＆業務スーパー吉川店",
      "name_kana": "サケアンドギョウムスーパーヨシカワテン",
      "business_type": "⑪ 百貨店、総合スーパー",
      "address": "埼玉県吉川市保575-1",
      "lat": 35.880438,
      "lng": 139.851247,
      "geocoding_level": null,
      "phone": "0489618472",
      "license_no": "",
      "license_date": null,
      "expire_date": null
    },
    {
      "name": "ジェーソン　吉川駅前通り店",
      "name_kana": "ジェーソン　ヨシカワエキマエドオリテン",
      "business_type": "⑬ その他の食料・飲料販売業",
      "address": "埼玉県吉川市保1-29-1",
      "lat": 35.880533,
      "lng": 139.843584,
      "geocoding_level": null,
      "phone": "048-982-7911",
      "license_no": "",
      "license_date": null,
      "expire_date": null
    },
    {
      "name": "株式会社ヨシケイ東埼玉",
      "name_kana": "カブシキガイシャヨシケイヒガシサイタマ",
      "business_type": "㉙ その他",
      "address": "埼玉県吉川市南広島224",
      "lat": 35.914018,
      "lng": 139.843556,
      "geocoding_level": null,
      "phone": "048-993-2211",
      "license_no": "",
      "license_date": null,
      "expire_date": null
    },
    {
      "name": "エクラシア吉川",
      "name_kana": "エクラシアヨシカワ",
      "business_type": "㉖ 集団給食施設",
      "address": "埼玉県吉川市中央3-31-4",
      "lat": 35.891955,
      "lng": 139.857926,
      "geocoding_level": null,
      "phone": "050-6865-6189",
      "license_no": "",
      "license_date": null,
      "expire_date": null
    },
    {
      "name": "サンライズ吉川",
      "name_kana": "サンライズヨシカワ",
      "business_type": "㉖ 集団給食施設",
      "address": "埼玉県吉川市美南5-10-4",
      "lat": 35.866842,
      "lng": 139.848474,
      "geocoding_level": null,
      "phone": "050-6861-9497",
      "license_no": "",
      "license_date": null,
      "expire_date": null
    },
    {
      "name": "株式会社　銀座コージーコーナー　吉川店",
      "name_kana": "カブシキガイシャ　ギンザコージーコーナー　ヨシカワテン",
      "business_type": "⑪ 菓子製造業",
      "address": "埼玉県吉川市木売1-6-1",
      "lat": 35.876684,
      "lng": 139.843291,
      "geocoding_level": null,
      "phone": "048-984-3707",
      "license_no": "指令草保第1-19号",
      "license_date": "2023-06-19",
      "expire_date": "2029-06-30"
    },
    {
      "name": "株式会社　銀座コージーコーナー　吉川店",
      "name_kana": "カブシキガイシャ　ギンザコージーコーナー　ヨシカワテン",
      "business_type": "⑬ その他の食料・飲料販売業",
      "address": "埼玉県吉川市木売1-6-1",
      "lat": 35.876684,
      "lng": 139.843291,
      "geocoding_level": null,
      "phone": "048-984-3707",
      "license_no": "",
      "license_date": null,
      "expire_date": null
    },
    {
      "name": "夢庵　吉川店",
      "name_kana": "ユメアンヨシカワテン",
      "business_type": "① 飲食店営業",
      "address": "埼玉県吉川市高富２丁目８－１",
      "lat": 35.871966,
      "lng": 139.845184,
      "geocoding_level": null,
      "phone": "048-981-2451",
      "license_no": "指令草保第1-556号",
      "license_date": "2022-09-16",
      "expire_date": "2028-09-30"
    },
    {
      "name": "夢庵　吉川店",
      "name_kana": "ユメアンヨシカワテン",
      "business_type": "⑬ その他の食料・飲料販売業",
      "address": "埼玉県吉川市高富２丁目８－１",
      "lat": 35.871966,
      "lng": 139.845184,
      "geocoding_level": null,
      "phone": "048-981-2451",
      "license_no": "",
      "license_date": null,
      "expire_date": null
    },
    {
      "name": "ジョナサン　吉川店",
      "name_kana": "ジョナサンヨシカワテン",
      "business_type": "⑬ その他の食料・飲料販売業",
      "address": "埼玉県吉川市高富２丁目１－５",
      "lat": 35.873665,
      "lng": 139.844983,
      "geocoding_level": null,
      "phone": "048-984-1207",
      "license_no": "",
      "license_date": null,
      "expire_date": null
    },
    {
      "name": "ガスト 吉川店",
      "name_kana": "ガストヨシカワテン",
      "business_type": "① 飲食店営業",
      "address": "埼玉県吉川市栄町８６４",
      "lat": 35.88634,
      "lng": 139.853903,
      "geocoding_level": null,
      "phone": "048-984-1190",
      "license_no": "指令草保第1-586号",
      "license_date": "2026-01-15",
      "expire_date": "2032-01-31"
    },
    {
      "name": "ガスト 吉川店",
      "name_kana": "ガストヨシカワテン",
      "business_type": "⑬ その他の食料・飲料販売業",
      "address": "埼玉県吉川市栄町８６４",
      "lat": 35.88634,
      "lng": 139.853903,
      "geocoding_level": null,
      "phone": "048-984-1190",
      "license_no": "",
      "license_date": null,
      "expire_date": null
    },
    {
      "name": "薬マツモトキヨシ　吉川旭店",
      "name_kana": "クスリマツモトキヨシ　ヨシカワアサヒテン",
      "business_type": "③ 乳類販売業",
      "address": "埼玉県吉川市旭6-3 AZ-COMロジスティックス3号棟",
      "lat": 35.930744,
      "lng": 139.842177,
      "geocoding_level": null,
      "phone": "",
      "license_no": "",
      "license_date": null,
      "expire_date": null
    },
    {
      "name": "ゴールドジム吉川埼玉",
      "name_kana": "ゴールドジムヨシカワサイタマ",
      "business_type": "⑫ 自動販売機による販売業（コップ式自動販売機（自動洗浄・屋内設置）及び営業許可の対象となる自動販売機を除く）",
      "address": "埼玉県吉川市保1-13-3 ライフ吉川駅前店2Ｆ",
      "lat": 35.878428,
      "lng": 139.844223,
      "geocoding_level": null,
      "phone": "0489845930",
      "license_no": "",
      "license_date": null,
      "expire_date": null
    },
    {
      "name": "麻婆点心館",
      "name_kana": "マーボーテンシンカン",
      "business_type": "⑱ 調味料製造・加工業",
      "address": "埼玉県吉川市美南3-25-1 イオンタウン吉川美南東街区２階",
      "lat": 35.865924,
      "lng": 139.859105,
      "geocoding_level": null,
      "phone": "048-940-6964",
      "license_no": "",
      "license_date": null,
      "expire_date": null
    },
    {
      "name": "ドラッグセイムス吉川けやき通り店",
      "name_kana": "ドラッグセイムスヨシカワケヤキドオリテン",
      "business_type": "⑬ その他の食料・飲料販売業",
      "address": "埼玉県吉川市道庭2-9-2",
      "lat": 35.861318,
      "lng": 139.845246,
      "geocoding_level": null,
      "phone": "048-940-8880",
      "license_no": "",
      "license_date": null,
      "expire_date": null
    },
    {
      "name": "ドラッグセイムス吉川さくら通り店",
      "name_kana": "ドラッグセイムスヨシカワサクラドオリテン",
      "business_type": "⑬ その他の食料・飲料販売業",
      "address": "埼玉県吉川市中央1-2-4",
      "lat": 35.888335,
      "lng": 139.846556,
      "geocoding_level": null,
      "phone": "048-984-6633",
      "license_no": "",
      "license_date": null,
      "expire_date": null
    },
    {
      "name": "ドラッグセイムス吉川きよみ野店",
      "name_kana": "ドラッグセイムスヨシカワキヨミノテン",
      "business_type": "⑬ その他の食料・飲料販売業",
      "address": "埼玉県吉川市きよみ野4-1-1",
      "lat": 35.897176,
      "lng": 139.853279,
      "geocoding_level": null,
      "phone": "048-984-2030",
      "license_no": "",
      "license_date": null,
      "expire_date": null
    },
    {
      "name": "株式会社ＡＲⅰＥＬ",
      "name_kana": "カブシキガイシャアリエル",
      "business_type": "㉗ 器具、容器包装の製造・加工業（合成樹脂が使用された器具又は容器包装の製造、加工に限る。）",
      "address": "埼玉県吉川市新栄1-16-20",
      "lat": 35.892671,
      "lng": 139.860288,
      "geocoding_level": null,
      "phone": "0489837881",
      "license_no": "",
      "license_date": null,
      "expire_date": null
    },
    {
      "name": "よしかわ天然温泉　ゆあみ",
      "name_kana": "ヨシカワテンネンオンセン　ユアミ",
      "business_type": "⑬ その他の食料・飲料販売業",
      "address": "埼玉県吉川市保1-14-5",
      "lat": 35.878162,
      "lng": 139.843529,
      "geocoding_level": null,
      "phone": "0489822647",
      "license_no": "",
      "license_date": null,
      "expire_date": null
    },
    {
      "name": "よしかわ天然温泉ゆあみ",
      "name_kana": "ヨシカワテンネンオンセユアミ",
      "business_type": "③ 乳類販売業",
      "address": "埼玉県吉川市保1-14-5",
      "lat": 35.878162,
      "lng": 139.843529,
      "geocoding_level": null,
      "phone": "0489822647",
      "license_no": "",
      "license_date": null,
      "expire_date": null
    },
    {
      "name": "ヌードルツアーズ吉川店",
      "name_kana": "ヌードルツアーズヨシカワテン",
      "business_type": "⑫ 自動販売機による販売業（コップ式自動販売機（自動洗浄・屋内設置）及び営業許可の対象となる自動販売機を除く）",
      "address": "埼玉県吉川市きよみ野4丁目1-1",
      "lat": 35.897156,
      "lng": 139.853212,
      "geocoding_level": null,
      "phone": "",
      "license_no": "",
      "license_date": null,
      "expire_date": null
    },
    {
      "name": "株式会社マコト　埼玉工場",
      "name_kana": "カブシキガイシャマコト　サイタマコウジョウ",
      "business_type": "㉔ その他の食料品製造・加工業",
      "address": "埼玉県吉川市三輪野江2190-1",
      "lat": 35.867734,
      "lng": 139.894393,
      "geocoding_level": null,
      "phone": "",
      "license_no": "",
      "license_date": null,
      "expire_date": null
    },
    {
      "name": "ニューデイズ吉川",
      "name_kana": "ニューデイズヨシカワ",
      "business_type": "⑩ コンビニエンスストア",
      "address": "埼玉県吉川市木売1-6",
      "lat": 35.876672,
      "lng": 139.844809,
      "geocoding_level": null,
      "phone": "048-984-1249",
      "license_no": "",
      "license_date": null,
      "expire_date": null
    },
    {
      "name": "カインズ吉川美南店",
      "name_kana": "カインズヨシカワミナミテン",
      "business_type": "⑪ 百貨店、総合スーパー",
      "address": "埼玉県吉川市中曽根917番地1",
      "lat": 35.86877,
      "lng": 139.85821,
      "geocoding_level": null,
      "phone": "048-981-7888",
      "license_no": "",
      "license_date": null,
      "expire_date": null
    },
    {
      "name": "株式会社ジェリーズポップコーン",
      "name_kana": "カブシキカイシャジェリーズポップコーン",
      "business_type": "⑬ その他の食料・飲料販売業",
      "address": "埼玉県吉川市美南3丁目25番地1 イオンタウン吉川美南",
      "lat": 35.865592,
      "lng": 139.857926,
      "geocoding_level": null,
      "phone": "092-833-8443",
      "license_no": "",
      "license_date": null,
      "expire_date": null
    },
    {
      "name": "ファミリーマート吉川保一丁目店",
      "name_kana": "ファミリーマートヨシカワホイッチョウメテン",
      "business_type": "⑩ コンビニエンスストア",
      "address": "埼玉県吉川市保1-4-8",
      "lat": 35.881417,
      "lng": 139.839773,
      "geocoding_level": null,
      "phone": "0489841008",
      "license_no": "",
      "license_date": null,
      "expire_date": null
    },
    {
      "name": "イオンタウン吉川美南",
      "name_kana": "イオンタウンヨシカワミナミ",
      "business_type": "⑬ その他の食料・飲料販売業",
      "address": "埼玉県吉川市美南3-25-1 西街区1階広場入口",
      "lat": 35.865924,
      "lng": 139.859105,
      "geocoding_level": null,
      "phone": "09033117519",
      "license_no": "",
      "license_date": null,
      "expire_date": null
    },
    {
      "name": "ウエルシア吉川栄店",
      "name_kana": "ヨシカワサカエ",
      "business_type": "⑪ 百貨店、総合スーパー",
      "address": "埼玉県吉川市栄町８４５－１",
      "lat": 35.885137,
      "lng": 139.850939,
      "geocoding_level": null,
      "phone": "048-984-4371",
      "license_no": "",
      "license_date": null,
      "expire_date": null
    },
    {
      "name": "ウエルシア吉川栄店　移動販売車",
      "name_kana": "ウエルシアヨシカワサカエテン　イドウハンバイシャ",
      "business_type": "⑪ 百貨店、総合スーパー",
      "address": "埼玉県吉川市埼玉県内一円（さいたま市、越谷市、川口市、越谷市を除く）",
      "lat": 35.896147,
      "lng": 139.855554,
      "geocoding_level": null,
      "phone": "048-984-4371",
      "license_no": "",
      "license_date": null,
      "expire_date": null
    },
    {
      "name": "イオンタウン吉川美南　天平キムチ",
      "name_kana": "イオンタウンヨシカワミナミ　テンペイキムチ",
      "business_type": "⑬ その他の食料・飲料販売業",
      "address": "埼玉県吉川市美南3-25-1イオンタウン吉川美南　西街区１階　天平キムチ",
      "lat": 35.866569,
      "lng": 139.857044,
      "geocoding_level": null,
      "phone": "",
      "license_no": "",
      "license_date": null,
      "expire_date": null
    },
    {
      "name": "さくら吉川店",
      "name_kana": "サクラヨシカワテン",
      "business_type": "③ 乳類販売業",
      "address": "埼玉県吉川市保１－２－１１",
      "lat": 35.8777,
      "lng": 139.843615,
      "geocoding_level": null,
      "phone": "",
      "license_no": "",
      "license_date": null,
      "expire_date": null
    },
    {
      "name": "吉川市役所",
      "name_kana": "ヨシカワシヤクショ",
      "business_type": "③ 乳類販売業",
      "address": "埼玉県吉川市きよみ野１－１",
      "lat": 35.896026,
      "lng": 139.856646,
      "geocoding_level": null,
      "phone": "",
      "license_no": "",
      "license_date": null,
      "expire_date": null
    },
    {
      "name": "吉川市民交流センター",
      "name_kana": "ヨシカワシミンコウリュウセンター",
      "business_type": "③ 乳類販売業",
      "address": "埼玉県吉川市きよみ野1丁目1番地",
      "lat": 35.896026,
      "lng": 139.856646,
      "geocoding_level": null,
      "phone": "",
      "license_no": "",
      "license_date": null,
      "expire_date": null
    },
    {
      "name": "(有)須貝金属工業所",
      "name_kana": "スガイキンゾクコウギョウショ",
      "business_type": "㉗ 器具、容器包装の製造・加工業（合成樹脂が使用された器具又は容器包装の製造、加工に限る。）",
      "address": "埼玉県吉川市三輪野江2315",
      "lat": 35.873095,
      "lng": 139.891378,
      "geocoding_level": null,
      "phone": "0489822373",
      "license_no": "",
      "license_date": null,
      "expire_date": null
    },
    {
      "name": "吉川永田公園前",
      "name_kana": "ヨシカワナガタコウエンマエ",
      "business_type": "⑫ 自動販売機による販売業（コップ式自動販売機（自動洗浄・屋内設置）及び営業許可の対象となる自動販売機を除く）",
      "address": "埼玉県吉川市きよみ野4-10",
      "lat": 35.899072,
      "lng": 139.852807,
      "geocoding_level": null,
      "phone": "",
      "license_no": "",
      "license_date": null,
      "expire_date": null
    },
    {
      "name": "ビッグ・エー吉川高久店",
      "name_kana": "ビッグエーヨシカワタカヒサテン",
      "business_type": "⑪ 百貨店、総合スーパー",
      "address": "埼玉県吉川市高久2-8-9",
      "lat": 35.868326,
      "lng": 139.845332,
      "geocoding_level": null,
      "phone": "048-984-0135",
      "license_no": "",
      "license_date": null,
      "expire_date": null
    },
    {
      "name": "ウエルシアイオンタウン吉川美南ANNEX店",
      "name_kana": "ウエルシアイオンタウンヨシカワミナミアネックステン",
      "business_type": "⑪ 百貨店、総合スーパー",
      "address": "埼玉県吉川市美南3-12",
      "lat": 35.865238,
      "lng": 139.855939,
      "geocoding_level": null,
      "phone": "0489840860",
      "license_no": "",
      "license_date": null,
      "expire_date": null
    },
    {
      "name": "ウエルシアイオンタウン吉川美南ANNEX店",
      "name_kana": "ウエルシアイオンタウンヨシカワミナミアネックステン",
      "business_type": "⑫ 自動販売機による販売業（コップ式自動販売機（自動洗浄・屋内設置）及び営業許可の対象となる自動販売機を除く）",
      "address": "埼玉県吉川市美南3-12",
      "lat": 35.865238,
      "lng": 139.855939,
      "geocoding_level": null,
      "phone": "0489840860",
      "license_no": "",
      "license_date": null,
      "expire_date": null
    },
    {
      "name": "株式会社照和樹脂",
      "name_kana": "カブシキガイシャショウワジュシ",
      "business_type": "㉗ 器具、容器包装の製造・加工業（合成樹脂が使用された器具又は容器包装の製造、加工に限る。）",
      "address": "埼玉県吉川市関新田2-60-6",
      "lat": 35.898751,
      "lng": 139.868263,
      "geocoding_level": null,
      "phone": "048-982-0105",
      "license_no": "",
      "license_date": null,
      "expire_date": null
    },
    {
      "name": "しんみせ",
      "name_kana": "シンミセ",
      "business_type": "⑬ その他の食料・飲料販売業",
      "address": "埼玉県吉川市中曽根一丁目16番地25",
      "lat": 35.863364,
      "lng": 139.84029,
      "geocoding_level": null,
      "phone": "0489822285",
      "license_no": "",
      "license_date": null,
      "expire_date": null
    },
    {
      "name": "株式会社サイゼリヤ　吉川栄店",
      "name_kana": "カブシキガイシャサイゼリヤ　ヨシカワサカエ",
      "business_type": "⑬ その他の食料・飲料販売業",
      "address": "埼玉県吉川市栄町1450",
      "lat": 35.886896,
      "lng": 139.857237,
      "geocoding_level": null,
      "phone": "048-983-5054",
      "license_no": "",
      "license_date": null,
      "expire_date": null
    },
    {
      "name": "株式会社サイゼリヤ　イオンタウン吉川美南店",
      "name_kana": "カブシキガイシャサイゼリヤ　イオンタウンヨシカワミナミテン",
      "business_type": "⑬ その他の食料・飲料販売業",
      "address": "埼玉県吉川市美南3-23-1 イオンタウン吉川美南２F",
      "lat": 35.866519,
      "lng": 139.8579,
      "geocoding_level": null,
      "phone": "048-984-0181",
      "license_no": "",
      "license_date": null,
      "expire_date": null
    },
    {
      "name": "セブンイレブン吉川木売2丁目店",
      "name_kana": "セブンイレブンヨシカワキウリニチョウメテン",
      "business_type": "⑩ コンビニエンスストア",
      "address": "埼玉県吉川市木売2-13-8",
      "lat": 35.87439,
      "lng": 139.841677,
      "geocoding_level": null,
      "phone": "048-983-7067",
      "license_no": "",
      "license_date": null,
      "expire_date": null
    },
    {
      "name": "竹本容器株式会社　吉川事業所",
      "name_kana": "タケモトヨウキカブシキガイシャ　ヨシカワジギョウショ",
      "business_type": "㉗ 器具、容器包装の製造・加工業（合成樹脂が使用された器具又は容器包装の製造、加工に限る。）",
      "address": "埼玉県吉川市小松川75-1",
      "lat": 35.883849,
      "lng": 139.862725,
      "geocoding_level": null,
      "phone": "0489817551",
      "license_no": "",
      "license_date": null,
      "expire_date": null
    },
    {
      "name": "セブンイレブン　吉川川藤店",
      "name_kana": "セブンイレブン　ヨシカワカワフジテン",
      "business_type": "⑩ コンビニエンスストア",
      "address": "埼玉県吉川市川藤107",
      "lat": 35.898116,
      "lng": 139.840619,
      "geocoding_level": null,
      "phone": "0489817577",
      "license_no": "",
      "license_date": null,
      "expire_date": null
    },
    {
      "name": "ケンタッキーフライドチキン吉川駅前店",
      "name_kana": "ケンタッキーフライドチキンヨシカワエキマエテン",
      "business_type": "⑬ その他の食料・飲料販売業",
      "address": "埼玉県吉川市保1-13-3",
      "lat": 35.878239,
      "lng": 139.844249,
      "geocoding_level": null,
      "phone": "048-984-1581",
      "license_no": "",
      "license_date": null,
      "expire_date": null
    },
    {
      "name": "ビッグ・エー吉川高富店",
      "name_kana": "ビッグエーヨシカワタカトミテン",
      "business_type": "⑪ 百貨店、総合スーパー",
      "address": "埼玉県吉川市高富1-27-7",
      "lat": 35.870802,
      "lng": 139.8448,
      "geocoding_level": null,
      "phone": "048-982-1274",
      "license_no": "",
      "license_date": null,
      "expire_date": null
    },
    {
      "name": "ビッグ・エー吉川団地店",
      "name_kana": "ビッグエーヨシカワダンチテン",
      "business_type": "⑪ 百貨店、総合スーパー",
      "address": "埼玉県吉川市吉川団地1-9",
      "lat": 35.891487,
      "lng": 139.846669,
      "geocoding_level": null,
      "phone": "048-982-7150",
      "license_no": "",
      "license_date": null,
      "expire_date": null
    },
    {
      "name": "セブン-イレブン吉川木売新田店",
      "name_kana": "セブンーイレブンヨシカワキウリシンデンテン",
      "business_type": "⑩ コンビニエンスストア",
      "address": "埼玉県吉川市木売新田94-1",
      "lat": 35.876618,
      "lng": 139.858536,
      "geocoding_level": null,
      "phone": "0489825006",
      "license_no": "",
      "license_date": null,
      "expire_date": null
    },
    {
      "name": "かぞヤクルト販売株式会社吉川センター",
      "name_kana": "カゾヤクルトハンバイカブシキガイシャヨシカワセンター",
      "business_type": "③ 乳類販売業",
      "address": "埼玉県吉川市平沼1－25－5",
      "lat": 35.884536,
      "lng": 139.845128,
      "geocoding_level": null,
      "phone": "",
      "license_no": "",
      "license_date": null,
      "expire_date": null
    },
    {
      "name": "かぞヤクルト販売株式会社吉川センター",
      "name_kana": "カゾヤクルトハンバイカブシキガイシャヨシカワセンター",
      "business_type": "⑬ その他の食料・飲料販売業",
      "address": "埼玉県吉川市平沼1－25－5",
      "lat": 35.884536,
      "lng": 139.845128,
      "geocoding_level": null,
      "phone": "",
      "license_no": "",
      "license_date": null,
      "expire_date": null
    },
    {
      "name": "よしかわ杜の保育園",
      "name_kana": "ヨシカワモリノホイクエン",
      "business_type": "⑫ 自動販売機による販売業（コップ式自動販売機（自動洗浄・屋内設置）及び営業許可の対象となる自動販売機を除く）",
      "address": "埼玉県吉川市平沼６４９－１",
      "lat": 35.887059,
      "lng": 139.84845,
      "geocoding_level": null,
      "phone": "",
      "license_no": "",
      "license_date": null,
      "expire_date": null
    },
    {
      "name": "松屋　吉川店",
      "name_kana": "マツヤ　ヨシカワテン",
      "business_type": "① 飲食店営業",
      "address": "埼玉県吉川市木売1-4-11",
      "lat": 35.876959,
      "lng": 139.843106,
      "geocoding_level": null,
      "phone": "080-5928-0899",
      "license_no": "指令草保第1-808号",
      "license_date": "2025-01-23",
      "expire_date": "2031-01-31"
    },
    {
      "name": "すき家　吉川栄店",
      "name_kana": "スキヤ　ヨシカワサカエテン",
      "business_type": "⑬ その他の食料・飲料販売業",
      "address": "埼玉県吉川市栄町834-1",
      "lat": 35.885403,
      "lng": 139.849304,
      "geocoding_level": null,
      "phone": "",
      "license_no": "",
      "license_date": null,
      "expire_date": null
    },
    {
      "name": "海藻カフェ",
      "name_kana": "カイソウカフェ",
      "business_type": "⑬ その他の食料・飲料販売業",
      "address": "埼玉県吉川市美南3丁目25-1 イオンタウン吉川美南",
      "lat": 35.865592,
      "lng": 139.857926,
      "geocoding_level": null,
      "phone": "08011054485",
      "license_no": "",
      "license_date": null,
      "expire_date": null
    },
    {
      "name": "みたらし庵",
      "name_kana": "ミタラシアン",
      "business_type": "⑬ その他の食料・飲料販売業",
      "address": "埼玉県吉川市美南3丁目25-1 イオンタウン吉川美南",
      "lat": 35.865592,
      "lng": 139.857926,
      "geocoding_level": null,
      "phone": "",
      "license_no": "",
      "license_date": null,
      "expire_date": null
    },
    {
      "name": "TAMASAN PARK イオンタウン吉川美南",
      "name_kana": "タマサンパーク　イオンタウンヨシカワミナミ",
      "business_type": "⑬ その他の食料・飲料販売業",
      "address": "埼玉県吉川市美南3-25-1",
      "lat": 35.865924,
      "lng": 139.859105,
      "geocoding_level": null,
      "phone": "",
      "license_no": "",
      "license_date": null,
      "expire_date": null
    },
    {
      "name": "有限会社バラエテイストアーカマニ",
      "name_kana": "ユウゲンガイシャバラエテイストアーカマニ",
      "business_type": "⑬ その他の食料・飲料販売業",
      "address": "埼玉県吉川市平沼1-13-15",
      "lat": 35.884349,
      "lng": 139.842659,
      "geocoding_level": null,
      "phone": "0489820927",
      "license_no": "",
      "license_date": null,
      "expire_date": null
    },
    {
      "name": "とくし丸コモディイイダ23号車",
      "name_kana": "トクシマルコモディイイダニジュウサンゴウシャ",
      "business_type": "⑪ 百貨店、総合スーパー",
      "address": "埼玉県吉川市川藤　埼玉県内一円（さいたま市・川越市・越谷市・川口市を除く）",
      "lat": 35.837069,
      "lng": 139.673638,
      "geocoding_level": null,
      "phone": "",
      "license_no": "",
      "license_date": null,
      "expire_date": null
    },
    {
      "name": "和光産業PICKMEUPクイーンズハイツ高富",
      "name_kana": "ワコウサンギョウピックミーアップクイーンズハイツタカトミ",
      "business_type": "⑫ 自動販売機による販売業（コップ式自動販売機（自動洗浄・屋内設置）及び営業許可の対象となる自動販売機を除く）",
      "address": "埼玉県吉川市高富1-5-1 クイーンズハイツ高富",
      "lat": 35.872821,
      "lng": 139.844356,
      "geocoding_level": null,
      "phone": "09014339135",
      "license_no": "",
      "license_date": null,
      "expire_date": null
    },
    {
      "name": "こうろくファーム",
      "name_kana": "コウロクファーム",
      "business_type": "㉕ 行商",
      "address": "埼玉県吉川市全域",
      "lat": 35.896147,
      "lng": 139.855554,
      "geocoding_level": null,
      "phone": "",
      "license_no": "",
      "license_date": null,
      "expire_date": null
    },
    {
      "name": "イオンタウン吉川美南",
      "name_kana": "イオンタウンヨシカワミナミ",
      "business_type": "⑬ その他の食料・飲料販売業",
      "address": "埼玉県吉川市美南3丁目25番地1 イオンタウン吉川美南",
      "lat": 35.865592,
      "lng": 139.857926,
      "geocoding_level": null,
      "phone": "0489841021",
      "license_no": "",
      "license_date": null,
      "expire_date": null
    },
    {
      "name": "株式会社コモディイイダ吉川店",
      "name_kana": "コモディイイダヨシカワテン",
      "business_type": "⑪ 百貨店、総合スーパー",
      "address": "埼玉県吉川市きよみ野4-1-1",
      "lat": 35.897174,
      "lng": 139.853274,
      "geocoding_level": null,
      "phone": "0489821411",
      "license_no": "",
      "license_date": null,
      "expire_date": null
    },
    {
      "name": "Xuan Shop 吉川店",
      "name_kana": "スアン　ショップ　ヨシカワテン",
      "business_type": "⑩ コンビニエンスストア",
      "address": "埼玉県吉川市木売2-14-7 ロイヤルメゾン戸張105号",
      "lat": 35.874908,
      "lng": 139.842509,
      "geocoding_level": null,
      "phone": "08070403557",
      "license_no": "",
      "license_date": null,
      "expire_date": null
    },
    {
      "name": "株式会社新和",
      "name_kana": "カブシキカイシャシンワ",
      "business_type": "㉗ 器具、容器包装の製造・加工業（合成樹脂が使用された器具又は容器包装の製造、加工に限る。）",
      "address": "埼玉県吉川市吉川市小松川546-4",
      "lat": 35.883069,
      "lng": 139.864445,
      "geocoding_level": null,
      "phone": "0489810005",
      "license_no": "",
      "license_date": null,
      "expire_date": null
    },
    {
      "name": "株式会社artwork",
      "name_kana": "カブシキガイシャアートワーク",
      "business_type": "㉕ 行商",
      "address": "埼玉県吉川市草加市、三郷市、吉川市、八潮市",
      "lat": 35.822679,
      "lng": 139.839238,
      "geocoding_level": null,
      "phone": "",
      "license_no": "",
      "license_date": null,
      "expire_date": null
    },
    {
      "name": "株式会社アヤベ洋菓子　吉川工場",
      "name_kana": "カブシキガイシャアヤベヨウガシ　ヨシカワコウジョウ",
      "business_type": "⑪ 菓子製造業",
      "address": "埼玉県吉川市高久字佐左ェ門530番地外",
      "lat": 35.867149,
      "lng": 139.843209,
      "geocoding_level": null,
      "phone": "",
      "license_no": "指令草保第1-546号",
      "license_date": "2023-10-16",
      "expire_date": "2030-01-31"
    },
    {
      "name": "ＩＪＯＯＺ自動販売機　カインズ吉川美南",
      "name_kana": "アイジュースジドウハンバイキ　カインズヨシカワミナミ",
      "business_type": "② 調理機能を有する自動販売機（要許可）",
      "address": "埼玉県吉川市中曽根917-1",
      "lat": 35.86877,
      "lng": 139.85821,
      "geocoding_level": null,
      "phone": "",
      "license_no": "指令草保第1-555号",
      "license_date": "2025-11-29",
      "expire_date": "2032-01-31"
    },
    {
      "name": "イオンタウン吉川美南店　トルタイシーオ",
      "name_kana": "イオンタウンヨシカワミナミテン　トルタイシーオ",
      "business_type": "⑬ その他の食料・飲料販売業",
      "address": "埼玉県吉川市美南３丁目２５ー１ イオンタウン吉川美南店",
      "lat": 35.865592,
      "lng": 139.857926,
      "geocoding_level": null,
      "phone": "048-984-1020",
      "license_no": "",
      "license_date": null,
      "expire_date": null
    },
    {
      "name": "カスミ移動スーパー",
      "name_kana": "カスミイドウスーパー",
      "business_type": "⑬ その他の食料・飲料販売業",
      "address": "埼玉県吉川市埼玉県吉川市　埼玉県内一円（さいたま市、川越市、川口市、越谷市を除く）",
      "lat": 35.895921,
      "lng": 139.855673,
      "geocoding_level": 2,
      "phone": "048-990-1855",
      "license_no": "",
      "license_date": null,
      "expire_date": null
    },
    {
      "name": "カインズホーム吉川美南店",
      "name_kana": "カインズホームヨシカワミナミテン",
      "business_type": "⑫ 自動販売機による販売業（コップ式自動販売機（自動洗浄・屋内設置）及び営業許可の対象となる自動販売機を除く）",
      "address": "埼玉県吉川市中曽根917-1",
      "lat": 35.86877,
      "lng": 139.85821,
      "geocoding_level": null,
      "phone": "",
      "license_no": "",
      "license_date": null,
      "expire_date": null
    },
    {
      "name": "吉川つばさ保育園",
      "name_kana": "ヨシカワツバサホイクエン",
      "business_type": "㉖ 集団給食施設",
      "address": "埼玉県吉川市保1-24-1",
      "lat": 35.880419,
      "lng": 139.845392,
      "geocoding_level": null,
      "phone": "048-951-5728",
      "license_no": "",
      "license_date": null,
      "expire_date": null
    },
    {
      "name": "イオンタウン吉川美南比沙家鎌倉",
      "name_kana": "イオンモールムサシムラヤマヒサヤカマクラ",
      "business_type": "⑬ その他の食料・飲料販売業",
      "address": "埼玉県吉川市美南3丁目25-1 イオンタウン吉川美南西街区1階",
      "lat": 35.865924,
      "lng": 139.859105,
      "geocoding_level": null,
      "phone": "09033117519",
      "license_no": "",
      "license_date": null,
      "expire_date": null
    },
    {
      "name": "ミヤコ樹脂工業株式会社",
      "name_kana": "ミヤコジュシコウギョウカブシキガイシャ",
      "business_type": "㉗ 器具、容器包装の製造・加工業（合成樹脂が使用された器具又は容器包装の製造、加工に限る。）",
      "address": "埼玉県吉川市中野303",
      "lat": 35.884152,
      "lng": 139.859774,
      "geocoding_level": null,
      "phone": "",
      "license_no": "",
      "license_date": null,
      "expire_date": null
    },
    {
      "name": "Ordinary　Coffee　Works",
      "name_kana": "オーディナリー　コーヒー　ワークス",
      "business_type": "⑯ コーヒー製造・加工業（飲料の製造を除く。）",
      "address": "埼玉県吉川市新栄2丁目14-16",
      "lat": 35.889873,
      "lng": 139.859969,
      "geocoding_level": null,
      "phone": "098-982-8841",
      "license_no": "",
      "license_date": null,
      "expire_date": null
    },
    {
      "name": "ツクイ・サンシャイン吉川",
      "name_kana": "ツクイ・サンシャインヨシカワ",
      "business_type": "㉖ 集団給食施設",
      "address": "埼玉県吉川市木売２－１１－３",
      "lat": 35.875443,
      "lng": 139.841499,
      "geocoding_level": null,
      "phone": "048-984-5220",
      "license_no": "",
      "license_date": null,
      "expire_date": null
    },
    {
      "name": "吉川美南営業所",
      "name_kana": "ヨシカワミナミエイギョウショ",
      "business_type": "㉖ 集団給食施設",
      "address": "埼玉県吉川市美南４－５－２",
      "lat": 35.863323,
      "lng": 139.848763,
      "geocoding_level": null,
      "phone": "048-984-0910",
      "license_no": "",
      "license_date": null,
      "expire_date": null
    },
    {
      "name": "カレーハウスCoCo壱番屋/株式会社千葉家",
      "name_kana": "カレーハウスココイチバンヤカブシキガイシャチバヤ",
      "business_type": "① 飲食店営業",
      "address": "埼玉県吉川市高富1-3-6 鈴木パーキング NO.1",
      "lat": 35.873203,
      "lng": 139.843832,
      "geocoding_level": null,
      "phone": "",
      "license_no": "指令草保 第 1-385号",
      "license_date": "2025-09-01",
      "expire_date": "2031-09-30"
    },
    {
      "name": "イリーゼ　よしかわ",
      "name_kana": "イリーゼ　ヨシカワ",
      "business_type": "① 飲食店営業",
      "address": "埼玉県吉川市美南4-18-3",
      "lat": 35.864707,
      "lng": 139.851168,
      "geocoding_level": null,
      "phone": "080-8311-8690",
      "license_no": "指令草保第1-110号",
      "license_date": "2025-06-12",
      "expire_date": "2031-06-30"
    },
    {
      "name": "STAR株式会社",
      "name_kana": "スターカブシキガイシャ",
      "business_type": "⑧ 米穀類販売業",
      "address": "埼玉県吉川市保1-3-10",
      "lat": 35.877426,
      "lng": 139.844589,
      "geocoding_level": null,
      "phone": "09043983382",
      "license_no": "",
      "license_date": null,
      "expire_date": null
    }
  ]
}
