{
  "meta": {
    "updated": 1783568789,
    "sources": [
      {
        "source": "厚生労働省 食品衛生申請等システム（オープンデータ）",
        "license": "公共データ利用規約（第1.0版, PDL1.0）"
      }
    ]
  },
  "data": [
    {
      "name": "小鹿野中央病院事業所",
      "name_kana": "オガノチュウオウビョウインジギョウショ",
      "business_type": "① 飲食店営業",
      "address": "埼玉県秩父郡小鹿野町小鹿野300",
      "lat": 36.018389,
      "lng": 139.00409,
      "geocoding_level": null,
      "phone": "0494-75-5152",
      "license_no": "秩保第１－７７1",
      "license_date": "2022-03-24",
      "expire_date": "2028-03-31"
    },
    {
      "name": "小鹿野中央病院職員食堂事業所",
      "name_kana": "オガノチュウオウビョウインショクインショクドウジギョウショ",
      "business_type": "① 飲食店営業",
      "address": "埼玉県秩父郡小鹿野町小鹿野300",
      "lat": 36.018399,
      "lng": 139.004339,
      "geocoding_level": null,
      "phone": "0494-75-5152",
      "license_no": "秩保第１－７７０",
      "license_date": "2022-03-24",
      "expire_date": "2028-03-31"
    },
    {
      "name": "ドラッグセイムス小鹿野町店",
      "name_kana": "ドラッグセイムスオガノマチテン",
      "business_type": "⑬ その他の食料・飲料販売業",
      "address": "埼玉県秩父郡小鹿野町下小鹿野772-1",
      "lat": 36.015326,
      "lng": 139.034923,
      "geocoding_level": null,
      "phone": "0494-72-7011",
      "license_no": "",
      "license_date": null,
      "expire_date": null
    },
    {
      "name": "業務スーパー小鹿野店",
      "name_kana": "ギョウムスーパーオガノテン",
      "business_type": "① 魚介類販売業（包装済みの魚介類のみの販売）",
      "address": "埼玉県秩父郡小鹿野町小鹿野1972番1",
      "lat": 36.020696,
      "lng": 139.007128,
      "geocoding_level": null,
      "phone": "0494-26-7481",
      "license_no": "",
      "license_date": null,
      "expire_date": null
    },
    {
      "name": "業務スーパー小鹿野店",
      "name_kana": "ギョウムスーパーオガノテン",
      "business_type": "② 食肉販売業（包装済みの食肉のみの販売）",
      "address": "埼玉県秩父郡小鹿野町小鹿野1972番1",
      "lat": 36.020696,
      "lng": 139.007128,
      "geocoding_level": null,
      "phone": "0494-26-7481",
      "license_no": "",
      "license_date": null,
      "expire_date": null
    },
    {
      "name": "業務スーパー小鹿野店",
      "name_kana": "ギョウムスーパーオガノテン",
      "business_type": "③ 乳類販売業",
      "address": "埼玉県秩父郡小鹿野町小鹿野1972番1",
      "lat": 36.020696,
      "lng": 139.007128,
      "geocoding_level": null,
      "phone": "0494-26-7481",
      "license_no": "",
      "license_date": null,
      "expire_date": null
    },
    {
      "name": "業務スーパー小鹿野店",
      "name_kana": "ギョウムスーパーオガノテン",
      "business_type": "⑪ 百貨店、総合スーパー",
      "address": "埼玉県秩父郡小鹿野町小鹿野1972番1",
      "lat": 36.020696,
      "lng": 139.007128,
      "geocoding_level": null,
      "phone": "0494-26-7481",
      "license_no": "",
      "license_date": null,
      "expire_date": null
    },
    {
      "name": "ウエルシア秩父小鹿野店",
      "name_kana": "ウエルシアチチブオガノテン",
      "business_type": "⑪ 百貨店、総合スーパー",
      "address": "埼玉県秩父郡小鹿野町小鹿野1979",
      "lat": 36.020952,
      "lng": 139.00774,
      "geocoding_level": null,
      "phone": "0494727400",
      "license_no": "",
      "license_date": null,
      "expire_date": null
    },
    {
      "name": "ドラッグイチワタ小鹿野店",
      "name_kana": "ドラッグイチワタオガノテン",
      "business_type": "⑪ 百貨店、総合スーパー",
      "address": "埼玉県秩父郡小鹿野町小鹿野2000",
      "lat": 36.022246,
      "lng": 139.007144,
      "geocoding_level": null,
      "phone": "0494727077",
      "license_no": "",
      "license_date": null,
      "expire_date": null
    },
    {
      "name": "有限会社戸田乳業",
      "name_kana": "ユウゲンガイシャトダニュウギョウ",
      "business_type": "⑬ その他の食料・飲料販売業",
      "address": "埼玉県秩父郡小鹿野町小鹿野984",
      "lat": 36.023684,
      "lng": 138.999247,
      "geocoding_level": null,
      "phone": "0494750168",
      "license_no": "",
      "license_date": null,
      "expire_date": null
    },
    {
      "name": "有限会社戸田乳業",
      "name_kana": "ユウゲンガイシャトダニュウギョウ",
      "business_type": "⑬ その他の食料・飲料販売業",
      "address": "埼玉県秩父郡小鹿野町小鹿野1046-1",
      "lat": 36.024002,
      "lng": 138.999166,
      "geocoding_level": null,
      "phone": "0494750168",
      "license_no": "",
      "license_date": null,
      "expire_date": null
    },
    {
      "name": "有限会社戸田乳業",
      "name_kana": "ユウゲンガイシャトダニュウギョウ",
      "business_type": "⑭ 添加物製造・加工業（法第13 条第１項の規定により規格が定められた添加物の製造を除く。）",
      "address": "埼玉県秩父郡小鹿野町小鹿野1046-1",
      "lat": 36.024002,
      "lng": 138.999166,
      "geocoding_level": null,
      "phone": "0494750168",
      "license_no": "",
      "license_date": null,
      "expire_date": null
    },
    {
      "name": "長尾根農林産物直売所",
      "name_kana": "ナガオネノウリンサンブツチョクバイジョ",
      "business_type": "③ 乳類販売業",
      "address": "埼玉県秩父郡小鹿野町長留2523",
      "lat": 35.982586,
      "lng": 139.043185,
      "geocoding_level": null,
      "phone": "",
      "license_no": "",
      "license_date": null,
      "expire_date": null
    },
    {
      "name": "長尾根農林産物直売所",
      "name_kana": "ナガオネノウリンサンブツチョクバイジョ",
      "business_type": "⑦ 野菜果物販売業",
      "address": "埼玉県秩父郡小鹿野町長留2523",
      "lat": 35.982586,
      "lng": 139.043185,
      "geocoding_level": null,
      "phone": "",
      "license_no": "",
      "license_date": null,
      "expire_date": null
    },
    {
      "name": "ふれあいキッチン",
      "name_kana": "フレアイキッチン",
      "business_type": "⑥ 弁当販売業",
      "address": "埼玉県秩父郡小鹿野町小鹿野300",
      "lat": 36.018192,
      "lng": 139.003817,
      "geocoding_level": null,
      "phone": "",
      "license_no": "",
      "license_date": null,
      "expire_date": null
    },
    {
      "name": "株式会社ふるさと両神",
      "name_kana": "カブシキガイシャフルサトリョウカミ",
      "business_type": "㉔ その他の食料品製造・加工業",
      "address": "埼玉県秩父郡小鹿野町両神薄1036-3",
      "lat": 36.020116,
      "lng": 138.977729,
      "geocoding_level": null,
      "phone": "0494-79-1130",
      "license_no": "",
      "license_date": null,
      "expire_date": null
    },
    {
      "name": "コメリハードアンドグリーン小鹿野店",
      "name_kana": "コメリハードアンドグリーンオガノテン",
      "business_type": "⑧ 米穀類販売業",
      "address": "埼玉県秩父郡小鹿野町小鹿野字田端２１３８",
      "lat": 36.022887,
      "lng": 139.004061,
      "geocoding_level": null,
      "phone": "0494-72-7462",
      "license_no": "",
      "license_date": null,
      "expire_date": null
    }
  ]
}
