{
  "meta": {
    "updated": 1783568789,
    "sources": [
      {
        "source": "厚生労働省 食品衛生申請等システム（オープンデータ）",
        "license": "公共データ利用規約（第1.0版, PDL1.0）"
      }
    ]
  },
  "data": [
    {
      "name": "かふぇPOPPO　ルート販売",
      "name_kana": "カフェポッポルートハンバイ",
      "business_type": "⑦ 野菜果物販売業",
      "address": "北海道茅部郡鹿部町鹿部22-1",
      "lat": 41.981034,
      "lng": 140.812347,
      "geocoding_level": null,
      "phone": "",
      "license_no": "",
      "license_date": null,
      "expire_date": null
    },
    {
      "name": "農かふぇ　POPPO",
      "name_kana": "ノウカフェ　ポッポ",
      "business_type": "① 飲食店営業",
      "address": "北海道茅部郡鹿部町字鹿部22-1",
      "lat": 41.981034,
      "lng": 140.812347,
      "geocoding_level": null,
      "phone": "01372-7-2020",
      "license_no": "273-50",
      "license_date": "2021-07-16",
      "expire_date": "2026-10-20"
    },
    {
      "name": "農かふぇ　POPPO",
      "name_kana": "ノウカフェ　ポッポ",
      "business_type": "⑪ 菓子製造業",
      "address": "北海道茅部郡鹿部町字鹿部22-1",
      "lat": 41.981034,
      "lng": 140.812347,
      "geocoding_level": null,
      "phone": "01372-7-2020",
      "license_no": "273-51",
      "license_date": "2021-07-16",
      "expire_date": "2026-10-20"
    },
    {
      "name": "有限会社吉の湯",
      "name_kana": "ユウゲンガイシャヨシノユ",
      "business_type": "① 飲食店営業",
      "address": "北海道茅部郡鹿部町字鹿部45番地",
      "lat": 42.029485,
      "lng": 140.826972,
      "geocoding_level": null,
      "phone": "01372-7-2211",
      "license_no": "273-81",
      "license_date": "2021-09-06",
      "expire_date": "2027-10-20"
    },
    {
      "name": "セイコーマート鹿部店",
      "name_kana": "セイコーマートシカベテン",
      "business_type": "⑩ コンビニエンスストア",
      "address": "北海道茅部郡鹿部町宮浜９４番地２",
      "lat": 42.038628,
      "lng": 140.816543,
      "geocoding_level": null,
      "phone": "0137272043",
      "license_no": "",
      "license_date": null,
      "expire_date": null
    },
    {
      "name": "セイコーマート鹿部店",
      "name_kana": "セイコーマートシカベテン",
      "business_type": "① 飲食店営業",
      "address": "北海道茅部郡鹿部町字宮浜94番地2",
      "lat": 42.038628,
      "lng": 140.816543,
      "geocoding_level": null,
      "phone": "01372-7-2043",
      "license_no": "24-12",
      "license_date": "2026-04-10",
      "expire_date": "2032-04-20"
    },
    {
      "name": "デイマートナカガワ",
      "name_kana": "デイマートナカガワ",
      "business_type": "⑬ その他の食料・飲料販売業",
      "address": "北海道茅部郡鹿部町宮浜231",
      "lat": 42.044936,
      "lng": 140.810238,
      "geocoding_level": null,
      "phone": "0137272021",
      "license_no": "",
      "license_date": null,
      "expire_date": null
    },
    {
      "name": "直売所",
      "name_kana": "チョクバイジョ",
      "business_type": "⑬ その他の食料・飲料販売業",
      "address": "北海道茅部郡鹿部町宮浜371-2",
      "lat": 42.020955,
      "lng": 140.78506,
      "geocoding_level": null,
      "phone": "0137273935",
      "license_no": "",
      "license_date": null,
      "expire_date": null
    },
    {
      "name": "株式会社道南冷蔵　鹿部　第一倉庫",
      "name_kana": "カブシキガイシャドウナンレイゾウシカベダイイチソウコ",
      "business_type": "⑯ 水産製品製造業",
      "address": "北海道茅部郡鹿部町字宮浜370-1",
      "lat": 42.020955,
      "lng": 140.78506,
      "geocoding_level": null,
      "phone": "0137-27-2121",
      "license_no": "273-126",
      "license_date": "2021-10-15",
      "expire_date": "2027-10-20"
    },
    {
      "name": "マルマツストアー",
      "name_kana": "マルマツストアー",
      "business_type": "⑬ その他の食料・飲料販売業",
      "address": "北海道茅部郡鹿部町字本別146-4",
      "lat": 42.05068,
      "lng": 140.81046,
      "geocoding_level": null,
      "phone": "01372-7-2139",
      "license_no": "",
      "license_date": null,
      "expire_date": null
    },
    {
      "name": "セブンイレブン鹿部町店",
      "name_kana": "セブンイレブンシカベチョウテン",
      "business_type": "⑩ コンビニエンスストア",
      "address": "北海道茅部郡鹿部町鹿部65",
      "lat": 42.03045,
      "lng": 140.824666,
      "geocoding_level": null,
      "phone": "0137275525",
      "license_no": "",
      "license_date": null,
      "expire_date": null
    },
    {
      "name": "セブンイレブン鹿部町店",
      "name_kana": "セブンイレブンシカベチョウテン",
      "business_type": "① 飲食店営業",
      "address": "北海道茅部郡鹿部町字鹿部65番地",
      "lat": 42.03045,
      "lng": 140.824666,
      "geocoding_level": null,
      "phone": "01372-7-5525",
      "license_no": "42-192",
      "license_date": "2023-10-02",
      "expire_date": "2029-10-20"
    },
    {
      "name": "しかべ健康茶の会",
      "name_kana": "シカベケンコウチャノカイ",
      "business_type": "㉑ 製茶業",
      "address": "北海道茅部郡鹿部町字本別569-1119",
      "lat": 42.076361,
      "lng": 140.772566,
      "geocoding_level": null,
      "phone": "",
      "license_no": "",
      "license_date": null,
      "expire_date": null
    },
    {
      "name": "しかべ健康茶の会　工房",
      "name_kana": "シカベケンコウチャノカイ　コウボウ",
      "business_type": "㉚ 密封包装食品製造業",
      "address": "北海道茅部郡鹿部町字本別569-1119",
      "lat": 42.076361,
      "lng": 140.772566,
      "geocoding_level": null,
      "phone": "01372-7-7755",
      "license_no": "42-241",
      "license_date": "2023-12-07",
      "expire_date": "2029-04-20"
    },
    {
      "name": "有限会社一印髙田水産",
      "name_kana": "ユウゲンガイシャイチジルシタカダスイサン",
      "business_type": "⑯ 水産製品製造業",
      "address": "北海道茅部郡鹿部町字本別15番地",
      "lat": 42.048325,
      "lng": 140.81094,
      "geocoding_level": null,
      "phone": "01372-7-2013",
      "license_no": "273-141",
      "license_date": "2021-11-19",
      "expire_date": "2027-04-20"
    },
    {
      "name": "有限会社　一印高田水産",
      "name_kana": "ユウゲンガイシャ　イチジルシタカダスイサン",
      "business_type": "① 飲食店営業",
      "address": "北海道茅部郡鹿部町渡島保健所管内一円",
      "lat": 42.06993,
      "lng": 140.778987,
      "geocoding_level": null,
      "phone": "",
      "license_no": "23-44",
      "license_date": "2025-05-28",
      "expire_date": "2030-10-20"
    },
    {
      "name": "有限会社一印高田水産",
      "name_kana": "ユウゲンガイシャイチジルシタカダスイサン",
      "business_type": "㉕ 行商",
      "address": "北海道茅部郡鹿部町渡島保健所管内一円",
      "lat": 42.06993,
      "lng": 140.778987,
      "geocoding_level": null,
      "phone": "",
      "license_no": "",
      "license_date": null,
      "expire_date": null
    },
    {
      "name": "合名会社山締清水商店 ローソン鹿部町店",
      "name_kana": "ゴウメイカイシャヤマジメシミズショウテン　ローソンシカベチョウテン",
      "business_type": "⑩ コンビニエンスストア",
      "address": "北海道茅部郡鹿部町宮浜252-8",
      "lat": 42.04211,
      "lng": 140.810914,
      "geocoding_level": null,
      "phone": "0137275515",
      "license_no": "",
      "license_date": null,
      "expire_date": null
    },
    {
      "name": "合名会社山締清水商店ローソン鹿部町店",
      "name_kana": "ゴウメイガイシャヤマシメシミズショウテンローソンシカベチョウテン",
      "business_type": "① 飲食店営業",
      "address": "北海道茅部郡鹿部町字宮浜252-8",
      "lat": 42.04211,
      "lng": 140.810914,
      "geocoding_level": null,
      "phone": "01372-7-5515",
      "license_no": "23-14",
      "license_date": "2025-04-09",
      "expire_date": "2031-04-20"
    },
    {
      "name": "有限会社双葉葛西商店",
      "name_kana": "ユウゲンガイシャフタバカサイショウテン",
      "business_type": "③ 食肉販売業",
      "address": "北海道茅部郡鹿部町字鹿部118-12",
      "lat": 42.032721,
      "lng": 140.821121,
      "geocoding_level": null,
      "phone": "01372-7-2023",
      "license_no": "24-11",
      "license_date": "2026-04-08",
      "expire_date": "2032-04-20"
    },
    {
      "name": "有限会社双葉葛西商店",
      "name_kana": "ユウゲンガイシャフタバカサイショウテン",
      "business_type": "⑬ その他の食料・飲料販売業",
      "address": "北海道茅部郡鹿部町字鹿部118-12",
      "lat": 42.032721,
      "lng": 140.821121,
      "geocoding_level": null,
      "phone": "01372-7-2023",
      "license_no": "",
      "license_date": null,
      "expire_date": null
    },
    {
      "name": "（有）山小小板商店",
      "name_kana": "ユウゲンガイシャヤマココイタショウテン",
      "business_type": "⑪ 百貨店、総合スーパー",
      "address": "北海道茅部郡鹿部町字鹿部95番地の3",
      "lat": 42.031602,
      "lng": 140.822965,
      "geocoding_level": null,
      "phone": "01372-7-2079",
      "license_no": "",
      "license_date": null,
      "expire_date": null
    },
    {
      "name": "（有）山小小板商店",
      "name_kana": "ユウゲンガイシャヤマココイタショウテン",
      "business_type": "① 飲食店営業",
      "address": "北海道茅部郡鹿部町字鹿部95ｰ3",
      "lat": 42.031602,
      "lng": 140.822965,
      "geocoding_level": null,
      "phone": "01372-7-2079",
      "license_no": "40-157",
      "license_date": "2022-10-19",
      "expire_date": "2028-10-20"
    },
    {
      "name": "（有）山小小板商店",
      "name_kana": "ユウゲンガイシャヤマココイタショウテン",
      "business_type": "③ 食肉販売業",
      "address": "北海道茅部郡鹿部町字鹿部95ｰ3",
      "lat": 42.031602,
      "lng": 140.822965,
      "geocoding_level": null,
      "phone": "01372-7-2079",
      "license_no": "40-157",
      "license_date": "2022-10-19",
      "expire_date": "2028-10-20"
    },
    {
      "name": "（有）山小小板商店",
      "name_kana": "ユウゲンガイシャヤマココイタショウテン",
      "business_type": "④ 魚介類販売業",
      "address": "北海道茅部郡鹿部町字鹿部95ｰ3",
      "lat": 42.031602,
      "lng": 140.822965,
      "geocoding_level": null,
      "phone": "01372-7-2079",
      "license_no": "40-157",
      "license_date": "2022-10-19",
      "expire_date": "2028-10-20"
    },
    {
      "name": "（有）山小小板商店",
      "name_kana": "ユウゲンガイシャヤマココイタショウテン",
      "business_type": "① 飲食店営業",
      "address": "北海道茅部郡鹿部町字鹿部95ｰ3",
      "lat": 42.031602,
      "lng": 140.822965,
      "geocoding_level": null,
      "phone": "01372-7-2079",
      "license_no": "40-157",
      "license_date": "2022-10-19",
      "expire_date": "2028-10-20"
    },
    {
      "name": "イリマス松本商店",
      "name_kana": "イリマスマツモトショウテン",
      "business_type": "⑬ その他の食料・飲料販売業",
      "address": "北海道茅部郡鹿部町字本別366-3",
      "lat": 42.053934,
      "lng": 140.801323,
      "geocoding_level": null,
      "phone": "01372-7-2344",
      "license_no": "",
      "license_date": null,
      "expire_date": null
    },
    {
      "name": "有限会社嘉楽",
      "name_kana": "ユウゲンカイシャカラク",
      "business_type": "⑬ その他の食料・飲料販売業",
      "address": "北海道茅部郡鹿部町本別529-651",
      "lat": 42.070923,
      "lng": 140.771216,
      "geocoding_level": null,
      "phone": "01372-7-3489",
      "license_no": "",
      "license_date": null,
      "expire_date": null
    },
    {
      "name": "有限会社嘉楽",
      "name_kana": "ユウゲンガイシャカラク",
      "business_type": "⑯ 水産製品製造業",
      "address": "北海道茅部郡鹿部町字本別529ｰ651",
      "lat": 42.070923,
      "lng": 140.771216,
      "geocoding_level": null,
      "phone": "01372-7-3489",
      "license_no": "27-75",
      "license_date": "2024-05-28",
      "expire_date": "2029-10-20"
    },
    {
      "name": "渡島リハビリ売店",
      "name_kana": "オシマリハビリバイテン",
      "business_type": "⑬ その他の食料・飲料販売業",
      "address": "北海道茅部郡鹿部町字鹿部258-7",
      "lat": 42.023687,
      "lng": 140.832202,
      "geocoding_level": null,
      "phone": "01372-7-3321",
      "license_no": "",
      "license_date": null,
      "expire_date": null
    },
    {
      "name": "岩井商店",
      "name_kana": "イワイショウテン",
      "business_type": "⑯ 水産製品製造業",
      "address": "北海道茅部郡鹿部町字宮浜350-30",
      "lat": 42.036815,
      "lng": 140.809101,
      "geocoding_level": null,
      "phone": "01372-7-2890",
      "license_no": "273-166",
      "license_date": "2021-12-20",
      "expire_date": "2028-04-20"
    },
    {
      "name": "（有）高村商店",
      "name_kana": "ユウゲンガイシャタカムラショウテン",
      "business_type": "⑯ 水産製品製造業",
      "address": "北海道茅部郡鹿部町字宮浜314番地",
      "lat": 42.036192,
      "lng": 140.812325,
      "geocoding_level": null,
      "phone": "01372-7-3161",
      "license_no": "273-165",
      "license_date": "2021-12-20",
      "expire_date": "2028-04-20"
    },
    {
      "name": "喫茶moi",
      "name_kana": "キッサモイ",
      "business_type": "① 飲食店営業",
      "address": "北海道茅部郡鹿部町字鹿部118-19",
      "lat": 42.032541,
      "lng": 140.821409,
      "geocoding_level": null,
      "phone": "",
      "license_no": "1999",
      "license_date": "2022-03-02",
      "expire_date": "2028-04-20"
    },
    {
      "name": "喫茶moi",
      "name_kana": "キッサモイ",
      "business_type": "⑪ 菓子製造業",
      "address": "北海道茅部郡鹿部町字鹿部118-19",
      "lat": 42.032541,
      "lng": 140.821409,
      "geocoding_level": null,
      "phone": "",
      "license_no": "1999",
      "license_date": "2022-03-02",
      "expire_date": "2028-04-20"
    },
    {
      "name": "喫茶moi",
      "name_kana": "キッサモイ",
      "business_type": "⑬ その他の食料・飲料販売業",
      "address": "北海道茅部郡鹿部町字鹿部118-19",
      "lat": 42.032541,
      "lng": 140.821409,
      "geocoding_level": null,
      "phone": "",
      "license_no": "",
      "license_date": null,
      "expire_date": null
    },
    {
      "name": "喫茶moi",
      "name_kana": "キッサモイ",
      "business_type": "㉕ 行商",
      "address": "北海道茅部郡鹿部町渡島保健所管内一円",
      "lat": 42.06993,
      "lng": 140.778987,
      "geocoding_level": null,
      "phone": "",
      "license_no": "",
      "license_date": null,
      "expire_date": null
    },
    {
      "name": "浜のかあさん食堂",
      "name_kana": "ハマノカアサンショクドウ",
      "business_type": "① 飲食店営業",
      "address": "北海道茅部郡鹿部町字鹿部18-1",
      "lat": 42.028986,
      "lng": 140.829567,
      "geocoding_level": null,
      "phone": "01372-7-5655",
      "license_no": "1999-7",
      "license_date": "2022-03-17",
      "expire_date": "2028-04-20"
    },
    {
      "name": "こいたのおかず屋",
      "name_kana": "コイタノオカズヤ",
      "business_type": "① 飲食店営業",
      "address": "北海道茅部郡鹿部町字鹿部18-1",
      "lat": 42.028986,
      "lng": 140.829567,
      "geocoding_level": null,
      "phone": "01372-7-5655",
      "license_no": "1999-10",
      "license_date": "2022-03-18",
      "expire_date": "2028-04-20"
    },
    {
      "name": "(株)こいた工房",
      "name_kana": "カブシキガイシャコイタコウボウ",
      "business_type": "① 飲食店営業",
      "address": "北海道茅部郡鹿部町字鹿部92ｰ1",
      "lat": 42.031712,
      "lng": 140.823009,
      "geocoding_level": null,
      "phone": "",
      "license_no": "40-20",
      "license_date": "2022-04-20",
      "expire_date": "2027-04-20"
    },
    {
      "name": "鹿部漁業協同組合鹿部地方卸売市場",
      "name_kana": "シカベギョウギョウキョウドウクミアイシカベチホウオロシウリシジョウ",
      "business_type": "⑤ 魚介類競り売り営業",
      "address": "北海道茅部郡鹿部町字鹿部漁港埋立地",
      "lat": 42.031259,
      "lng": 140.825575,
      "geocoding_level": null,
      "phone": "01372-7-2201",
      "license_no": "1999-6",
      "license_date": "2022-03-17",
      "expire_date": "2028-04-20"
    },
    {
      "name": "丸宮水産（株）",
      "name_kana": "マルミヤスイサンカブシキガイシャ",
      "business_type": "⑯ 水産製品製造業",
      "address": "北海道茅部郡鹿部町字宮浜235",
      "lat": 42.044252,
      "lng": 140.809849,
      "geocoding_level": null,
      "phone": "",
      "license_no": "40-19",
      "license_date": "2022-04-20",
      "expire_date": "2028-04-20"
    },
    {
      "name": "鹿部・食とうまいもの館",
      "name_kana": "シカベ・ショクトウマイモノカン",
      "business_type": "⑬ その他の食料・飲料販売業",
      "address": "北海道茅部郡鹿部町字鹿部18番地1",
      "lat": 42.028986,
      "lng": 140.829567,
      "geocoding_level": null,
      "phone": "",
      "license_no": "",
      "license_date": null,
      "expire_date": null
    },
    {
      "name": "株式会社道南冷蔵　鹿部　旧工場",
      "name_kana": "カブシキガイシャドウナンレイゾウシカベキュウコウジョウ",
      "business_type": "⑯ 水産製品製造業",
      "address": "北海道茅部郡鹿部町字宮浜328",
      "lat": 42.034941,
      "lng": 140.816832,
      "geocoding_level": null,
      "phone": "",
      "license_no": "40-153",
      "license_date": "2022-10-14",
      "expire_date": "2028-10-20"
    },
    {
      "name": "（株）丸鮮道場水産",
      "name_kana": "カブシキガイシャマルセンミチバスイサン",
      "business_type": "⑯ 水産製品製造業",
      "address": "北海道茅部郡鹿部町字宮浜194－2",
      "lat": 42.043412,
      "lng": 140.812758,
      "geocoding_level": null,
      "phone": "",
      "license_no": "40-152",
      "license_date": "2022-10-14",
      "expire_date": "2028-10-20"
    },
    {
      "name": "（有）家保商店",
      "name_kana": "ユウゲンガイシャイエヤスショウテン",
      "business_type": "⑯ 水産製品製造業",
      "address": "北海道茅部郡鹿部町字宮浜14",
      "lat": 42.020955,
      "lng": 140.78506,
      "geocoding_level": null,
      "phone": "",
      "license_no": "40-154",
      "license_date": "2022-10-14",
      "expire_date": "2028-10-20"
    },
    {
      "name": "株式会社海幸楽",
      "name_kana": "カブシキカイシャカイコウラク",
      "business_type": "㉙ その他",
      "address": "北海道茅部郡鹿部町字本別405-2",
      "lat": 42.05085,
      "lng": 140.745537,
      "geocoding_level": null,
      "phone": "",
      "license_no": "",
      "license_date": null,
      "expire_date": null
    },
    {
      "name": "お食事処ゆとり",
      "name_kana": "オショクジドコロユトリ",
      "business_type": "① 飲食店営業",
      "address": "北海道茅部郡鹿部町字本別335－43",
      "lat": 42.05806,
      "lng": 140.800086,
      "geocoding_level": null,
      "phone": "",
      "license_no": "40-260",
      "license_date": "2023-03-23",
      "expire_date": "2029-04-20"
    },
    {
      "name": "大丸高田漁業",
      "name_kana": "ダイマルタカダギョギョウ",
      "business_type": "④ 魚介類販売業",
      "address": "北海道茅部郡鹿部町字本別261－1",
      "lat": 42.054642,
      "lng": 140.803343,
      "geocoding_level": null,
      "phone": "",
      "license_no": "42-20",
      "license_date": "2023-04-18",
      "expire_date": "2029-04-20"
    },
    {
      "name": "株式会社イリエ船橋商店",
      "name_kana": "カブシキガイシャイリエフナバシショウテン",
      "business_type": "⑯ 水産製品製造業",
      "address": "北海道茅部郡鹿部町字鹿部68番地",
      "lat": 42.030524,
      "lng": 140.824423,
      "geocoding_level": null,
      "phone": "01372-7-2010",
      "license_no": "40-262",
      "license_date": "2023-03-23",
      "expire_date": "2028-04-20"
    },
    {
      "name": "株式会社イリエ船橋商店",
      "name_kana": "カブシキガイシャイリエフナバシショウテン",
      "business_type": "㉕ 行商",
      "address": "北海道茅部郡鹿部町渡島保健所管内一円",
      "lat": 42.06993,
      "lng": 140.778987,
      "geocoding_level": null,
      "phone": "",
      "license_no": "",
      "license_date": null,
      "expire_date": null
    },
    {
      "name": "有限会社ヤマジュウ佐藤水産",
      "name_kana": "ユウゲンガイシャヤマジュウサトウスイサン",
      "business_type": "⑯ 水産製品製造業",
      "address": "北海道茅部郡鹿部町字本別300番地9",
      "lat": 42.059499,
      "lng": 140.801702,
      "geocoding_level": null,
      "phone": "01372-7-2012",
      "license_no": "40-261",
      "license_date": "2023-03-23",
      "expire_date": "2029-04-20"
    },
    {
      "name": "casa del gatto",
      "name_kana": "カーサ　デル　ガット",
      "business_type": "① 飲食店営業",
      "address": "北海道茅部郡鹿部町字本別569ｰ1223",
      "lat": 42.076361,
      "lng": 140.772566,
      "geocoding_level": null,
      "phone": "080-4041-0441",
      "license_no": "42-105",
      "license_date": "2023-06-21",
      "expire_date": "2028-10-20"
    },
    {
      "name": "casa del gatto",
      "name_kana": "カーサ　デル　ガット",
      "business_type": "㉕ そうざい製造業",
      "address": "北海道茅部郡鹿部町字本別569-1223",
      "lat": 42.076361,
      "lng": 140.772566,
      "geocoding_level": null,
      "phone": "",
      "license_no": "42-276",
      "license_date": "2024-02-21",
      "expire_date": "2030-04-20"
    },
    {
      "name": "casa del gatto",
      "name_kana": "カーサ　デル　ガット",
      "business_type": "㉕ 行商",
      "address": "北海道茅部郡鹿部町渡島保健所管内一円",
      "lat": 42.06993,
      "lng": 140.778987,
      "geocoding_level": null,
      "phone": "",
      "license_no": "",
      "license_date": null,
      "expire_date": null
    },
    {
      "name": "casa del gatto",
      "name_kana": "カーサ　デル　ガット",
      "business_type": "⑰ 農産保存食料品製造・加工業",
      "address": "北海道茅部郡鹿部町字本別569-1223",
      "lat": 42.076361,
      "lng": 140.772566,
      "geocoding_level": null,
      "phone": "",
      "license_no": "",
      "license_date": null,
      "expire_date": null
    },
    {
      "name": "やま元",
      "name_kana": "ヤマゲン",
      "business_type": "① 飲食店営業",
      "address": "北海道茅部郡鹿部町字鹿部18番地1",
      "lat": 42.028986,
      "lng": 140.829567,
      "geocoding_level": null,
      "phone": "",
      "license_no": "24-4",
      "license_date": "2026-04-06",
      "expire_date": "2032-04-20"
    },
    {
      "name": "やま元",
      "name_kana": "ヤマゲン",
      "business_type": "④ 魚介類販売業",
      "address": "北海道茅部郡鹿部町字鹿部18番地1",
      "lat": 42.028986,
      "lng": 140.829567,
      "geocoding_level": null,
      "phone": "",
      "license_no": "24-4",
      "license_date": "2026-04-06",
      "expire_date": "2032-04-20"
    },
    {
      "name": "海鮮商店",
      "name_kana": "カイセンショウテン",
      "business_type": "⑯ 水産製品製造業",
      "address": "北海道茅部郡鹿部町字宮浜292ｰ3",
      "lat": 42.039176,
      "lng": 140.813705,
      "geocoding_level": null,
      "phone": "01372-7-3254",
      "license_no": "42-135",
      "license_date": "2023-07-27",
      "expire_date": "2029-10-20"
    },
    {
      "name": "自然の森喫茶夢紀行",
      "name_kana": "シゼンノモリキッサユメキコウ",
      "business_type": "① 飲食店営業",
      "address": "北海道茅部郡鹿部町字本別539-165",
      "lat": 42.06787,
      "lng": 140.789687,
      "geocoding_level": null,
      "phone": "",
      "license_no": "42-194",
      "license_date": "2023-10-02",
      "expire_date": "2028-10-20"
    },
    {
      "name": "自然の森喫茶夢紀行",
      "name_kana": "シゼンノモリキッサユメキコウ",
      "business_type": "⑯ コーヒー製造・加工業（飲料の製造を除く。）",
      "address": "北海道茅部郡鹿部町字本別539-165",
      "lat": 42.06787,
      "lng": 140.789687,
      "geocoding_level": null,
      "phone": "01372-7-5210",
      "license_no": "",
      "license_date": null,
      "expire_date": null
    },
    {
      "name": "鹿部町学校給食センター",
      "name_kana": "シカベチョウガッコウキュウショクセンター",
      "business_type": "① 飲食店営業",
      "address": "北海道茅部郡鹿部町字宮浜239",
      "lat": 42.043229,
      "lng": 140.808862,
      "geocoding_level": null,
      "phone": "01372-7-2159",
      "license_no": "27-139",
      "license_date": "2024-08-09",
      "expire_date": "2031-10-20"
    },
    {
      "name": "酒房　奥入瀬",
      "name_kana": "シュボウ　オイラセ",
      "business_type": "① 飲食店営業",
      "address": "北海道茅部郡鹿部町字鹿部156",
      "lat": 42.034212,
      "lng": 140.819986,
      "geocoding_level": null,
      "phone": "01372-7-2257",
      "license_no": "42-275",
      "license_date": "2024-02-21",
      "expire_date": "2030-04-20"
    },
    {
      "name": "あらびき",
      "name_kana": "アラビキ",
      "business_type": "① 飲食店営業",
      "address": "北海道茅部郡鹿部町字本別569-1119",
      "lat": 42.076361,
      "lng": 140.772566,
      "geocoding_level": null,
      "phone": "",
      "license_no": "27-174",
      "license_date": "2024-09-30",
      "expire_date": "2029-10-20"
    },
    {
      "name": "あらびき",
      "name_kana": "アラビキ",
      "business_type": "㉕ 行商",
      "address": "北海道茅部郡鹿部町渡島保健所管内一円",
      "lat": 42.06993,
      "lng": 140.778987,
      "geocoding_level": null,
      "phone": "090-9524-8340",
      "license_no": "",
      "license_date": null,
      "expire_date": null
    },
    {
      "name": "GRANDPA’S　DREAM",
      "name_kana": "グランパズ　ドリーム",
      "business_type": "① 飲食店営業",
      "address": "北海道茅部郡鹿部町字本別569-1404",
      "lat": 42.076361,
      "lng": 140.772566,
      "geocoding_level": null,
      "phone": "",
      "license_no": "42-310",
      "license_date": "2024-03-25",
      "expire_date": "2030-04-20"
    },
    {
      "name": "ＤＣＭ　ニコット　鹿部店",
      "name_kana": "ディーシーエム　ニコット　シカベテン",
      "business_type": "⑬ その他の食料・飲料販売業",
      "address": "北海道茅部郡鹿部町宮浜２５３－１",
      "lat": 42.042369,
      "lng": 140.812403,
      "geocoding_level": null,
      "phone": "01372-7-6100",
      "license_no": "",
      "license_date": null,
      "expire_date": null
    },
    {
      "name": "平冷プロマリン株式会社",
      "name_kana": "ヘイレイプロマリンカブシキガイシャ",
      "business_type": "⑯ 水産製品製造業",
      "address": "北海道茅部郡鹿部町字本別408-2、409",
      "lat": 42.045406,
      "lng": 140.807358,
      "geocoding_level": null,
      "phone": "",
      "license_no": "27-28",
      "license_date": "2024-04-18",
      "expire_date": "2030-04-20"
    },
    {
      "name": "平成冷蔵株式会社",
      "name_kana": "ヘイセイレイゾウカブシキガイシャ",
      "business_type": "⑯ 水産製品製造業",
      "address": "北海道茅部郡鹿部町字本別408",
      "lat": 42.05085,
      "lng": 140.745537,
      "geocoding_level": null,
      "phone": "",
      "license_no": "27-27",
      "license_date": "2024-04-18",
      "expire_date": "2030-04-20"
    },
    {
      "name": "湯けむり処　しかべ焼き",
      "name_kana": "ユケムリドコロ　シカベヤキ",
      "business_type": "① 飲食店営業",
      "address": "北海道茅部郡鹿部町字鹿部18-1 道の駅しかべ間歇泉公園",
      "lat": 42.028986,
      "lng": 140.829567,
      "geocoding_level": null,
      "phone": "",
      "license_no": "27-9",
      "license_date": "2024-04-09",
      "expire_date": "2030-04-20"
    },
    {
      "name": "鹿部・食とうまいもの館",
      "name_kana": "シカベ・ショクトウマイモノカン",
      "business_type": "① 飲食店営業",
      "address": "北海道茅部郡鹿部町字鹿部18-1",
      "lat": 42.028986,
      "lng": 140.829567,
      "geocoding_level": null,
      "phone": "01372-7-5655",
      "license_no": "23-5",
      "license_date": "2025-04-04",
      "expire_date": "2031-04-20"
    },
    {
      "name": "鹿部温泉観光協会",
      "name_kana": "シカベオンセンカンコウキョウカイ",
      "business_type": "㉕ 行商",
      "address": "北海道茅部郡鹿部町渡島保健所管内一円",
      "lat": 42.06993,
      "lng": 140.778987,
      "geocoding_level": null,
      "phone": "",
      "license_no": "",
      "license_date": null,
      "expire_date": null
    },
    {
      "name": "ヤマボシイチ中村商店",
      "name_kana": "ヤマボシイチナカムラショウテン",
      "business_type": "④ 魚介類販売業",
      "address": "北海道茅部郡鹿部町字本別262",
      "lat": 42.05505,
      "lng": 140.803636,
      "geocoding_level": null,
      "phone": "01372-7-3009",
      "license_no": "27-175",
      "license_date": "2024-09-30",
      "expire_date": "2029-10-20"
    },
    {
      "name": "なまら珈琲店",
      "name_kana": "ナマラコーヒーテン",
      "business_type": "① 飲食店営業",
      "address": "北海道茅部郡鹿部町渡島保健所管内一円",
      "lat": 42.06993,
      "lng": 140.778987,
      "geocoding_level": null,
      "phone": "",
      "license_no": "27-170",
      "license_date": "2024-09-19",
      "expire_date": "2029-09-20"
    },
    {
      "name": "ヒキノシリーズ",
      "name_kana": "ヒキノシリーズ",
      "business_type": "⑯ 水産製品製造業",
      "address": "北海道茅部郡鹿部町字本別569-1119",
      "lat": 42.076361,
      "lng": 140.772566,
      "geocoding_level": null,
      "phone": "",
      "license_no": "27-188",
      "license_date": "2024-10-15",
      "expire_date": "2029-10-20"
    },
    {
      "name": "ヒキノシリーズ",
      "name_kana": "ヒキノシリーズ",
      "business_type": "⑬ その他の食料・飲料販売業",
      "address": "北海道茅部郡鹿部町字本別569-1119",
      "lat": 42.076361,
      "lng": 140.772566,
      "geocoding_level": null,
      "phone": "070-8580-8376",
      "license_no": "",
      "license_date": null,
      "expire_date": null
    },
    {
      "name": "熊鹿庁、はこだて鹿△、福永商店、RISEMAN",
      "name_kana": "クマシカチョウハコダテシカサンカクフクナガショウテンライズマン",
      "business_type": "① 飲食店営業",
      "address": "北海道茅部郡鹿部町渡島保健所管内一円",
      "lat": 42.06993,
      "lng": 140.778987,
      "geocoding_level": null,
      "phone": "",
      "license_no": "27-180",
      "license_date": "2024-10-04",
      "expire_date": "2029-10-20"
    },
    {
      "name": "ヤマニ盛田漁業部",
      "name_kana": "ヤマニモリタギョギョウブ",
      "business_type": "④ 魚介類販売業",
      "address": "北海道茅部郡鹿部町字大岩105ｰ11",
      "lat": 42.021702,
      "lng": 140.836477,
      "geocoding_level": null,
      "phone": "",
      "license_no": "42-143",
      "license_date": "2023-08-21",
      "expire_date": "2028-10-20"
    },
    {
      "name": "ヤマニ盛田漁業部",
      "name_kana": "ヤマニモリタギョギョウブ",
      "business_type": "⑬ その他の食料・飲料販売業",
      "address": "北海道茅部郡鹿部町字大岩105ｰ11",
      "lat": 42.021702,
      "lng": 140.836477,
      "geocoding_level": null,
      "phone": "",
      "license_no": "",
      "license_date": null,
      "expire_date": null
    },
    {
      "name": "大寿し",
      "name_kana": "オオズシ",
      "business_type": "① 飲食店営業",
      "address": "北海道茅部郡鹿部町字鹿部118",
      "lat": 42.032613,
      "lng": 140.821681,
      "geocoding_level": null,
      "phone": "01372-7-2252",
      "license_no": "27-222",
      "license_date": "2025-01-15",
      "expire_date": "2031-04-20"
    },
    {
      "name": "株式会社亘栄",
      "name_kana": "カブシキガイシャコウエイ",
      "business_type": "③ 乳類販売業",
      "address": "北海道茅部郡鹿部町字宮浜90-1",
      "lat": 42.037799,
      "lng": 140.817107,
      "geocoding_level": null,
      "phone": "",
      "license_no": "",
      "license_date": null,
      "expire_date": null
    },
    {
      "name": "坂下商店",
      "name_kana": "サカシタショウテン",
      "business_type": "⑯ 水産製品製造業",
      "address": "北海道茅部郡鹿部町字本別300-9",
      "lat": 42.059499,
      "lng": 140.801702,
      "geocoding_level": null,
      "phone": "",
      "license_no": "27-194",
      "license_date": "2024-10-29",
      "expire_date": "2031-04-20"
    },
    {
      "name": "ココシカフーズ",
      "name_kana": "ココシカフーズ",
      "business_type": "① 飲食店営業",
      "address": "北海道茅部郡鹿部町渡島保健所管内一円",
      "lat": 42.06993,
      "lng": 140.778987,
      "geocoding_level": null,
      "phone": "",
      "license_no": "23-105",
      "license_date": "2025-08-26",
      "expire_date": "2030-09-20"
    },
    {
      "name": "SDGsuns",
      "name_kana": "エスディジーサンズ",
      "business_type": "⑬ その他の食料・飲料販売業",
      "address": "北海道茅部郡鹿部町字宮浜234-1",
      "lat": 42.044827,
      "lng": 140.809839,
      "geocoding_level": null,
      "phone": "",
      "license_no": "",
      "license_date": null,
      "expire_date": null
    },
    {
      "name": "Sun Day Shoebill",
      "name_kana": "サンデイシュービル",
      "business_type": "① 飲食店営業",
      "address": "北海道茅部郡鹿部町字本別569-235",
      "lat": 42.076361,
      "lng": 140.772566,
      "geocoding_level": null,
      "phone": "",
      "license_no": "23-145",
      "license_date": "2025-10-03",
      "expire_date": "2031-10-20"
    },
    {
      "name": "Sun Day Shoebill",
      "name_kana": "サンデイシュービル",
      "business_type": "⑪ 菓子製造業",
      "address": "北海道茅部郡鹿部町字本別569-235",
      "lat": 42.076361,
      "lng": 140.772566,
      "geocoding_level": null,
      "phone": "",
      "license_no": "23-145",
      "license_date": "2025-10-03",
      "expire_date": "2031-10-20"
    },
    {
      "name": "Sun Day Shoebill",
      "name_kana": "サンデイシュービル",
      "business_type": "⑬ その他の食料・飲料販売業",
      "address": "北海道茅部郡鹿部町字本別569-235",
      "lat": 42.076361,
      "lng": 140.772566,
      "geocoding_level": null,
      "phone": "",
      "license_no": "",
      "license_date": null,
      "expire_date": null
    },
    {
      "name": "太田食堂",
      "name_kana": "オオタショクドウ",
      "business_type": "① 飲食店営業",
      "address": "北海道茅部郡鹿部町字鹿部76番地5",
      "lat": 42.030728,
      "lng": 140.824104,
      "geocoding_level": null,
      "phone": "",
      "license_no": "23－150",
      "license_date": "2025-10-09",
      "expire_date": "2030-10-20"
    },
    {
      "name": "大沢商店",
      "name_kana": "オオサワショウテン",
      "business_type": "③ 食肉販売業",
      "address": "北海道茅部郡鹿部町字宮浜321番地",
      "lat": 42.035795,
      "lng": 140.818613,
      "geocoding_level": null,
      "phone": "01372-7-2064",
      "license_no": "23-158",
      "license_date": "2025-10-16",
      "expire_date": "2031-10-20"
    },
    {
      "name": "大沢商店",
      "name_kana": "オオサワショウテン",
      "business_type": "⑬ その他の食料・飲料販売業",
      "address": "北海道茅部郡鹿部町字宮浜321番地",
      "lat": 42.035795,
      "lng": 140.818613,
      "geocoding_level": null,
      "phone": "01372-7-2064",
      "license_no": "",
      "license_date": null,
      "expire_date": null
    },
    {
      "name": "花や",
      "name_kana": "ハナヤ",
      "business_type": "⑬ その他の食料・飲料販売業",
      "address": "北海道茅部郡鹿部町字鹿部100",
      "lat": 42.030573,
      "lng": 140.822309,
      "geocoding_level": null,
      "phone": "01372-7-2400",
      "license_no": "",
      "license_date": null,
      "expire_date": null
    },
    {
      "name": "まいど",
      "name_kana": "マイド",
      "business_type": "① 飲食店営業",
      "address": "北海道茅部郡鹿部町字鹿部118-35",
      "lat": 42.032652,
      "lng": 140.821521,
      "geocoding_level": null,
      "phone": "",
      "license_no": "24-16",
      "license_date": "2026-04-14",
      "expire_date": "2031-04-20"
    },
    {
      "name": "スナックみずき",
      "name_kana": "スナックミズキ",
      "business_type": "① 飲食店営業",
      "address": "北海道茅部郡鹿部町字鹿部156",
      "lat": 42.034212,
      "lng": 140.819986,
      "geocoding_level": null,
      "phone": "01372-7-2261",
      "license_no": "24-7",
      "license_date": "2026-04-07",
      "expire_date": "2031-04-20"
    },
    {
      "name": "温泉旅館　鹿の湯",
      "name_kana": "オンセンリョカン　シカノユ",
      "business_type": "① 飲食店営業",
      "address": "北海道茅部郡鹿部町字鹿部58",
      "lat": 42.030502,
      "lng": 140.825569,
      "geocoding_level": null,
      "phone": "01372-7-2001",
      "license_no": "24-14",
      "license_date": "2026-04-13",
      "expire_date": "2032-04-20"
    },
    {
      "name": "立ち飲み＆コミカフェ　青空食堂",
      "name_kana": "タチノミアンドコミカフェ　アオゾラショクドウ",
      "business_type": "① 飲食店営業",
      "address": "北海道茅部郡鹿部町字宮浜30",
      "lat": 42.036581,
      "lng": 140.819904,
      "geocoding_level": null,
      "phone": "",
      "license_no": "24-37",
      "license_date": "2026-05-08",
      "expire_date": "2031-10-20"
    },
    {
      "name": "立ち飲み＆コミカフェ　青空食堂",
      "name_kana": "タチノミアンドコミカフェ　アオゾラショクドウ",
      "business_type": "㉙ 漬物製造業",
      "address": "北海道茅部郡鹿部町字宮浜30",
      "lat": 42.036581,
      "lng": 140.819904,
      "geocoding_level": null,
      "phone": "",
      "license_no": "24-37",
      "license_date": "2026-05-08",
      "expire_date": "2031-10-20"
    },
    {
      "name": "リブマックスリゾート函館　鹿部温泉",
      "name_kana": "リブマックスリゾートハコダテ　シカベオンセン",
      "business_type": "⑬ その他の食料・飲料販売業",
      "address": "北海道茅部郡鹿部町本別530-127",
      "lat": 42.072265,
      "lng": 140.771926,
      "geocoding_level": null,
      "phone": "01372-7-2800",
      "license_no": "",
      "license_date": null,
      "expire_date": null
    }
  ]
}
