{
  "meta": {
    "updated": 1782346632
  },
  "data": [
    {
      "name": "月桃（げっとう）",
      "name_kana": "",
      "business_type": "飲食店営業",
      "address": "宜野座村惣慶４６－１",
      "lat": 26.478250764,
      "lng": 127.97574418,
      "geocoding_level": 8,
      "phone": "",
      "license_no": "第03201500510号",
      "license_date": "2015-06-04",
      "expire_date": "2021-06-30"
    },
    {
      "name": "くりーむ　くりーむ",
      "name_kana": "",
      "business_type": "菓子製造業",
      "address": "宜野座村字漢那１６３３",
      "lat": 26.473883465,
      "lng": 127.95216732799999,
      "geocoding_level": 8,
      "phone": "",
      "license_no": "第03201500577号",
      "license_date": "2015-06-15",
      "expire_date": "2021-06-30"
    },
    {
      "name": "社会福祉法人　宜野座村社会福祉協議会",
      "name_kana": "",
      "business_type": "飲食店営業",
      "address": "宜野座村惣慶１８９８",
      "lat": 26.490912,
      "lng": 127.960503,
      "geocoding_level": 3,
      "phone": "",
      "license_no": "第03201500748号",
      "license_date": "2015-07-06",
      "expire_date": "2021-07-31"
    },
    {
      "name": "パーラーぎのざ",
      "name_kana": "",
      "business_type": "飲食店営業",
      "address": "宜野座村字宜野座２３９",
      "lat": 26.483179875,
      "lng": 127.974108013,
      "geocoding_level": 8,
      "phone": "",
      "license_no": "第03201500859号",
      "license_date": "2015-07-21",
      "expire_date": "2021-07-31"
    },
    {
      "name": "やんばるミルク工房",
      "name_kana": "",
      "business_type": "乳製品製造業",
      "address": "宜野座村字漢那１９１７－１",
      "lat": 26.485687124,
      "lng": 127.958408932,
      "geocoding_level": 8,
      "phone": "",
      "license_no": "第03201501135号",
      "license_date": "2015-08-27",
      "expire_date": "2021-08-31"
    },
    {
      "name": "やんばるミルク工房",
      "name_kana": "",
      "business_type": "乳処理業",
      "address": "宜野座村字漢那１９１７－１",
      "lat": 26.485687124,
      "lng": 127.958408932,
      "geocoding_level": 8,
      "phone": "",
      "license_no": "第03201501136号",
      "license_date": "2015-08-27",
      "expire_date": "2021-08-31"
    },
    {
      "name": "ＪＡおきなわ宜野座支店",
      "name_kana": "",
      "business_type": "ソース類製造業",
      "address": "宜野座村宜野座１３３",
      "lat": 26.482143316,
      "lng": 127.97652879600001,
      "geocoding_level": 8,
      "phone": "",
      "license_no": "第03201501292号",
      "license_date": "2015-09-17",
      "expire_date": "2021-09-30"
    },
    {
      "name": "焼鳥　まんじろう",
      "name_kana": "",
      "business_type": "飲食店営業",
      "address": "宜野座村漢那１６３９",
      "lat": 26.473609381,
      "lng": 127.95178973399999,
      "geocoding_level": 8,
      "phone": "",
      "license_no": "第03201501425号",
      "license_date": "2015-10-08",
      "expire_date": "2021-10-31"
    },
    {
      "name": "コクワエナジー潟原給油所",
      "name_kana": "",
      "business_type": "喫茶店営業",
      "address": "宜野座村松田２８４２",
      "lat": 26.504901,
      "lng": 127.98439799999998,
      "geocoding_level": 3,
      "phone": "",
      "license_no": "第03201501781号",
      "license_date": "2015-11-24",
      "expire_date": "2022-11-30"
    },
    {
      "name": "宜野座村農山漁村生活研究会",
      "name_kana": "",
      "business_type": "みそ製造業",
      "address": "宜野座村漢那１６３３ 道の駅　未来ぎのざ",
      "lat": 26.473883465,
      "lng": 127.95216732799999,
      "geocoding_level": 8,
      "phone": "",
      "license_no": "第03201502154号",
      "license_date": "2016-01-29",
      "expire_date": "2022-01-31"
    },
    {
      "name": "宜野座村農山漁村生活研究会",
      "name_kana": "",
      "business_type": "菓子製造業",
      "address": "宜野座村漢那１６３３ 道の駅　未来ぎのざ",
      "lat": 26.473883465,
      "lng": 127.95216732799999,
      "geocoding_level": 8,
      "phone": "",
      "license_no": "第03201502155号",
      "license_date": "2016-01-29",
      "expire_date": "2022-01-31"
    },
    {
      "name": "沖縄県農業協同組合教育研修所",
      "name_kana": "",
      "business_type": "喫茶店営業",
      "address": "宜野座村宜野座１６６０",
      "lat": 26.492539645000004,
      "lng": 127.97440547700002,
      "geocoding_level": 8,
      "phone": "",
      "license_no": "第03201502156号",
      "license_date": "2016-01-29",
      "expire_date": "2023-01-31"
    },
    {
      "name": "ローソン宜野座惣慶店",
      "name_kana": "",
      "business_type": "飲食店営業",
      "address": "宜野座村惣慶１８３０－８",
      "lat": 26.480707236,
      "lng": 127.97307351699999,
      "geocoding_level": 8,
      "phone": "",
      "license_no": "第03201502262号",
      "license_date": "2016-02-22",
      "expire_date": "2022-02-28"
    },
    {
      "name": "ローソン宜野座惣慶店",
      "name_kana": "",
      "business_type": "乳類販売業",
      "address": "宜野座村惣慶１８３０－８",
      "lat": 26.480707236,
      "lng": 127.97307351699999,
      "geocoding_level": 8,
      "phone": "",
      "license_no": "第03201502263号",
      "license_date": "2016-02-22",
      "expire_date": "2022-02-28"
    },
    {
      "name": "Ｃａｆｅ’アジール",
      "name_kana": "",
      "business_type": "飲食店営業",
      "address": "宜野座村惣慶１８５３－１",
      "lat": 26.481512191,
      "lng": 127.973131118,
      "geocoding_level": 8,
      "phone": "",
      "license_no": "第03201502330号",
      "license_date": "2016-02-29",
      "expire_date": "2022-02-28"
    },
    {
      "name": "ガーデンレストラン　トオーラス",
      "name_kana": "",
      "business_type": "飲食店営業",
      "address": "宜野座村漢那２０４２－５",
      "lat": 26.471623798,
      "lng": 127.94848535700001,
      "geocoding_level": 8,
      "phone": "",
      "license_no": "第03201502453号",
      "license_date": "2016-03-22",
      "expire_date": "2022-03-31"
    },
    {
      "name": "ガーデンレストラン　トオーラス",
      "name_kana": "",
      "business_type": "菓子製造業",
      "address": "宜野座村漢那２０４２－５",
      "lat": 26.471623798,
      "lng": 127.94848535700001,
      "geocoding_level": 8,
      "phone": "",
      "license_no": "第03201502454号",
      "license_date": "2016-03-22",
      "expire_date": "2022-03-31"
    },
    {
      "name": "仲間商店",
      "name_kana": "",
      "business_type": "魚介類販売業",
      "address": "宜野座村惣慶１１９０",
      "lat": 26.475952022,
      "lng": 127.973747011,
      "geocoding_level": 8,
      "phone": "",
      "license_no": "第03201600142号",
      "license_date": "2016-04-22",
      "expire_date": "2022-04-30"
    },
    {
      "name": "仲間商店",
      "name_kana": "",
      "business_type": "食肉販売業",
      "address": "宜野座村惣慶１１９０",
      "lat": 26.475952022,
      "lng": 127.973747011,
      "geocoding_level": 8,
      "phone": "",
      "license_no": "第03201600143号",
      "license_date": "2016-04-22",
      "expire_date": "2022-04-30"
    },
    {
      "name": "平田商店",
      "name_kana": "",
      "business_type": "食肉販売業",
      "address": "宜野座村惣慶１２３７",
      "lat": 26.477303542,
      "lng": 127.972764302,
      "geocoding_level": 8,
      "phone": "",
      "license_no": "第03201600194号",
      "license_date": "2016-04-28",
      "expire_date": "2023-04-30"
    },
    {
      "name": "平田商店",
      "name_kana": "",
      "business_type": "乳類販売業",
      "address": "宜野座村惣慶１２３７",
      "lat": 26.477303542,
      "lng": 127.972764302,
      "geocoding_level": 8,
      "phone": "",
      "license_no": "第03201600195号",
      "license_date": "2016-04-28",
      "expire_date": "2023-04-30"
    },
    {
      "name": "平田商店",
      "name_kana": "",
      "business_type": "魚介類販売業",
      "address": "宜野座村惣慶１２３７",
      "lat": 26.477303542,
      "lng": 127.972764302,
      "geocoding_level": 8,
      "phone": "",
      "license_no": "第03201600196号",
      "license_date": "2016-04-28",
      "expire_date": "2023-04-30"
    },
    {
      "name": "炭焼家てんぷす",
      "name_kana": "",
      "business_type": "飲食店営業",
      "address": "宜野座村宜野座６６３－４９（２Ｆ）",
      "lat": 26.475740943,
      "lng": 127.989451264,
      "geocoding_level": 8,
      "phone": "",
      "license_no": "第03201600368号",
      "license_date": "2016-05-31",
      "expire_date": "2022-05-31"
    },
    {
      "name": "カラオケ＆酒処　さんぽみち",
      "name_kana": "",
      "business_type": "飲食店営業",
      "address": "宜野座村松田１６５４－１ ２Ｆ",
      "lat": 26.486584835,
      "lng": 127.99565126400002,
      "geocoding_level": 8,
      "phone": "",
      "license_no": "第03201600390号",
      "license_date": "2016-06-03",
      "expire_date": "2022-06-30"
    },
    {
      "name": "リブマックス　アムス・カンナリゾートヴィラ",
      "name_kana": "",
      "business_type": "飲食店営業",
      "address": "宜野座村漢那３９７－１",
      "lat": 26.469156404,
      "lng": 127.96661073,
      "geocoding_level": 8,
      "phone": "",
      "license_no": "第03201600589号",
      "license_date": "2016-06-29",
      "expire_date": "2022-06-30"
    },
    {
      "name": "ぎのざ弁当",
      "name_kana": "",
      "business_type": "飲食店営業",
      "address": "宜野座村惣慶１８２８",
      "lat": 26.48075898,
      "lng": 127.973827232,
      "geocoding_level": 8,
      "phone": "",
      "license_no": "第03201600799号",
      "license_date": "2016-07-22",
      "expire_date": "2022-07-31"
    },
    {
      "name": "くりや",
      "name_kana": "",
      "business_type": "飲食店営業",
      "address": "宜野座村惣慶１７１８",
      "lat": 26.479732079,
      "lng": 127.97380026199998,
      "geocoding_level": 8,
      "phone": "",
      "license_no": "第03201600802号",
      "license_date": "2016-07-22",
      "expire_date": "2022-07-31"
    },
    {
      "name": "ローソン宜野座惣慶店",
      "name_kana": "",
      "business_type": "飲食店営業",
      "address": "宜野座村惣慶１８３０－８",
      "lat": 26.480707236,
      "lng": 127.97307351699999,
      "geocoding_level": 8,
      "phone": "",
      "license_no": "第03201600803号",
      "license_date": "2016-07-22",
      "expire_date": "2022-07-31"
    },
    {
      "name": "ローソン宜野座惣慶店",
      "name_kana": "",
      "business_type": "乳類販売業",
      "address": "宜野座村惣慶１８３０－８",
      "lat": 26.480707236,
      "lng": 127.97307351699999,
      "geocoding_level": 8,
      "phone": "",
      "license_no": "第03201600804号",
      "license_date": "2016-07-22",
      "expire_date": "2022-07-31"
    },
    {
      "name": "ローソン宜野座惣慶店",
      "name_kana": "",
      "business_type": "食肉販売業",
      "address": "宜野座村惣慶１８３０－８",
      "lat": 26.480707236,
      "lng": 127.97307351699999,
      "geocoding_level": 8,
      "phone": "",
      "license_no": "第03201600805号",
      "license_date": "2016-07-22",
      "expire_date": "2022-07-31"
    },
    {
      "name": "ローソン宜野座惣慶店",
      "name_kana": "",
      "business_type": "魚介類販売業",
      "address": "宜野座村惣慶１８３０－８",
      "lat": 26.480707236,
      "lng": 127.97307351699999,
      "geocoding_level": 8,
      "phone": "",
      "license_no": "第03201600806号",
      "license_date": "2016-07-22",
      "expire_date": "2022-07-31"
    },
    {
      "name": "夕波",
      "name_kana": "",
      "business_type": "飲食店営業",
      "address": "宜野座村漢那１４３",
      "lat": 26.47621658,
      "lng": 127.958142917,
      "geocoding_level": 8,
      "phone": "",
      "license_no": "第03201600844号",
      "license_date": "2016-07-26",
      "expire_date": "2022-07-31"
    },
    {
      "name": "やかそば　２",
      "name_kana": "",
      "business_type": "飲食店営業",
      "address": "宜野座村松田２８４２－２",
      "lat": 26.507096688,
      "lng": 127.992725486,
      "geocoding_level": 8,
      "phone": "",
      "license_no": "第03201601083号",
      "license_date": "2016-08-29",
      "expire_date": "2022-08-31"
    },
    {
      "name": "小料理屋　海炭",
      "name_kana": "",
      "business_type": "飲食店営業",
      "address": "宜野座村惣慶１７７２－６",
      "lat": 26.480956454,
      "lng": 127.969445682,
      "geocoding_level": 8,
      "phone": "",
      "license_no": "第03201601652号",
      "license_date": "2016-10-28",
      "expire_date": "2022-10-31"
    },
    {
      "name": "レストラン　うりずん",
      "name_kana": "",
      "business_type": "飲食店営業",
      "address": "宜野座村松田２８２４－２６４",
      "lat": 26.501795795,
      "lng": 127.99098610600001,
      "geocoding_level": 8,
      "phone": "",
      "license_no": "第03201601759号",
      "license_date": "2016-11-14",
      "expire_date": "2022-11-30"
    },
    {
      "name": "ザ・ギノザリゾート　美らの教会",
      "name_kana": "",
      "business_type": "飲食店営業",
      "address": "宜野座村惣慶下袋原１１８２",
      "lat": 26.490912,
      "lng": 127.960503,
      "geocoding_level": 3,
      "phone": "",
      "license_no": "第03201601997号",
      "license_date": "2016-12-16",
      "expire_date": "2023-01-31"
    },
    {
      "name": "めんそうれ",
      "name_kana": "",
      "business_type": "飲食店営業",
      "address": "宜野座村漢那２０６９－２０",
      "lat": 26.469621837,
      "lng": 127.943654181,
      "geocoding_level": 8,
      "phone": "",
      "license_no": "第03201602067号",
      "license_date": "2017-01-16",
      "expire_date": "2023-01-31"
    },
    {
      "name": "松田販売店",
      "name_kana": "",
      "business_type": "魚介類販売業",
      "address": "宜野座村松田８６",
      "lat": 26.493517907,
      "lng": 127.992258551,
      "geocoding_level": 8,
      "phone": "",
      "license_no": "第03201602195号",
      "license_date": "2017-01-31",
      "expire_date": "2024-01-31"
    },
    {
      "name": "松田販売店",
      "name_kana": "",
      "business_type": "食肉販売業",
      "address": "宜野座村松田８６",
      "lat": 26.493517907,
      "lng": 127.992258551,
      "geocoding_level": 8,
      "phone": "",
      "license_no": "第03201602196号",
      "license_date": "2017-01-31",
      "expire_date": "2024-01-31"
    },
    {
      "name": "松田販売店",
      "name_kana": "",
      "business_type": "乳類販売業",
      "address": "宜野座村松田８６",
      "lat": 26.493517907,
      "lng": 127.992258551,
      "geocoding_level": 8,
      "phone": "",
      "license_no": "第03201602197号",
      "license_date": "2017-01-31",
      "expire_date": "2024-01-31"
    },
    {
      "name": "ＲＵＳＴＩＣ　ＢＡＫＥ　ＳＨＯＰ",
      "name_kana": "",
      "business_type": "菓子製造業",
      "address": "宜野座村松田３５",
      "lat": 26.491750526,
      "lng": 127.990725922,
      "geocoding_level": 8,
      "phone": "",
      "license_no": "第03201602337号",
      "license_date": "2017-02-24",
      "expire_date": "2023-02-28"
    },
    {
      "name": "ＲＵＳＴＩＣ　ＢＡＫＥ　ＳＨＯＰ",
      "name_kana": "",
      "business_type": "飲食店営業",
      "address": "宜野座村松田３５",
      "lat": 26.491750526,
      "lng": 127.990725922,
      "geocoding_level": 8,
      "phone": "",
      "license_no": "第03201602338号",
      "license_date": "2017-02-24",
      "expire_date": "2023-02-28"
    },
    {
      "name": "カラオケ＆酒処　さんぽみち",
      "name_kana": "",
      "business_type": "飲食店営業",
      "address": "宜野座村松田１６５４－１　２Ｆ",
      "lat": 26.486584835,
      "lng": 127.99565126400002,
      "geocoding_level": 8,
      "phone": "",
      "license_no": "第03201602414号",
      "license_date": "2017-03-03",
      "expire_date": "2023-03-31"
    },
    {
      "name": "パーラーカンナ",
      "name_kana": "",
      "business_type": "菓子製造業",
      "address": "宜野座村漢那浜原１６９５－２２",
      "lat": 26.488622,
      "lng": 127.944201,
      "geocoding_level": 3,
      "phone": "",
      "license_no": "第03201602422号",
      "license_date": "2017-03-07",
      "expire_date": "2023-03-31"
    },
    {
      "name": "パーラーカンナ",
      "name_kana": "",
      "business_type": "そうざい製造業",
      "address": "宜野座村漢那浜原１６９５－２２",
      "lat": 26.488622,
      "lng": 127.944201,
      "geocoding_level": 3,
      "phone": "",
      "license_no": "第03201602423号",
      "license_date": "2017-03-07",
      "expire_date": "2023-03-31"
    },
    {
      "name": "くりーむ　くりーむ　ｃｒｅａｍ　ｃｒｅａｍ",
      "name_kana": "",
      "business_type": "飲食店営業",
      "address": "宜野座村惣慶１６０８－１",
      "lat": 26.47731561,
      "lng": 127.97445375300002,
      "geocoding_level": 8,
      "phone": "",
      "license_no": "第03201602548号",
      "license_date": "2017-03-27",
      "expire_date": "2023-03-31"
    },
    {
      "name": "パーラーアジア",
      "name_kana": "",
      "business_type": "飲食店営業",
      "address": "宜野座村宜野座８番地",
      "lat": 26.483066309,
      "lng": 127.97857097000002,
      "geocoding_level": 8,
      "phone": "",
      "license_no": "第03201700035号",
      "license_date": "2017-04-10",
      "expire_date": "2023-04-30"
    },
    {
      "name": "Ｂ＆Ｂ　タンデム",
      "name_kana": "",
      "business_type": "飲食店営業",
      "address": "宜野座村松田２６２９－２６９",
      "lat": 26.4946495,
      "lng": 127.98349321100001,
      "geocoding_level": 8,
      "phone": "",
      "license_no": "第03201700054号",
      "license_date": "2017-04-13",
      "expire_date": "2023-04-30"
    },
    {
      "name": "Ｂ＆Ｂ　タンデム",
      "name_kana": "",
      "business_type": "菓子製造業",
      "address": "宜野座村松田２６２９－２６９",
      "lat": 26.4946495,
      "lng": 127.98349321100001,
      "geocoding_level": 8,
      "phone": "",
      "license_no": "第03201700055号",
      "license_date": "2017-04-13",
      "expire_date": "2023-04-30"
    },
    {
      "name": "レキオテラス漢那",
      "name_kana": "",
      "business_type": "飲食店営業",
      "address": "宜野座村漢那１７０３－４",
      "lat": 26.473605361,
      "lng": 127.95688038499999,
      "geocoding_level": 8,
      "phone": "",
      "license_no": "第03201700080号",
      "license_date": "2017-04-18",
      "expire_date": "2023-04-30"
    },
    {
      "name": "レキオテラス漢那",
      "name_kana": "",
      "business_type": "魚介類販売業",
      "address": "宜野座村漢那１７０３－４",
      "lat": 26.473605361,
      "lng": 127.95688038499999,
      "geocoding_level": 8,
      "phone": "",
      "license_no": "第03201700081号",
      "license_date": "2017-04-18",
      "expire_date": "2023-04-30"
    },
    {
      "name": "カフェ　はわいやー",
      "name_kana": "",
      "business_type": "飲食店営業",
      "address": "宜野座村宜野座３８６",
      "lat": 26.482027681000005,
      "lng": 127.979550824,
      "geocoding_level": 8,
      "phone": "",
      "license_no": "第03201700119号",
      "license_date": "2017-04-24",
      "expire_date": "2023-04-30"
    },
    {
      "name": "カフェ　はわいやー",
      "name_kana": "",
      "business_type": "菓子製造業",
      "address": "宜野座村宜野座３８６",
      "lat": 26.482027681000005,
      "lng": 127.979550824,
      "geocoding_level": 8,
      "phone": "",
      "license_no": "第03201700120号",
      "license_date": "2017-04-24",
      "expire_date": "2023-04-30"
    },
    {
      "name": "くりーむ　くりーむ",
      "name_kana": "",
      "business_type": "アイスクリーム類製造業",
      "address": "宜野座村漢那１６３３",
      "lat": 26.473883465,
      "lng": 127.95216732799999,
      "geocoding_level": 8,
      "phone": "",
      "license_no": "第03201700131号",
      "license_date": "2017-04-25",
      "expire_date": "2023-04-30"
    },
    {
      "name": "くりーむ　くりーむ",
      "name_kana": "",
      "business_type": "喫茶店営業",
      "address": "宜野座村漢那１６３３",
      "lat": 26.473883465,
      "lng": 127.95216732799999,
      "geocoding_level": 8,
      "phone": "",
      "license_no": "第03201700132号",
      "license_date": "2017-04-25",
      "expire_date": "2023-04-30"
    },
    {
      "name": "有限会社　宜野座養殖場",
      "name_kana": "",
      "business_type": "魚介類販売業",
      "address": "宜野座村宜野座１００８",
      "lat": 26.483806845,
      "lng": 127.98527127400001,
      "geocoding_level": 8,
      "phone": "",
      "license_no": "第03201700386号",
      "license_date": "2017-06-07",
      "expire_date": "2023-06-30"
    },
    {
      "name": "キッチンまんじろう",
      "name_kana": "",
      "business_type": "飲食店営業",
      "address": "宜野座村惣慶１７２２－６",
      "lat": 26.480157592,
      "lng": 127.973089742,
      "geocoding_level": 8,
      "phone": "",
      "license_no": "第03201700749号",
      "license_date": "2017-07-31",
      "expire_date": "2023-07-31"
    },
    {
      "name": "ヴィラージュ",
      "name_kana": "",
      "business_type": "飲食店営業",
      "address": "宜野座村松田９７　２Ｆ",
      "lat": 26.493470277,
      "lng": 127.99326823200002,
      "geocoding_level": 8,
      "phone": "",
      "license_no": "第03201700903号",
      "license_date": "2017-08-22",
      "expire_date": "2023-08-31"
    },
    {
      "name": "タマヤフーズ",
      "name_kana": "",
      "business_type": "食肉販売業",
      "address": "宜野座村松田２８８６－３",
      "lat": 26.50832218,
      "lng": 127.99233241200001,
      "geocoding_level": 8,
      "phone": "",
      "license_no": "第03201700956号",
      "license_date": "2017-08-31",
      "expire_date": "2023-08-31"
    },
    {
      "name": "タマヤフーズ",
      "name_kana": "",
      "business_type": "魚介類販売業",
      "address": "宜野座村松田２８８６－３",
      "lat": 26.50832218,
      "lng": 127.99233241200001,
      "geocoding_level": 8,
      "phone": "",
      "license_no": "第03201700957号",
      "license_date": "2017-08-31",
      "expire_date": "2023-08-31"
    },
    {
      "name": "タマヤフーズ",
      "name_kana": "",
      "business_type": "飲食店営業",
      "address": "宜野座村松田２８８６－３",
      "lat": 26.50832218,
      "lng": 127.99233241200001,
      "geocoding_level": 8,
      "phone": "",
      "license_no": "第03201700958号",
      "license_date": "2017-08-31",
      "expire_date": "2023-08-31"
    },
    {
      "name": "シーサイドカンナ",
      "name_kana": "",
      "business_type": "飲食店営業",
      "address": "宜野座村漢那１３８５－９",
      "lat": 26.47423691,
      "lng": 127.95332626600002,
      "geocoding_level": 8,
      "phone": "",
      "license_no": "第03201701224号",
      "license_date": "2017-10-03",
      "expire_date": "2023-10-31"
    },
    {
      "name": "宜野座村農業後継者等育成センター",
      "name_kana": "",
      "business_type": "菓子製造業",
      "address": "宜野座村宜野座１５７９－３",
      "lat": 26.488656899,
      "lng": 127.96983325200002,
      "geocoding_level": 8,
      "phone": "",
      "license_no": "第03201701302号",
      "license_date": "2017-10-17",
      "expire_date": "2023-10-31"
    },
    {
      "name": "宜野座村農業後継者等育成センター",
      "name_kana": "",
      "business_type": "ソース類製造業",
      "address": "宜野座村宜野座１５７９－３",
      "lat": 26.488656899,
      "lng": 127.96983325200002,
      "geocoding_level": 8,
      "phone": "",
      "license_no": "第03201701303号",
      "license_date": "2017-10-17",
      "expire_date": "2023-10-31"
    },
    {
      "name": "モヒカンコーヒー",
      "name_kana": "",
      "business_type": "飲食店営業",
      "address": "宜野座村漢那１６２４",
      "lat": 26.473812026,
      "lng": 127.952853155,
      "geocoding_level": 8,
      "phone": "",
      "license_no": "第03201701338号",
      "license_date": "2017-10-24",
      "expire_date": "2023-10-31"
    },
    {
      "name": "當真商店",
      "name_kana": "",
      "business_type": "魚介類販売業",
      "address": "宜野座村松田６４４",
      "lat": 26.490356174,
      "lng": 127.98881463800001,
      "geocoding_level": 8,
      "phone": "",
      "license_no": "第03201701397号",
      "license_date": "2017-10-30",
      "expire_date": "2024-10-31"
    },
    {
      "name": "當真商店",
      "name_kana": "",
      "business_type": "食肉販売業",
      "address": "宜野座村松田６４４",
      "lat": 26.490356174,
      "lng": 127.98881463800001,
      "geocoding_level": 8,
      "phone": "",
      "license_no": "第03201701398号",
      "license_date": "2017-10-30",
      "expire_date": "2024-10-31"
    },
    {
      "name": "當真商店",
      "name_kana": "",
      "business_type": "乳類販売業",
      "address": "宜野座村松田６４４",
      "lat": 26.490356174,
      "lng": 127.98881463800001,
      "geocoding_level": 8,
      "phone": "",
      "license_no": "第03201701399号",
      "license_date": "2017-10-30",
      "expire_date": "2024-10-31"
    },
    {
      "name": "仲間商店",
      "name_kana": "",
      "business_type": "乳類販売業",
      "address": "宜野座村惣慶１１９０",
      "lat": 26.475952022,
      "lng": 127.973747011,
      "geocoding_level": 8,
      "phone": "",
      "license_no": "第03201701492号",
      "license_date": "2017-11-10",
      "expire_date": "2024-11-30"
    },
    {
      "name": "ＬＥＧＡＲＥ　Ｊ",
      "name_kana": "",
      "business_type": "飲食店営業",
      "address": "宜野座村惣慶１８２９－４",
      "lat": 26.480802569,
      "lng": 127.973521142,
      "geocoding_level": 8,
      "phone": "",
      "license_no": "第03201701919号",
      "license_date": "2018-01-29",
      "expire_date": "2024-01-31"
    },
    {
      "name": "まる喜",
      "name_kana": "",
      "business_type": "菓子製造業",
      "address": "宜野座村惣慶１６５３－３",
      "lat": 26.477803801,
      "lng": 127.97387062400001,
      "geocoding_level": 8,
      "phone": "",
      "license_no": "第03201701920号",
      "license_date": "2018-01-29",
      "expire_date": "2024-01-31"
    },
    {
      "name": "株式会社　未来ぎのざ（加工場）",
      "name_kana": "",
      "business_type": "菓子製造業",
      "address": "宜野座村漢那１６３３",
      "lat": 26.473883465,
      "lng": 127.95216732799999,
      "geocoding_level": 8,
      "phone": "",
      "license_no": "第03201702029号",
      "license_date": "2018-02-14",
      "expire_date": "2024-02-29"
    },
    {
      "name": "株式会社　未来ぎのざ（加工場）",
      "name_kana": "",
      "business_type": "麺類製造業",
      "address": "宜野座村漢那１６３３",
      "lat": 26.473883465,
      "lng": 127.95216732799999,
      "geocoding_level": 8,
      "phone": "",
      "license_no": "第03201702030号",
      "license_date": "2018-02-14",
      "expire_date": "2024-02-29"
    },
    {
      "name": "株式会社　未来ぎのざ（食堂）",
      "name_kana": "",
      "business_type": "そうざい製造業",
      "address": "宜野座村漢那１６３３",
      "lat": 26.473883465,
      "lng": 127.95216732799999,
      "geocoding_level": 8,
      "phone": "",
      "license_no": "第03201702035号",
      "license_date": "2018-02-15",
      "expire_date": "2024-02-29"
    },
    {
      "name": "株式会社　未来ぎのざ（食堂）",
      "name_kana": "",
      "business_type": "飲食店営業",
      "address": "宜野座村漢那１６３３",
      "lat": 26.473883465,
      "lng": 127.95216732799999,
      "geocoding_level": 8,
      "phone": "",
      "license_no": "第03201702036号",
      "license_date": "2018-02-15",
      "expire_date": "2024-02-29"
    },
    {
      "name": "株式会社未来ぎのざ",
      "name_kana": "",
      "business_type": "乳類販売業",
      "address": "宜野座村漢那１６３３",
      "lat": 26.473883465,
      "lng": 127.95216732799999,
      "geocoding_level": 8,
      "phone": "",
      "license_no": "第03201702137号",
      "license_date": "2018-02-27",
      "expire_date": "2025-02-28"
    },
    {
      "name": "株式会社未来ぎのざ",
      "name_kana": "",
      "business_type": "食肉販売業",
      "address": "宜野座村漢那１６３３",
      "lat": 26.473883465,
      "lng": 127.95216732799999,
      "geocoding_level": 8,
      "phone": "",
      "license_no": "第03201702138号",
      "license_date": "2018-02-27",
      "expire_date": "2025-02-28"
    },
    {
      "name": "株式会社未来ぎのざ",
      "name_kana": "",
      "business_type": "魚介類販売業",
      "address": "宜野座村漢那１６３３",
      "lat": 26.473883465,
      "lng": 127.95216732799999,
      "geocoding_level": 8,
      "phone": "",
      "license_no": "第03201702139号",
      "license_date": "2018-02-27",
      "expire_date": "2025-02-28"
    },
    {
      "name": "シーサイドカンナ",
      "name_kana": "",
      "business_type": "そうざい製造業",
      "address": "宜野座村漢那１３８５－９",
      "lat": 26.47423691,
      "lng": 127.95332626600002,
      "geocoding_level": 8,
      "phone": "",
      "license_no": "第03201702192号",
      "license_date": "2018-03-08",
      "expire_date": "2024-03-31"
    },
    {
      "name": "ふくちゃん",
      "name_kana": "",
      "business_type": "そうざい製造業",
      "address": "宜野座村宜野座９０",
      "lat": 26.485188316,
      "lng": 127.976797708,
      "geocoding_level": 8,
      "phone": "",
      "license_no": "第03201702193号",
      "license_date": "2018-03-08",
      "expire_date": "2024-03-31"
    },
    {
      "name": "ふくちゃん食堂",
      "name_kana": "",
      "business_type": "菓子製造業",
      "address": "宜野座村宜野座９０",
      "lat": 26.485188316,
      "lng": 127.976797708,
      "geocoding_level": 8,
      "phone": "",
      "license_no": "第03201702208号",
      "license_date": "2018-03-09",
      "expire_date": "2024-03-31"
    },
    {
      "name": "ピーズ　チャペル",
      "name_kana": "",
      "business_type": "飲食店営業",
      "address": "宜野座村宜野座６６３－１８ ギノザイーストロッジ１０２",
      "lat": 26.476480823,
      "lng": 127.989965416,
      "geocoding_level": 8,
      "phone": "",
      "license_no": "第03201702224号",
      "license_date": "2018-03-13",
      "expire_date": "2024-03-31"
    },
    {
      "name": "未来ぎのざ（パーラー）",
      "name_kana": "",
      "business_type": "飲食店営業",
      "address": "宜野座村漢那１６３３",
      "lat": 26.473883465,
      "lng": 127.95216732799999,
      "geocoding_level": 8,
      "phone": "",
      "license_no": "第03201702281号",
      "license_date": "2018-03-23",
      "expire_date": "2024-03-31"
    },
    {
      "name": "月桃",
      "name_kana": "",
      "business_type": "そうざい製造業",
      "address": "宜野座村惣慶４６－１",
      "lat": 26.478250764,
      "lng": 127.97574418,
      "geocoding_level": 8,
      "phone": "",
      "license_no": "第03201800032号",
      "license_date": "2018-04-09",
      "expire_date": "2024-04-30"
    },
    {
      "name": "月桃",
      "name_kana": "",
      "business_type": "菓子製造業",
      "address": "宜野座村惣慶４６－１",
      "lat": 26.478250764,
      "lng": 127.97574418,
      "geocoding_level": 8,
      "phone": "",
      "license_no": "第03201800033号",
      "license_date": "2018-04-09",
      "expire_date": "2024-04-30"
    },
    {
      "name": "未来ぎのざ（スイーツ）部門",
      "name_kana": "",
      "business_type": "飲食店営業",
      "address": "宜野座村漢那１６３３",
      "lat": 26.473883465,
      "lng": 127.95216732799999,
      "geocoding_level": 8,
      "phone": "",
      "license_no": "第03201800049号",
      "license_date": "2018-04-10",
      "expire_date": "2024-04-30"
    },
    {
      "name": "ＣＯＦＦＥＥ＆ＢＲＥＡＫ　ＧＩＮＯＺＡ　ＦＡＲＭ　ＬＡＢ",
      "name_kana": "",
      "business_type": "飲食店営業",
      "address": "宜野座村漢那１６４６－４　２Ｆ",
      "lat": 26.473650845,
      "lng": 127.951478878,
      "geocoding_level": 8,
      "phone": "",
      "license_no": "第03201800086号",
      "license_date": "2018-04-17",
      "expire_date": "2024-04-30"
    },
    {
      "name": "ＣＯＦＦＥＥ＆ＢＲＥＡＫ　ＧＩＮＯＺＡ　ＦＡＲＭ　ＬＡＢ",
      "name_kana": "",
      "business_type": "菓子製造業",
      "address": "宜野座村漢那１６４６－４　２Ｆ",
      "lat": 26.473650845,
      "lng": 127.951478878,
      "geocoding_level": 8,
      "phone": "",
      "license_no": "第03201800087号",
      "license_date": "2018-04-17",
      "expire_date": "2024-04-30"
    },
    {
      "name": "酒楽一番",
      "name_kana": "",
      "business_type": "飲食店営業",
      "address": "宜野座村松田２６１１－３",
      "lat": 26.488210949,
      "lng": 127.984484722,
      "geocoding_level": 8,
      "phone": "",
      "license_no": "第03201800173号",
      "license_date": "2018-04-27",
      "expire_date": "2024-04-30"
    },
    {
      "name": "丸ちゃん食堂",
      "name_kana": "",
      "business_type": "飲食店営業",
      "address": "宜野座村松田６５１",
      "lat": 26.491855752,
      "lng": 127.98767727799999,
      "geocoding_level": 8,
      "phone": "",
      "license_no": "第03201800374号",
      "license_date": "2018-05-28",
      "expire_date": "2024-05-31"
    },
    {
      "name": "丸ちゃん食堂",
      "name_kana": "",
      "business_type": "そうざい製造業",
      "address": "宜野座村松田６５１",
      "lat": 26.491855752,
      "lng": 127.98767727799999,
      "geocoding_level": 8,
      "phone": "",
      "license_no": "第03201800375号",
      "license_date": "2018-05-28",
      "expire_date": "2024-05-31"
    },
    {
      "name": "丸ちゃん食堂",
      "name_kana": "",
      "business_type": "菓子製造業",
      "address": "宜野座村松田６５１",
      "lat": 26.491855752,
      "lng": 127.98767727799999,
      "geocoding_level": 8,
      "phone": "",
      "license_no": "第03201800376号",
      "license_date": "2018-05-28",
      "expire_date": "2024-05-31"
    },
    {
      "name": "ＪＡおきなわ宜野座支店",
      "name_kana": "",
      "business_type": "みそ製造業",
      "address": "宜野座村宜野座１３３",
      "lat": 26.482143316,
      "lng": 127.97652879600001,
      "geocoding_level": 8,
      "phone": "",
      "license_no": "第03201800403号",
      "license_date": "2018-05-31",
      "expire_date": "2024-05-31"
    },
    {
      "name": "パーラーカンナ",
      "name_kana": "",
      "business_type": "飲食店営業",
      "address": "宜野座村漢那浜原１６９５－２２",
      "lat": 26.488622,
      "lng": 127.944201,
      "geocoding_level": 3,
      "phone": "",
      "license_no": "第03201800520号",
      "license_date": "2018-06-19",
      "expire_date": "2024-06-30"
    },
    {
      "name": "桜屋弁当",
      "name_kana": "",
      "business_type": "そうざい製造業",
      "address": "宜野座村惣慶５７３",
      "lat": 26.475689901,
      "lng": 127.97459363699998,
      "geocoding_level": 8,
      "phone": "",
      "license_no": "第03201800618号",
      "license_date": "2018-07-03",
      "expire_date": "2024-07-31"
    },
    {
      "name": "ひまわり弁当",
      "name_kana": "",
      "business_type": "飲食店営業",
      "address": "宜野座村惣慶４５",
      "lat": 26.478142603,
      "lng": 127.975701194,
      "geocoding_level": 8,
      "phone": "",
      "license_no": "第03201800646号",
      "license_date": "2018-07-06",
      "expire_date": "2024-07-31"
    },
    {
      "name": "あじまー",
      "name_kana": "",
      "business_type": "飲食店営業",
      "address": "宜野座村松田１０４８－２",
      "lat": 26.496249866,
      "lng": 127.99335081,
      "geocoding_level": 8,
      "phone": "",
      "license_no": "第03201800647号",
      "license_date": "2018-07-06",
      "expire_date": "2024-07-31"
    },
    {
      "name": "ＴＨＥ　ＨＩＲＡＭＡＴＳＵ　ＨＯＴＥＬＳ　＆　ＲＥＳＯＲＴＳ　宜野座 （レセプション棟）",
      "name_kana": "",
      "business_type": "飲食店営業",
      "address": "宜野座村松田１４２５",
      "lat": 26.485573859,
      "lng": 128.001543355,
      "geocoding_level": 8,
      "phone": "",
      "license_no": "第03201800648号",
      "license_date": "2018-07-06",
      "expire_date": "2024-07-31"
    },
    {
      "name": "ＴＨＥ　ＨＩＲＡＭＡＴＳＵ　ＨＯＴＥＬＳ＆ＲＥＳＯＲＴＳ宜野座 （レストラン棟）",
      "name_kana": "",
      "business_type": "飲食店営業",
      "address": "宜野座村松田１４２５",
      "lat": 26.485573859,
      "lng": 128.001543355,
      "geocoding_level": 8,
      "phone": "",
      "license_no": "第03201800649号",
      "license_date": "2018-07-06",
      "expire_date": "2024-07-31"
    },
    {
      "name": "ひまわり弁当",
      "name_kana": "",
      "business_type": "そうざい製造業",
      "address": "宜野座村惣慶４５",
      "lat": 26.478142603,
      "lng": 127.975701194,
      "geocoding_level": 8,
      "phone": "",
      "license_no": "第03201800770号",
      "license_date": "2018-07-26",
      "expire_date": "2024-07-31"
    },
    {
      "name": "松富士ストア",
      "name_kana": "",
      "business_type": "魚介類販売業",
      "address": "宜野座村松田４２６",
      "lat": 26.491252788000004,
      "lng": 127.990380664,
      "geocoding_level": 8,
      "phone": "",
      "license_no": "第03201800918号",
      "license_date": "2018-08-15",
      "expire_date": "2025-08-31"
    },
    {
      "name": "松富士ストア",
      "name_kana": "",
      "business_type": "食肉販売業",
      "address": "宜野座村松田４２６",
      "lat": 26.491252788000004,
      "lng": 127.990380664,
      "geocoding_level": 8,
      "phone": "",
      "license_no": "第03201800919号",
      "license_date": "2018-08-15",
      "expire_date": "2025-08-31"
    },
    {
      "name": "松富士ストア",
      "name_kana": "",
      "business_type": "乳類販売業",
      "address": "宜野座村松田４２６",
      "lat": 26.491252788000004,
      "lng": 127.990380664,
      "geocoding_level": 8,
      "phone": "",
      "license_no": "第03201800920号",
      "license_date": "2018-08-15",
      "expire_date": "2025-08-31"
    },
    {
      "name": "天ぷら屋さん　美ら天",
      "name_kana": "",
      "business_type": "飲食店営業",
      "address": "宜野座村漢那１６３３",
      "lat": 26.473883465,
      "lng": 127.95216732799999,
      "geocoding_level": 8,
      "phone": "",
      "license_no": "第03201800946号",
      "license_date": "2018-08-21",
      "expire_date": "2024-08-31"
    },
    {
      "name": "IZAKAYA  HANAYA",
      "name_kana": "",
      "business_type": "飲食店営業",
      "address": "宜野座村惣慶１７２２－１",
      "lat": 26.480477806,
      "lng": 127.972660096,
      "geocoding_level": 8,
      "phone": "",
      "license_no": "第03201800952号",
      "license_date": "2018-08-22",
      "expire_date": "2024-08-31"
    },
    {
      "name": "パーラーコメット",
      "name_kana": "",
      "business_type": "飲食店営業",
      "address": "宜野座村宜野座６４",
      "lat": 26.48413519,
      "lng": 127.97655411000001,
      "geocoding_level": 8,
      "phone": "",
      "license_no": "第03201801021号",
      "license_date": "2018-08-31",
      "expire_date": "2024-08-31"
    },
    {
      "name": "ふくちゃん",
      "name_kana": "",
      "business_type": "飲食店営業",
      "address": "宜野座村宜野座９０",
      "lat": 26.485188316,
      "lng": 127.976797708,
      "geocoding_level": 8,
      "phone": "",
      "license_no": "第03201801220号",
      "license_date": "2018-09-28",
      "expire_date": "2024-09-30"
    },
    {
      "name": "きのストアー",
      "name_kana": "",
      "business_type": "菓子製造業",
      "address": "宜野座村宜野座４４３",
      "lat": 26.481362007,
      "lng": 127.982181904,
      "geocoding_level": 8,
      "phone": "",
      "license_no": "第03201801439号",
      "license_date": "2018-10-31",
      "expire_date": "2024-10-31"
    },
    {
      "name": "ｎｉｌ＋",
      "name_kana": "",
      "business_type": "飲食店営業",
      "address": "宜野座村宜野座３１－２",
      "lat": 26.48369516,
      "lng": 127.978665847,
      "geocoding_level": 8,
      "phone": "",
      "license_no": "第03201801481号",
      "license_date": "2018-11-05",
      "expire_date": "2024-11-30"
    },
    {
      "name": "ｚｕｃｃｈｅｒｏ",
      "name_kana": "",
      "business_type": "喫茶店営業",
      "address": "宜野座村惣慶１４８９－６Ａ",
      "lat": 26.478294478,
      "lng": 127.97029537500002,
      "geocoding_level": 8,
      "phone": "",
      "license_no": "第03201801564号",
      "license_date": "2018-11-13",
      "expire_date": "2024-11-30"
    },
    {
      "name": "ｚｕｃｃｈｅｒｏ",
      "name_kana": "",
      "business_type": "菓子製造業",
      "address": "宜野座村惣慶１４８９－６Ａ",
      "lat": 26.478294478,
      "lng": 127.97029537500002,
      "geocoding_level": 8,
      "phone": "",
      "license_no": "第03201801565号",
      "license_date": "2018-11-13",
      "expire_date": "2024-11-30"
    },
    {
      "name": "かねひで　ジップマート宜野座店",
      "name_kana": "",
      "business_type": "そうざい製造業",
      "address": "宜野座村宜野座７１４－１",
      "lat": 26.483261998000003,
      "lng": 127.979631061,
      "geocoding_level": 8,
      "phone": "",
      "license_no": "第03201801767号",
      "license_date": "2018-12-11",
      "expire_date": "2025-01-31"
    },
    {
      "name": "かねひで　ジップマート宜野座店",
      "name_kana": "",
      "business_type": "食肉販売業",
      "address": "宜野座村宜野座７１４－１",
      "lat": 26.483261998000003,
      "lng": 127.979631061,
      "geocoding_level": 8,
      "phone": "",
      "license_no": "第03201801768号",
      "license_date": "2018-12-11",
      "expire_date": "2025-01-31"
    },
    {
      "name": "かねひで　ジップマート宜野座店",
      "name_kana": "",
      "business_type": "魚介類販売業",
      "address": "宜野座村宜野座７１４－１",
      "lat": 26.483261998000003,
      "lng": 127.979631061,
      "geocoding_level": 8,
      "phone": "",
      "license_no": "第03201801769号",
      "license_date": "2018-12-11",
      "expire_date": "2025-01-31"
    },
    {
      "name": "かねひで　ジップマート宜野座店",
      "name_kana": "",
      "business_type": "乳類販売業",
      "address": "宜野座村宜野座７１４－１",
      "lat": 26.483261998000003,
      "lng": 127.979631061,
      "geocoding_level": 8,
      "phone": "",
      "license_no": "第03201801770号",
      "license_date": "2018-12-11",
      "expire_date": "2025-01-31"
    },
    {
      "name": "かねひで　ジップマート宜野座店",
      "name_kana": "",
      "business_type": "菓子製造業",
      "address": "宜野座村宜野座７１４－１",
      "lat": 26.483261998000003,
      "lng": 127.979631061,
      "geocoding_level": 8,
      "phone": "",
      "license_no": "第03201801771号",
      "license_date": "2018-12-11",
      "expire_date": "2025-01-31"
    },
    {
      "name": "かねひで　ジップマート宜野座店",
      "name_kana": "",
      "business_type": "喫茶店営業",
      "address": "宜野座村宜野座７１４－１",
      "lat": 26.483261998000003,
      "lng": 127.979631061,
      "geocoding_level": 8,
      "phone": "",
      "license_no": "第03201801772号",
      "license_date": "2018-12-11",
      "expire_date": "2025-01-31"
    },
    {
      "name": "車えびレストラン球屋",
      "name_kana": "",
      "business_type": "飲食店営業",
      "address": "宜野座村宜野座１００８",
      "lat": 26.483806845,
      "lng": 127.98527127400001,
      "geocoding_level": 8,
      "phone": "",
      "license_no": "第03201802260号",
      "license_date": "2019-02-25",
      "expire_date": "2025-02-28"
    },
    {
      "name": "ひとやすみ",
      "name_kana": "",
      "business_type": "飲食店営業",
      "address": "宜野座村惣慶１７７２－６",
      "lat": 26.480956454,
      "lng": 127.969445682,
      "geocoding_level": 8,
      "phone": "",
      "license_no": "第03201802327号",
      "license_date": "2019-03-06",
      "expire_date": "2025-03-31"
    },
    {
      "name": "宜野座村農業後継者等育成センター",
      "name_kana": "",
      "business_type": "清涼飲料水製造業",
      "address": "宜野座村宜野座１５７９－３",
      "lat": 26.488656899,
      "lng": 127.96983325200002,
      "geocoding_level": 8,
      "phone": "",
      "license_no": "第03201802364号",
      "license_date": "2019-03-12",
      "expire_date": "2025-03-31"
    },
    {
      "name": "エンジェル・カフェ",
      "name_kana": "",
      "business_type": "喫茶店営業",
      "address": "宜野座村松田１４４３ （宜野座村ＩＴオペレーションパーク内）",
      "lat": 26.504901,
      "lng": 127.98439799999998,
      "geocoding_level": 3,
      "phone": "",
      "license_no": "第03201802477号",
      "license_date": "2019-03-28",
      "expire_date": "2025-03-31"
    },
    {
      "name": "株式会社ＪＡおきなわＳＳ　宜野座セルフＳＳ （ＷＣＢＶＤＭＦ３）",
      "name_kana": "",
      "business_type": "喫茶店営業",
      "address": "宜野座村宜野座１９２",
      "lat": 26.48520797,
      "lng": 127.973076845,
      "geocoding_level": 8,
      "phone": "",
      "license_no": "第03201900028号",
      "license_date": "2019-04-09",
      "expire_date": "2026-04-30"
    },
    {
      "name": "ＪＡおきなわ教育研修所",
      "name_kana": "",
      "business_type": "飲食店営業",
      "address": "宜野座村宜野座１６６０",
      "lat": 26.492539645000004,
      "lng": 127.97440547700002,
      "geocoding_level": 8,
      "phone": "",
      "license_no": "第03201900047号",
      "license_date": "2019-04-15",
      "expire_date": "2025-04-30"
    },
    {
      "name": "沖縄県立宜野座高等学校（青雲寮）",
      "name_kana": "",
      "business_type": "飲食店営業",
      "address": "宜野座村宜野座３９",
      "lat": 26.484032707,
      "lng": 127.977863883,
      "geocoding_level": 8,
      "phone": "",
      "license_no": "第03201900198号",
      "license_date": "2019-05-07",
      "expire_date": "2025-05-31"
    },
    {
      "name": "仲間商店",
      "name_kana": "",
      "business_type": "飲食店営業",
      "address": "宜野座村惣慶５６８",
      "lat": 26.490912,
      "lng": 127.960503,
      "geocoding_level": 3,
      "phone": "",
      "license_no": "第03201900395号",
      "license_date": "2019-05-31",
      "expire_date": "2025-05-31"
    },
    {
      "name": "仲間商店",
      "name_kana": "",
      "business_type": "アイスクリーム類製造業",
      "address": "宜野座村惣慶１１９０",
      "lat": 26.475952022,
      "lng": 127.973747011,
      "geocoding_level": 8,
      "phone": "",
      "license_no": "第03201900396号",
      "license_date": "2019-05-31",
      "expire_date": "2025-05-31"
    },
    {
      "name": "仲間商店",
      "name_kana": "",
      "business_type": "菓子製造業",
      "address": "宜野座村惣慶５６８",
      "lat": 26.490912,
      "lng": 127.960503,
      "geocoding_level": 3,
      "phone": "",
      "license_no": "第03201900397号",
      "license_date": "2019-05-31",
      "expire_date": "2025-05-31"
    },
    {
      "name": "仲間商店",
      "name_kana": "",
      "business_type": "アイスクリーム類製造業",
      "address": "宜野座村惣慶５６８",
      "lat": 26.490912,
      "lng": 127.960503,
      "geocoding_level": 3,
      "phone": "",
      "license_no": "第03201900398号",
      "license_date": "2019-05-31",
      "expire_date": "2025-05-31"
    },
    {
      "name": "ローソン宜野座漢那店",
      "name_kana": "",
      "business_type": "飲食店営業",
      "address": "宜野座村漢那１２７８－１",
      "lat": 26.475791352000005,
      "lng": 127.955964313,
      "geocoding_level": 8,
      "phone": "",
      "license_no": "第03201900435号",
      "license_date": "2019-06-03",
      "expire_date": "2025-06-30"
    },
    {
      "name": "ローソン宜野座漢那店",
      "name_kana": "",
      "business_type": "食肉販売業",
      "address": "宜野座村漢那１２７８－１",
      "lat": 26.475791352000005,
      "lng": 127.955964313,
      "geocoding_level": 8,
      "phone": "",
      "license_no": "第03201900436号",
      "license_date": "2019-06-03",
      "expire_date": "2025-06-30"
    },
    {
      "name": "ローソン宜野座漢那店",
      "name_kana": "",
      "business_type": "魚介類販売業",
      "address": "宜野座村漢那１２７８－１",
      "lat": 26.475791352000005,
      "lng": 127.955964313,
      "geocoding_level": 8,
      "phone": "",
      "license_no": "第03201900437号",
      "license_date": "2019-06-03",
      "expire_date": "2025-06-30"
    },
    {
      "name": "ローソン宜野座漢那店",
      "name_kana": "",
      "business_type": "乳類販売業",
      "address": "宜野座村漢那１２７８－１",
      "lat": 26.475791352000005,
      "lng": 127.955964313,
      "geocoding_level": 8,
      "phone": "",
      "license_no": "第03201900438号",
      "license_date": "2019-06-03",
      "expire_date": "2025-06-30"
    },
    {
      "name": "漢那共同売店　ＤＥＲＩ　ＤＥＲＩ",
      "name_kana": "",
      "business_type": "飲食店営業",
      "address": "宜野座村漢那１６５",
      "lat": 26.475827024,
      "lng": 127.95819074600001,
      "geocoding_level": 8,
      "phone": "",
      "license_no": "第03201900455号",
      "license_date": "2019-06-04",
      "expire_date": "2025-06-30"
    },
    {
      "name": "漢那共同売店　ＤＥＲＩ　ＤＥＲＩ",
      "name_kana": "",
      "business_type": "魚介類販売業",
      "address": "宜野座村漢那１６５",
      "lat": 26.475827024,
      "lng": 127.95819074600001,
      "geocoding_level": 8,
      "phone": "",
      "license_no": "第03201900456号",
      "license_date": "2019-06-04",
      "expire_date": "2025-06-30"
    },
    {
      "name": "漢那共同売店　ＤＥＲＩ　ＤＥＲＩ",
      "name_kana": "",
      "business_type": "乳類販売業",
      "address": "宜野座村漢那１６５",
      "lat": 26.475827024,
      "lng": 127.95819074600001,
      "geocoding_level": 8,
      "phone": "",
      "license_no": "第03201900457号",
      "license_date": "2019-06-04",
      "expire_date": "2026-06-30"
    },
    {
      "name": "漢那共同売店　ＤＥＲＩ　ＤＥＲＩ",
      "name_kana": "",
      "business_type": "食肉販売業",
      "address": "宜野座村漢那１６５",
      "lat": 26.475827024,
      "lng": 127.95819074600001,
      "geocoding_level": 8,
      "phone": "",
      "license_no": "第03201900458号",
      "license_date": "2019-06-04",
      "expire_date": "2026-06-30"
    },
    {
      "name": "仲間商店",
      "name_kana": "",
      "business_type": "飲食店営業",
      "address": "宜野座村惣慶１１９０",
      "lat": 26.475952022,
      "lng": 127.973747011,
      "geocoding_level": 8,
      "phone": "",
      "license_no": "第03201900481号",
      "license_date": "2019-06-11",
      "expire_date": "2025-06-30"
    },
    {
      "name": "丸盛水産",
      "name_kana": "",
      "business_type": "魚介類販売業",
      "address": "宜野座村漢那１７０３－４",
      "lat": 26.473605361,
      "lng": 127.95688038499999,
      "geocoding_level": 8,
      "phone": "",
      "license_no": "第03201900482号",
      "license_date": "2019-06-11",
      "expire_date": "2025-06-30"
    },
    {
      "name": "ＳＨＩＲＡＤＯ　ＦＡＲＭ’Ｓ",
      "name_kana": "",
      "business_type": "菓子製造業",
      "address": "宜野座村宜野座前山原１５６１－１",
      "lat": 26.498165,
      "lng": 127.97164,
      "geocoding_level": 3,
      "phone": "",
      "license_no": "第03201900489号",
      "license_date": "2019-06-11",
      "expire_date": "2025-06-30"
    },
    {
      "name": "パーラー　カズ",
      "name_kana": "",
      "business_type": "飲食店営業",
      "address": "宜野座村漢那１３８５－７",
      "lat": 26.474350417,
      "lng": 127.95231991999998,
      "geocoding_level": 8,
      "phone": "",
      "license_no": "第03201900601号",
      "license_date": "2019-06-26",
      "expire_date": "2025-06-30"
    },
    {
      "name": "桜屋弁当",
      "name_kana": "",
      "business_type": "飲食店営業",
      "address": "宜野座村惣慶５７３",
      "lat": 26.475689901,
      "lng": 127.97459363699998,
      "geocoding_level": 8,
      "phone": "",
      "license_no": "第03201900817号",
      "license_date": "2019-07-29",
      "expire_date": "2025-07-31"
    },
    {
      "name": "我羅蔓",
      "name_kana": "",
      "business_type": "飲食店営業",
      "address": "宜野座村惣慶１７７２－７",
      "lat": 26.480773302,
      "lng": 127.96954818900001,
      "geocoding_level": 8,
      "phone": "",
      "license_no": "第03201900965号",
      "license_date": "2019-08-26",
      "expire_date": "2025-08-31"
    },
    {
      "name": "そば　Ｃａｆｅ　「ホウオウボク」",
      "name_kana": "",
      "business_type": "飲食店営業",
      "address": "宜野座村惣慶６３７－７",
      "lat": 26.474881174,
      "lng": 127.974942897,
      "geocoding_level": 8,
      "phone": "",
      "license_no": "第03201901100号",
      "license_date": "2019-09-11",
      "expire_date": "2025-09-30"
    },
    {
      "name": "美ら天",
      "name_kana": "",
      "business_type": "飲食店営業",
      "address": "宜野座村漢那１６３３未来ぎのざＤ",
      "lat": 26.473883465,
      "lng": 127.95216732799999,
      "geocoding_level": 8,
      "phone": "",
      "license_no": "第03201901182号",
      "license_date": "2019-09-24",
      "expire_date": "2025-09-30"
    },
    {
      "name": "宜野座村商工会女性部",
      "name_kana": "",
      "business_type": "みそ製造業",
      "address": "宜野座村漢那１６３３ 道の駅未来ぎのざ",
      "lat": 26.473883465,
      "lng": 127.95216732799999,
      "geocoding_level": 8,
      "phone": "",
      "license_no": "第03201901399号",
      "license_date": "2019-10-23",
      "expire_date": "2025-10-31"
    },
    {
      "name": "大也丸",
      "name_kana": "",
      "business_type": "飲食店営業",
      "address": "宜野座村漢那１６３３",
      "lat": 26.473883465,
      "lng": 127.95216732799999,
      "geocoding_level": 8,
      "phone": "",
      "license_no": "第03201901689号",
      "license_date": "2019-11-21",
      "expire_date": "2025-11-30"
    },
    {
      "name": "大也丸",
      "name_kana": "",
      "business_type": "魚介類販売業",
      "address": "宜野座村漢那１６３３",
      "lat": 26.473883465,
      "lng": 127.95216732799999,
      "geocoding_level": 8,
      "phone": "",
      "license_no": "第03201901690号",
      "license_date": "2019-11-21",
      "expire_date": "2025-11-30"
    },
    {
      "name": "（株）バイオメイク",
      "name_kana": "",
      "business_type": "清涼飲料水製造業",
      "address": "宜野座村松田１０５２",
      "lat": 26.497514,
      "lng": 127.993672146,
      "geocoding_level": 8,
      "phone": "",
      "license_no": "第03201902183号",
      "license_date": "2020-01-31",
      "expire_date": "2026-01-31"
    },
    {
      "name": "ＪＡおきなわ宜野座支店",
      "name_kana": "",
      "business_type": "そうざい製造業",
      "address": "宜野座村宜野座１３３",
      "lat": 26.482143316,
      "lng": 127.97652879600001,
      "geocoding_level": 8,
      "phone": "",
      "license_no": "第03201902313号",
      "license_date": "2020-02-18",
      "expire_date": "2026-02-28"
    },
    {
      "name": "ＪＡおきなわ宜野座支店",
      "name_kana": "",
      "business_type": "菓子製造業",
      "address": "宜野座村宜野座１３３",
      "lat": 26.482143316,
      "lng": 127.97652879600001,
      "geocoding_level": 8,
      "phone": "",
      "license_no": "第03201902314号",
      "license_date": "2020-02-18",
      "expire_date": "2026-02-28"
    },
    {
      "name": "宜野座冷凍",
      "name_kana": "",
      "business_type": "食肉販売業",
      "address": "宜野座村漢那１７４２",
      "lat": 26.488622,
      "lng": 127.944201,
      "geocoding_level": 3,
      "phone": "",
      "license_no": "第03201902392号",
      "license_date": "2020-02-28",
      "expire_date": "2026-02-28"
    },
    {
      "name": "宜野座冷凍",
      "name_kana": "",
      "business_type": "魚介類販売業",
      "address": "宜野座村漢那１７４２",
      "lat": 26.488622,
      "lng": 127.944201,
      "geocoding_level": 3,
      "phone": "",
      "license_no": "第03201902393号",
      "license_date": "2020-02-28",
      "expire_date": "2026-02-28"
    },
    {
      "name": "丸盛水産",
      "name_kana": "",
      "business_type": "魚介類販売業",
      "address": "宜野座村漢那１７０３－４",
      "lat": 26.473605361,
      "lng": 127.95688038499999,
      "geocoding_level": 8,
      "phone": "",
      "license_no": "第03201902513号",
      "license_date": "2020-03-16",
      "expire_date": "2027-03-31"
    },
    {
      "name": "タラソダイニング暖琉満菜",
      "name_kana": "",
      "business_type": "飲食店営業",
      "address": "宜野座村漢那１８１７",
      "lat": 26.474639071,
      "lng": 127.96015860799999,
      "geocoding_level": 8,
      "phone": "",
      "license_no": "第03202000045号",
      "license_date": "2020-04-10",
      "expire_date": "2026-04-30"
    },
    {
      "name": "ハイビスカス　ベーカリー",
      "name_kana": "",
      "business_type": "菓子製造業",
      "address": "宜野座村松田３５",
      "lat": 26.491750526,
      "lng": 127.990725922,
      "geocoding_level": 8,
      "phone": "",
      "license_no": "第03202000333号",
      "license_date": "2020-05-19",
      "expire_date": "2026-05-31"
    },
    {
      "name": "ハイビスカス　ベーカリー",
      "name_kana": "",
      "business_type": "飲食店営業",
      "address": "宜野座村松田３５",
      "lat": 26.491750526,
      "lng": 127.990725922,
      "geocoding_level": 8,
      "phone": "",
      "license_no": "第03202000334号",
      "license_date": "2020-05-19",
      "expire_date": "2026-05-31"
    },
    {
      "name": "食事処恵ちゃん",
      "name_kana": "",
      "business_type": "飲食店営業",
      "address": "宜野座村宜野座３３０",
      "lat": 26.481762938,
      "lng": 127.97728317899998,
      "geocoding_level": 8,
      "phone": "",
      "license_no": "第03202000561号",
      "license_date": "2020-05-29",
      "expire_date": "2026-05-31"
    },
    {
      "name": "ぎのざのお菓子やＳＵＮ",
      "name_kana": "",
      "business_type": "飲食店営業",
      "address": "宜野座村漢那１６４６－４",
      "lat": 26.473650845,
      "lng": 127.951478878,
      "geocoding_level": 8,
      "phone": "",
      "license_no": "第03202000694号",
      "license_date": "2020-06-30",
      "expire_date": "2026-06-30"
    },
    {
      "name": "漢那共同売店",
      "name_kana": "",
      "business_type": "飲食店営業",
      "address": "宜野座村漢那１６５",
      "lat": 26.475827024,
      "lng": 127.95819074600001,
      "geocoding_level": 8,
      "phone": "",
      "license_no": "第03202001301号",
      "license_date": "2020-10-08",
      "expire_date": "2026-10-31"
    },
    {
      "name": "漢那共同売店",
      "name_kana": "",
      "business_type": "食肉販売業",
      "address": "宜野座村漢那１６５",
      "lat": 26.475827024,
      "lng": 127.95819074600001,
      "geocoding_level": 8,
      "phone": "",
      "license_no": "第03202001311号",
      "license_date": "2020-10-08",
      "expire_date": "2026-10-31"
    },
    {
      "name": "漢那共同売店",
      "name_kana": "",
      "business_type": "乳類販売業",
      "address": "宜野座村漢那１６５",
      "lat": 26.475827024,
      "lng": 127.95819074600001,
      "geocoding_level": 8,
      "phone": "",
      "license_no": "第03202001312号",
      "license_date": "2020-10-08",
      "expire_date": "2027-10-31"
    },
    {
      "name": "漢那共同売店",
      "name_kana": "",
      "business_type": "魚介類販売業",
      "address": "宜野座村漢那１６５",
      "lat": 26.475827024,
      "lng": 127.95819074600001,
      "geocoding_level": 8,
      "phone": "",
      "license_no": "第03202001321号",
      "license_date": "2020-10-12",
      "expire_date": "2026-10-31"
    },
    {
      "name": "セブン－イレブン宜野座漢那店",
      "name_kana": "",
      "business_type": "乳類販売業",
      "address": "宜野座村漢那１６２４",
      "lat": 26.473812026,
      "lng": 127.952853155,
      "geocoding_level": 8,
      "phone": "",
      "license_no": "第03202001456号",
      "license_date": "2020-11-02",
      "expire_date": "2027-11-30"
    },
    {
      "name": "セブン－イレブン宜野座漢那店",
      "name_kana": "",
      "business_type": "魚介類販売業",
      "address": "宜野座村漢那１６２４",
      "lat": 26.473812026,
      "lng": 127.952853155,
      "geocoding_level": 8,
      "phone": "",
      "license_no": "第03202001457号",
      "license_date": "2020-11-02",
      "expire_date": "2027-11-30"
    },
    {
      "name": "セブン－イレブン宜野座漢那店",
      "name_kana": "",
      "business_type": "食肉販売業",
      "address": "宜野座村漢那１６２４",
      "lat": 26.473812026,
      "lng": 127.952853155,
      "geocoding_level": 8,
      "phone": "",
      "license_no": "第03202001458号",
      "license_date": "2020-11-02",
      "expire_date": "2027-11-30"
    },
    {
      "name": "セブン－イレブン宜野座漢那店",
      "name_kana": "",
      "business_type": "飲食店営業",
      "address": "宜野座村漢那１６２４",
      "lat": 26.473812026,
      "lng": 127.952853155,
      "geocoding_level": 8,
      "phone": "",
      "license_no": "第03202001459号",
      "license_date": "2020-11-02",
      "expire_date": "2026-11-30"
    },
    {
      "name": "セブン－イレブン宜野座松田店",
      "name_kana": "",
      "business_type": "乳類販売業",
      "address": "宜野座村松田２４３５－１",
      "lat": 26.489445139,
      "lng": 127.988197904,
      "geocoding_level": 8,
      "phone": "",
      "license_no": "第03202001460号",
      "license_date": "2020-11-02",
      "expire_date": "2027-11-30"
    },
    {
      "name": "セブン－イレブン宜野座松田店",
      "name_kana": "",
      "business_type": "魚介類販売業",
      "address": "宜野座村松田２４３５－１",
      "lat": 26.489445139,
      "lng": 127.988197904,
      "geocoding_level": 8,
      "phone": "",
      "license_no": "第03202001461号",
      "license_date": "2020-11-02",
      "expire_date": "2027-11-30"
    },
    {
      "name": "セブン－イレブン宜野座松田店",
      "name_kana": "",
      "business_type": "食肉販売業",
      "address": "宜野座村松田２４３５－１",
      "lat": 26.489445139,
      "lng": 127.988197904,
      "geocoding_level": 8,
      "phone": "",
      "license_no": "第03202001462号",
      "license_date": "2020-11-02",
      "expire_date": "2027-11-30"
    },
    {
      "name": "セブン－イレブン宜野座松田店",
      "name_kana": "",
      "business_type": "飲食店営業",
      "address": "宜野座村松田２４３５－１",
      "lat": 26.489445139,
      "lng": 127.988197904,
      "geocoding_level": 8,
      "phone": "",
      "license_no": "第03202001463号",
      "license_date": "2020-11-02",
      "expire_date": "2026-11-30"
    },
    {
      "name": "松田ゴルフ場売店",
      "name_kana": "",
      "business_type": "飲食店営業",
      "address": "宜野座村松田２８２４－２６４",
      "lat": 26.501795795,
      "lng": 127.99098610600001,
      "geocoding_level": 8,
      "phone": "",
      "license_no": "第03202001622号",
      "license_date": "2020-11-24",
      "expire_date": "2026-11-30"
    },
    {
      "name": "嘉手川弁当",
      "name_kana": "",
      "business_type": "飲食店営業",
      "address": "宜野座村宜野座１３２－３",
      "lat": 26.482009553,
      "lng": 127.977003686,
      "geocoding_level": 8,
      "phone": "",
      "license_no": "第03202001758号",
      "license_date": "2020-11-30",
      "expire_date": "2026-11-30"
    },
    {
      "name": "パンとケーキのお店　Ｒｉｋａｒａ",
      "name_kana": "",
      "business_type": "飲食店営業",
      "address": "宜野座村惣慶１８２９－３",
      "lat": 26.480572256000002,
      "lng": 127.97338818400002,
      "geocoding_level": 8,
      "phone": "",
      "license_no": "第03202001819号",
      "license_date": "2020-12-17",
      "expire_date": "2027-01-31"
    },
    {
      "name": "パンとケーキのお店　Ｒｉｋａｒａ",
      "name_kana": "",
      "business_type": "菓子製造業",
      "address": "宜野座村惣慶１８２９－３",
      "lat": 26.480572256000002,
      "lng": 127.97338818400002,
      "geocoding_level": 8,
      "phone": "",
      "license_no": "第03202001820号",
      "license_date": "2020-12-17",
      "expire_date": "2027-01-31"
    },
    {
      "name": "Ｃｈｉｆｆｏｎ　ｃａｋｅ．ｃｉｋｕｚｅｎｎｉ",
      "name_kana": "",
      "business_type": "菓子製造業",
      "address": "宜野座村宜野座３３１－２",
      "lat": 26.481902948,
      "lng": 127.977436567,
      "geocoding_level": 8,
      "phone": "",
      "license_no": "第03202001821号",
      "license_date": "2020-12-17",
      "expire_date": "2027-01-31"
    },
    {
      "name": "志良堂ファームズ",
      "name_kana": "",
      "business_type": "飲食店営業",
      "address": "宜野座村宜野座前山原１５６１－１",
      "lat": 26.498165,
      "lng": 127.97164,
      "geocoding_level": 3,
      "phone": "",
      "license_no": "第03202001841号",
      "license_date": "2020-08-31",
      "expire_date": "2026-08-31"
    },
    {
      "name": "丸達冷凍食品",
      "name_kana": "",
      "business_type": "食肉販売業",
      "address": "宜野座村惣慶６",
      "lat": 26.476319246,
      "lng": 127.975710463,
      "geocoding_level": 8,
      "phone": "",
      "license_no": "第03202001842号",
      "license_date": "2020-05-29",
      "expire_date": "2026-05-31"
    },
    {
      "name": "ザ・ギノザリゾート　美らの教会",
      "name_kana": "",
      "business_type": "菓子製造業",
      "address": "宜野座村惣慶下袋原１１８２",
      "lat": 26.490912,
      "lng": 127.960503,
      "geocoding_level": 3,
      "phone": "",
      "license_no": "第03202001975号",
      "license_date": "2021-01-13",
      "expire_date": "2027-01-31"
    },
    {
      "name": "有限会社宜野座養殖場",
      "name_kana": "",
      "business_type": "食品の冷凍又は冷蔵業",
      "address": "宜野座村宜野座１００８",
      "lat": 26.483806845,
      "lng": 127.98527127400001,
      "geocoding_level": 8,
      "phone": "",
      "license_no": "第03202002122号",
      "license_date": "2021-02-01",
      "expire_date": "2027-02-28"
    },
    {
      "name": "丸真そば",
      "name_kana": "",
      "business_type": "飲食店営業",
      "address": "宜野座村松田２４７０",
      "lat": 26.487683731,
      "lng": 127.98541585700002,
      "geocoding_level": 8,
      "phone": "",
      "license_no": "第03202002183号",
      "license_date": "2021-01-29",
      "expire_date": "2027-01-31"
    },
    {
      "name": "ザ・ギノザリゾート　美らの教会",
      "name_kana": "",
      "business_type": "飲食店営業",
      "address": "宜野座村惣慶１１８２",
      "lat": 26.468925781,
      "lng": 127.967890877,
      "geocoding_level": 8,
      "phone": "",
      "license_no": "第03202002237号",
      "license_date": "2021-02-16",
      "expire_date": "2027-02-28"
    },
    {
      "name": "ザ・ギノザリゾート　美らの教会（パティスリー）",
      "name_kana": "",
      "business_type": "菓子製造業",
      "address": "宜野座村惣慶１１８２",
      "lat": 26.468925781,
      "lng": 127.967890877,
      "geocoding_level": 8,
      "phone": "",
      "license_no": "第03202002238号",
      "license_date": "2021-02-16",
      "expire_date": "2027-02-28"
    },
    {
      "name": "喰遊",
      "name_kana": "",
      "business_type": "飲食店営業",
      "address": "宜野座村漢那１６３３ 道の駅ぎのざテナント２号",
      "lat": 26.473883465,
      "lng": 127.95216732799999,
      "geocoding_level": 8,
      "phone": "",
      "license_no": "第03202002473号",
      "license_date": "2021-03-12",
      "expire_date": "2027-03-31"
    },
    {
      "name": "バムセファーム",
      "name_kana": "",
      "business_type": "飲食店営業",
      "address": "宜野座村漢那１９６８－１",
      "lat": 26.48049153,
      "lng": 127.95332470500001,
      "geocoding_level": 8,
      "phone": "",
      "license_no": "第03202002477号",
      "license_date": "2021-03-12",
      "expire_date": "2027-03-31"
    },
    {
      "name": "翔",
      "name_kana": "",
      "business_type": "飲食店営業",
      "address": "宜野座村松田２４３６－１",
      "lat": 26.49004639,
      "lng": 127.98862171400002,
      "geocoding_level": 8,
      "phone": "",
      "license_no": "第03202002485号",
      "license_date": "2021-03-16",
      "expire_date": "2027-03-31"
    },
    {
      "name": "Ｎｉｍｍａｒｉ",
      "name_kana": "",
      "business_type": "喫茶店営業",
      "address": "宜野座村松田２２３４－４１",
      "lat": 26.484987524000005,
      "lng": 127.98771308400002,
      "geocoding_level": 8,
      "phone": "",
      "license_no": "第03202002561号",
      "license_date": "2021-01-29",
      "expire_date": "2027-01-31"
    },
    {
      "name": "Ｎｉｍｍａｒｉ",
      "name_kana": "",
      "business_type": "菓子製造業",
      "address": "宜野座村松田２２３４－４１",
      "lat": 26.484987524000005,
      "lng": 127.98771308400002,
      "geocoding_level": 8,
      "phone": "",
      "license_no": "第03202002562号",
      "license_date": "2021-01-29",
      "expire_date": "2027-01-31"
    },
    {
      "name": "パーラーぐしけん",
      "name_kana": "",
      "business_type": "飲食店営業",
      "address": "宜野座村宜野座３５６－１",
      "lat": 26.482348864,
      "lng": 127.978163945,
      "geocoding_level": 8,
      "phone": "",
      "license_no": "第03202100023号",
      "license_date": "2021-04-05",
      "expire_date": "2027-04-30"
    },
    {
      "name": "ひまわり弁当",
      "name_kana": "",
      "business_type": "飲食店営業",
      "address": "宜野座村松田１０１－１",
      "lat": 26.493697928,
      "lng": 127.992374231,
      "geocoding_level": 8,
      "phone": "",
      "license_no": "第03202100093号",
      "license_date": "2021-04-14",
      "expire_date": "2027-04-30"
    },
    {
      "name": "ｏｈｅｓｏ",
      "name_kana": "",
      "business_type": "飲食店営業",
      "address": "宜野座村漢那１３８０ 津嘉山アパート２０２",
      "lat": 26.475085921,
      "lng": 127.95491103099998,
      "geocoding_level": 8,
      "phone": "",
      "license_no": "第03202100443号",
      "license_date": "2021-05-25",
      "expire_date": "2027-05-31"
    }
  ]
}
