{
  "meta": {
    "updated": 1783568789,
    "sources": [
      {
        "source": "厚生労働省 食品衛生申請等システム（オープンデータ）",
        "license": "公共データ利用規約（第1.0版, PDL1.0）"
      }
    ]
  },
  "data": [
    {
      "name": "清水町立南小学校",
      "name_kana": "シミズチョウリツミナミショウガッコウ",
      "business_type": "① 飲食店営業",
      "address": "静岡県駿東郡清水町湯川１８２－１",
      "lat": 35.090779,
      "lng": 138.906274,
      "geocoding_level": null,
      "phone": "090-9232-3677",
      "license_no": "S56201700336",
      "license_date": "2023-09-29",
      "expire_date": "2029-09-30"
    },
    {
      "name": "清水町立清水中学校　給食室",
      "name_kana": "シミズチョウリツシミズチュウガッコウキュウショクシツ",
      "business_type": "① 飲食店営業",
      "address": "静岡県駿東郡清水町堂庭２６７",
      "lat": 35.10088,
      "lng": 138.905293,
      "geocoding_level": 3,
      "phone": "",
      "license_no": "S56201300027",
      "license_date": "2025-09-30",
      "expire_date": "2031-09-30"
    },
    {
      "name": "御菓子処雅心苑サントムーン店",
      "name_kana": "オカシドコロガシンエンサントムーンテン",
      "business_type": "⑬ その他の食料・飲料販売業",
      "address": "静岡県駿東郡清水町玉川61-2 サントムーン柿田川本館",
      "lat": 35.108791,
      "lng": 138.903834,
      "geocoding_level": null,
      "phone": "0889818832",
      "license_no": "",
      "license_date": null,
      "expire_date": null
    },
    {
      "name": "ダイソー　静岡清水町店",
      "name_kana": "ダイソー　シズオカシミズチョウテン",
      "business_type": "⑬ その他の食料・飲料販売業",
      "address": "静岡県駿東郡清水町伏見１８２－１",
      "lat": 35.116507,
      "lng": 138.902553,
      "geocoding_level": null,
      "phone": "",
      "license_no": "",
      "license_date": null,
      "expire_date": null
    },
    {
      "name": "ダイソー　サントムーン柿田川店",
      "name_kana": "ダイソー　サントムーンカキタガワテン",
      "business_type": "⑬ その他の食料・飲料販売業",
      "address": "静岡県駿東郡清水町伏見５８－１ サントムーン３階",
      "lat": 35.10867,
      "lng": 138.900923,
      "geocoding_level": null,
      "phone": "",
      "license_no": "",
      "license_date": null,
      "expire_date": null
    },
    {
      "name": "快活CLUB　FiT24　三島店",
      "name_kana": "カイカツクラブフィットミシマ",
      "business_type": "⑫ 自動販売機による販売業（コップ式自動販売機（自動洗浄・屋内設置）及び営業許可の対象となる自動販売機を除く）",
      "address": "静岡県駿東郡清水町玉川108-1",
      "lat": 35.108192,
      "lng": 138.904893,
      "geocoding_level": null,
      "phone": "",
      "license_no": "",
      "license_date": null,
      "expire_date": null
    },
    {
      "name": "ジュピター　柿田川店",
      "name_kana": "ジュピター　カキタガワテン",
      "business_type": "⑪ 百貨店、総合スーパー",
      "address": "静岡県駿東郡清水町玉川61-2 サントムーン柿田川1F",
      "lat": 35.108791,
      "lng": 138.903834,
      "geocoding_level": null,
      "phone": "",
      "license_no": "",
      "license_date": null,
      "expire_date": null
    },
    {
      "name": "株式会社メイカングループ　沼津支店",
      "name_kana": "カブシキカイシャメイカングループ　ヌマヅシテン",
      "business_type": "⑬ その他の食料・飲料販売業",
      "address": "静岡県駿東郡清水町戸田５－１",
      "lat": 35.095755,
      "lng": 138.911861,
      "geocoding_level": null,
      "phone": "0559773061",
      "license_no": "",
      "license_date": null,
      "expire_date": null
    },
    {
      "name": "果汁工房果琳　サントムーン柿田川店",
      "name_kana": "カジュウコウボウカリンサントムーンカキタガワテン",
      "business_type": "① 飲食店営業",
      "address": "静岡県駿東郡清水町玉川６１－２",
      "lat": 35.108791,
      "lng": 138.903834,
      "geocoding_level": null,
      "phone": "055-973-3373",
      "license_no": "S56201300227",
      "license_date": "2023-09-29",
      "expire_date": "2028-09-30"
    },
    {
      "name": "ローソン清水町中徳倉店",
      "name_kana": "ローソンシミズチョウナカトクラテン",
      "business_type": "⑩ コンビニエンスストア",
      "address": "静岡県駿東郡清水町中徳倉３５－１",
      "lat": 35.08719,
      "lng": 138.8969,
      "geocoding_level": null,
      "phone": "055-933-6033",
      "license_no": "",
      "license_date": null,
      "expire_date": null
    },
    {
      "name": "ローソン清水町中徳倉店",
      "name_kana": "ローソンシミズチョウナカトクラテン",
      "business_type": "① 飲食店営業",
      "address": "静岡県駿東郡清水町中徳倉３５－１",
      "lat": 35.089836,
      "lng": 138.895137,
      "geocoding_level": 3,
      "phone": "055-933-6033",
      "license_no": "S56201600312",
      "license_date": "2021-08-31",
      "expire_date": "2026-09-30"
    },
    {
      "name": "ローソン清水町久米田店",
      "name_kana": "ローソンシミズチョウクマイデンテン",
      "business_type": "① 飲食店営業",
      "address": "静岡県駿東郡清水町久米田５５－３",
      "lat": 35.101418,
      "lng": 138.911256,
      "geocoding_level": 3,
      "phone": "055-981-1163",
      "license_no": "S56201200646",
      "license_date": "2023-09-25",
      "expire_date": "2029-09-30"
    },
    {
      "name": "モダンゴルフ",
      "name_kana": "モダンゴルフ",
      "business_type": "② 調理機能を有する自動販売機（要許可）",
      "address": "静岡県駿東郡清水町長沢２７２－２",
      "lat": 35.103085,
      "lng": 138.894904,
      "geocoding_level": null,
      "phone": "",
      "license_no": "S71202200332",
      "license_date": "2022-09-30",
      "expire_date": "2027-09-30"
    },
    {
      "name": "こまつや　卸団地店",
      "name_kana": "コマツヤオロシダンチテン",
      "business_type": "⑪ 百貨店、総合スーパー",
      "address": "静岡県駿東郡清水町卸団地３７２－２１",
      "lat": 35.092461,
      "lng": 138.908997,
      "geocoding_level": null,
      "phone": "055-983-3039",
      "license_no": "",
      "license_date": null,
      "expire_date": null
    },
    {
      "name": "静岡日産清水町店",
      "name_kana": "シズオカニッサンシミズチョウテン",
      "business_type": "⑤ コップ式自動販売機（自動洗浄・屋内設置）",
      "address": "静岡県駿東郡清水町伏見２３１",
      "lat": 35.111456,
      "lng": 138.894712,
      "geocoding_level": null,
      "phone": "055-977-2003",
      "license_no": "",
      "license_date": null,
      "expire_date": null
    },
    {
      "name": "木村鋳造所（事務所）",
      "name_kana": "キムラチュウゾウジョジムショ",
      "business_type": "② 調理機能を有する自動販売機（要許可）",
      "address": "静岡県駿東郡清水町長沢１１５７",
      "lat": 35.096746,
      "lng": 138.886093,
      "geocoding_level": null,
      "phone": "055-968-3750",
      "license_no": "S00533520130",
      "license_date": "2022-09-30",
      "expire_date": "2027-09-30"
    },
    {
      "name": "臼井国際玉川工場１階",
      "name_kana": "ウスイコクサイタマガワコウジョウイチカイ",
      "business_type": "② 調理機能を有する自動販売機（要許可）",
      "address": "静岡県駿東郡清水町玉川６１－１１",
      "lat": 35.109075,
      "lng": 138.9047,
      "geocoding_level": null,
      "phone": "0559-68-3750",
      "license_no": "S56200100749",
      "license_date": "2022-09-30",
      "expire_date": "2027-09-30"
    },
    {
      "name": "東宏生コンクリート工業",
      "name_kana": "トウコウナマコンクリートコウギョウ",
      "business_type": "⑤ コップ式自動販売機（自動洗浄・屋内設置）",
      "address": "静岡県駿東郡清水町長沢１１３８",
      "lat": 35.102656,
      "lng": 138.891878,
      "geocoding_level": 3,
      "phone": "055-968-3750",
      "license_no": "",
      "license_date": null,
      "expire_date": null
    },
    {
      "name": "赤十字血液センター柿田川出張所",
      "name_kana": "セキジュウジケツエキセンターカキタガワシュッチョウジョ",
      "business_type": "⑤ コップ式自動販売機（自動洗浄・屋内設置）",
      "address": "静岡県駿東郡清水町伏見５８－２６",
      "lat": 35.111688,
      "lng": 138.896267,
      "geocoding_level": 3,
      "phone": "055-968-3750",
      "license_no": "",
      "license_date": null,
      "expire_date": null
    },
    {
      "name": "自動販売機",
      "name_kana": "ジドウハンバイキ",
      "business_type": "⑬ その他の食料・飲料販売業",
      "address": "静岡県駿東郡清水町柿田166-1",
      "lat": 35.103061,
      "lng": 138.897845,
      "geocoding_level": null,
      "phone": "",
      "license_no": "",
      "license_date": null,
      "expire_date": null
    },
    {
      "name": "自動販売機",
      "name_kana": "ジドウハンバイキ",
      "business_type": "⑬ その他の食料・飲料販売業",
      "address": "静岡県駿東郡清水町八幡71-1",
      "lat": 35.108379,
      "lng": 138.893506,
      "geocoding_level": null,
      "phone": "",
      "license_no": "",
      "license_date": null,
      "expire_date": null
    },
    {
      "name": "ごはんどき　三島駿東店",
      "name_kana": "ゴハンドキミシマスントウテン",
      "business_type": "① 飲食店営業",
      "address": "静岡県駿東郡清水町伏見364-1",
      "lat": 35.112823,
      "lng": 138.890891,
      "geocoding_level": null,
      "phone": "",
      "license_no": "S71202300040",
      "license_date": "2023-04-20",
      "expire_date": "2028-09-30"
    },
    {
      "name": "カフェ・バンカレラ三島駿東店",
      "name_kana": "カフェバンカレラミシマスントウテン",
      "business_type": "① 飲食店営業",
      "address": "静岡県駿東郡清水町伏見364-1 マルハン三島駿東店内",
      "lat": 35.112823,
      "lng": 138.890891,
      "geocoding_level": null,
      "phone": "0559836888",
      "license_no": "S71202300041",
      "license_date": "2023-04-20",
      "expire_date": "2028-09-30"
    },
    {
      "name": "ファミリーマートマルハンメガシティ三島駿東/S店",
      "name_kana": "ファミリーマートマルハンメガシティミシマスントウエステン",
      "business_type": "⑩ コンビニエンスストア",
      "address": "静岡県駿東郡清水町伏見364-1",
      "lat": 35.112823,
      "lng": 138.890891,
      "geocoding_level": null,
      "phone": "055-973-5150",
      "license_no": "",
      "license_date": null,
      "expire_date": null
    },
    {
      "name": "ファミリーマートマルハンメガシティ三島駿東/S店",
      "name_kana": "ファミリーマートマルハンメガシティミシマスントウエステン",
      "business_type": "① 飲食店営業",
      "address": "静岡県駿東郡清水町伏見364-1",
      "lat": 35.112823,
      "lng": 138.890891,
      "geocoding_level": null,
      "phone": "055-973-5150",
      "license_no": "S71202300058",
      "license_date": "2023-04-25",
      "expire_date": "2028-09-30"
    },
    {
      "name": "ごはんどき三島駿東店",
      "name_kana": "ゴハンドキミシマスントウテン",
      "business_type": "⑦ 野菜果物販売業",
      "address": "静岡県駿東郡清水町伏見364-1",
      "lat": 35.112823,
      "lng": 138.890891,
      "geocoding_level": null,
      "phone": "055-983-5077",
      "license_no": "",
      "license_date": null,
      "expire_date": null
    },
    {
      "name": "アプレシオ清水町八幡店",
      "name_kana": "アプレシオシミズチョウヤハタテン",
      "business_type": "① 飲食店営業",
      "address": "静岡県駿東郡清水町八幡６４－１",
      "lat": 35.109076,
      "lng": 138.893276,
      "geocoding_level": null,
      "phone": "055-983-0112",
      "license_no": "S56201000374",
      "license_date": "2025-09-30",
      "expire_date": "2030-09-30"
    },
    {
      "name": "清水町立南保育所",
      "name_kana": "シミズチョウリツミナミホイクショ",
      "business_type": "⑬ その他の食料・飲料販売業",
      "address": "静岡県駿東郡清水町徳倉345-1",
      "lat": 35.08004,
      "lng": 138.896169,
      "geocoding_level": null,
      "phone": "",
      "license_no": "",
      "license_date": null,
      "expire_date": null
    },
    {
      "name": "清水町立清水保育所",
      "name_kana": "シミズチョウリツシミズホイクショ",
      "business_type": "⑬ その他の食料・飲料販売業",
      "address": "静岡県駿東郡清水町伏見47-1",
      "lat": 35.109916,
      "lng": 138.899636,
      "geocoding_level": null,
      "phone": "",
      "license_no": "",
      "license_date": null,
      "expire_date": null
    },
    {
      "name": "しゃぶ葉 サントムーン柿田川",
      "name_kana": "シャブヨウサントムーンカキタガワ",
      "business_type": "⑬ その他の食料・飲料販売業",
      "address": "静岡県駿東郡清水町伏見５２－１ サントムーン柿田川オアシス館２Ｆ",
      "lat": 35.109488,
      "lng": 138.900875,
      "geocoding_level": null,
      "phone": "055-991-7855",
      "license_no": "",
      "license_date": null,
      "expire_date": null
    },
    {
      "name": "株式会社服部海苔店",
      "name_kana": "カブシキガイシャハットリノリテン",
      "business_type": "⑬ その他の食料・飲料販売業",
      "address": "静岡県駿東郡清水町卸団地食遊市場372-6",
      "lat": 35.09273,
      "lng": 138.908833,
      "geocoding_level": null,
      "phone": "0559715110",
      "license_no": "",
      "license_date": null,
      "expire_date": null
    },
    {
      "name": "ミスタードーナツ柿田川ショップ",
      "name_kana": "ミスタードーナツカキタガワショップ",
      "business_type": "⑬ その他の食料・飲料販売業",
      "address": "静岡県駿東郡清水町玉川1161-2",
      "lat": 35.110327,
      "lng": 138.903913,
      "geocoding_level": null,
      "phone": "055-981-8852",
      "license_no": "",
      "license_date": null,
      "expire_date": null
    },
    {
      "name": "ミスタードーナツ柿田川ショップ",
      "name_kana": "ミスタードーナツカキタガワショップ",
      "business_type": "① 飲食店営業",
      "address": "静岡県駿東郡清水町玉川６１－２",
      "lat": 35.108836,
      "lng": 138.90378,
      "geocoding_level": null,
      "phone": "055-981-8852",
      "license_no": "S56201200365",
      "license_date": "2022-09-30",
      "expire_date": "2027-09-30"
    },
    {
      "name": "マックスバリュエクスプレス清水町徳倉店",
      "name_kana": "マックスバリュエクスプレスシミズチョウトクラテン",
      "business_type": "① 飲食店営業",
      "address": "静岡県駿東郡清水町徳倉1585-1",
      "lat": 35.089091,
      "lng": 138.896965,
      "geocoding_level": null,
      "phone": "",
      "license_no": "S71202400457",
      "license_date": "2024-09-17",
      "expire_date": "2030-09-30"
    },
    {
      "name": "マックスバリュエクスプレス清水町徳倉店",
      "name_kana": "マックスバリュエクスプレスシミズチョウトクラテン",
      "business_type": "⑪ 菓子製造業",
      "address": "静岡県駿東郡清水町徳倉1585-1",
      "lat": 35.089091,
      "lng": 138.896965,
      "geocoding_level": null,
      "phone": "",
      "license_no": "S71202400458",
      "license_date": "2024-09-17",
      "expire_date": "2030-09-30"
    },
    {
      "name": "マックスバリュエクスプレス清水町徳倉店",
      "name_kana": "マックスバリュエクスプレスシミズチョウトクラテン",
      "business_type": "⑪ 百貨店、総合スーパー",
      "address": "静岡県駿東郡清水町徳倉1585-1",
      "lat": 35.089091,
      "lng": 138.896965,
      "geocoding_level": null,
      "phone": "",
      "license_no": "",
      "license_date": null,
      "expire_date": null
    },
    {
      "name": "ミスタードーナツ柿田川ショップ",
      "name_kana": "ミスタードーナツカキタガワショップ",
      "business_type": "⑪ 菓子製造業",
      "address": "静岡県駿東郡清水町玉川６１－２",
      "lat": 35.109290757,
      "lng": 138.903341021,
      "geocoding_level": 8,
      "phone": "055-981-8852",
      "license_no": "S56201200366",
      "license_date": "2024-09-30",
      "expire_date": "2030-09-30"
    },
    {
      "name": "株式会社栗原商店",
      "name_kana": "カブシキガイシャクリハラショウテン",
      "business_type": "㉕ そうざい製造業",
      "address": "静岡県駿東郡清水町伏見１８４－３",
      "lat": 35.111688,
      "lng": 138.896267,
      "geocoding_level": 3,
      "phone": "055-975-0098",
      "license_no": "S56201500743",
      "license_date": "2021-09-21",
      "expire_date": "2026-09-30"
    },
    {
      "name": "株式会社栗原商店",
      "name_kana": "カブシキカイシャクリハラショウテン",
      "business_type": "㉚ 密封包装食品製造業",
      "address": "静岡県駿東郡清水町伏見184-3",
      "lat": 35.110063,
      "lng": 138.892818,
      "geocoding_level": null,
      "phone": "0559750098",
      "license_no": "S71202400037",
      "license_date": "2024-04-22",
      "expire_date": "2029-09-30"
    },
    {
      "name": "株式会社栗原商店",
      "name_kana": "カブシキカイシャクリハラショウテン",
      "business_type": "㉔ その他の食料品製造・加工業",
      "address": "静岡県駿東郡清水町伏見184-3",
      "lat": 35.110063,
      "lng": 138.892818,
      "geocoding_level": null,
      "phone": "0559750098",
      "license_no": "",
      "license_date": null,
      "expire_date": null
    },
    {
      "name": "株式会社栗原商店",
      "name_kana": "カブシキガイシャクリハラショウテン",
      "business_type": "⑪ 菓子製造業",
      "address": "静岡県駿東郡清水町伏見１８４－３",
      "lat": 35.111688,
      "lng": 138.896267,
      "geocoding_level": 3,
      "phone": "055-975-0098",
      "license_no": "S56201800718",
      "license_date": "2024-09-30",
      "expire_date": "2029-09-30"
    },
    {
      "name": "株式会社栗原商店",
      "name_kana": "カブシキカイシャクリハラショウテン",
      "business_type": "① 飲食店営業",
      "address": "静岡県駿東郡清水町伏見県保健所管内一円",
      "lat": 35.114101,
      "lng": 138.896359,
      "geocoding_level": null,
      "phone": "055-975-0098",
      "license_no": "S71202500590",
      "license_date": "2026-02-13",
      "expire_date": "2031-11-30"
    },
    {
      "name": "有限会社田中屋商店",
      "name_kana": "ユウゲンガイシャタナカヤショウテン",
      "business_type": "㉛ 食品の小分け業",
      "address": "静岡県駿東郡清水町卸団地372-20",
      "lat": 35.092463,
      "lng": 138.908827,
      "geocoding_level": null,
      "phone": "0559715101",
      "license_no": "S71202400253",
      "license_date": "2024-05-28",
      "expire_date": "2029-09-30"
    },
    {
      "name": "有限会社田中屋商店",
      "name_kana": "ユウゲンガイシャタナカヤショウテン",
      "business_type": "⑬ その他の食料・飲料販売業",
      "address": "静岡県駿東郡清水町卸団地372-20",
      "lat": 35.092463,
      "lng": 138.908827,
      "geocoding_level": null,
      "phone": "0559715101",
      "license_no": "",
      "license_date": null,
      "expire_date": null
    },
    {
      "name": "有限会社田中屋商店",
      "name_kana": "ユウゲンカイシャタナカヤショウテン",
      "business_type": "④ 魚介類販売業",
      "address": "静岡県駿東郡清水町卸団地３７２－２０ 沼津卸団地　食遊市場内",
      "lat": 35.096057,
      "lng": 138.908426,
      "geocoding_level": 3,
      "phone": "055-971-5101",
      "license_no": "S00534110666",
      "license_date": "2021-08-31",
      "expire_date": "2026-09-30"
    },
    {
      "name": "（有）田中屋商店",
      "name_kana": "ユウゲンガイシャタナカヤショウテン",
      "business_type": "⑬ その他の食料・飲料販売業",
      "address": "静岡県駿東郡清水町的場６－６",
      "lat": 35.089474,
      "lng": 138.908949,
      "geocoding_level": null,
      "phone": "055-971-5101",
      "license_no": "",
      "license_date": null,
      "expire_date": null
    },
    {
      "name": "cafeRob",
      "name_kana": "カフェロブ",
      "business_type": "① 飲食店営業",
      "address": "静岡県駿東郡清水町伏見52-1 サントムーン柿田川　オアシス２Ｆ",
      "lat": 35.109478,
      "lng": 138.900883,
      "geocoding_level": null,
      "phone": "055-983-3013",
      "license_no": "S71202300015",
      "license_date": "2023-04-11",
      "expire_date": "2028-09-30"
    },
    {
      "name": "清水町立西小学校",
      "name_kana": "シミズチョウリツニシショウガッコウ",
      "business_type": "① 飲食店営業",
      "address": "静岡県駿東郡清水町長沢２２０",
      "lat": 35.102656,
      "lng": 138.891878,
      "geocoding_level": 3,
      "phone": "055-975-0966",
      "license_no": "S56201700849",
      "license_date": "2024-09-30",
      "expire_date": "2030-09-30"
    },
    {
      "name": "イワベイしゃり工房",
      "name_kana": "イワベイシャリコウボウ",
      "business_type": "㉕ そうざい製造業",
      "address": "静岡県駿東郡清水町新宿５５",
      "lat": 35.113952,
      "lng": 138.902179,
      "geocoding_level": null,
      "phone": "055-983-2800",
      "license_no": "S56200300329",
      "license_date": "2021-08-31",
      "expire_date": "2027-09-30"
    },
    {
      "name": "岩崎米穀　しゃり工房　しゃりっこ",
      "name_kana": "イワサキベイコクシャリコウボウシャリッコ",
      "business_type": "① 飲食店営業",
      "address": "静岡県駿東郡清水町玉川６１－２",
      "lat": 35.108791,
      "lng": 138.903834,
      "geocoding_level": null,
      "phone": "055-941-5518",
      "license_no": "S56201900270",
      "license_date": "2024-09-30",
      "expire_date": "2029-09-30"
    },
    {
      "name": "イワベイしゃり工房",
      "name_kana": "イワベイシャリコウボウ",
      "business_type": "⑥ 弁当販売業",
      "address": "静岡県駿東郡清水町新宿55",
      "lat": 35.113952,
      "lng": 138.902179,
      "geocoding_level": null,
      "phone": "055-983-2800",
      "license_no": "",
      "license_date": null,
      "expire_date": null
    },
    {
      "name": "岩崎米穀　しゃり工房　しゃりっこ",
      "name_kana": "イワサキベイコクシャリコウボウシャリッコ",
      "business_type": "⑥ 弁当販売業",
      "address": "静岡県駿東郡清水町玉川61-2",
      "lat": 35.108791,
      "lng": 138.903834,
      "geocoding_level": null,
      "phone": "055-983-2800",
      "license_no": "",
      "license_date": null,
      "expire_date": null
    },
    {
      "name": "沼津魚がし鮨　流れ鮨　柿田川店",
      "name_kana": "ヌマヅウオガシズシナガレズシカキタガワテン",
      "business_type": "① 飲食店営業",
      "address": "静岡県駿東郡清水町伏見58-14",
      "lat": 35.108089,
      "lng": 138.901633,
      "geocoding_level": null,
      "phone": "055-946-5515",
      "license_no": "S71202500051",
      "license_date": "2025-04-21",
      "expire_date": "2031-09-30"
    },
    {
      "name": "肉処大久保サントムーン柿田川店",
      "name_kana": "ニクドコロオオクボサントムーンカキダガワテン",
      "business_type": "③ 食肉販売業",
      "address": "静岡県駿東郡清水町玉川６１－２ サントムーン柿田川店",
      "lat": 35.108791,
      "lng": 138.903834,
      "geocoding_level": null,
      "phone": "055-981-8827",
      "license_no": "S00534090060",
      "license_date": "2024-09-30",
      "expire_date": "2029-09-30"
    },
    {
      "name": "中村屋麹店",
      "name_kana": "ナカムラヤコウジテン",
      "business_type": "① 飲食店営業",
      "address": "静岡県駿東郡清水町新宿県保健所管内一円",
      "lat": 35.116371,
      "lng": 138.903283,
      "geocoding_level": null,
      "phone": "055-975-0301",
      "license_no": "S71202400239",
      "license_date": "2024-05-23",
      "expire_date": "2029-11-30"
    },
    {
      "name": "中村屋麹店",
      "name_kana": "ナカムラヤコウジテン",
      "business_type": "⑳ みそ又はしょうゆ製造業",
      "address": "静岡県駿東郡清水町新宿25",
      "lat": 35.114693,
      "lng": 138.903587,
      "geocoding_level": null,
      "phone": "055-975-0301",
      "license_no": "S71202400240",
      "license_date": "2024-06-20",
      "expire_date": "2029-09-30"
    },
    {
      "name": "島田産婦人科医院",
      "name_kana": "シマダサンフジンカイイン",
      "business_type": "① 飲食店営業",
      "address": "静岡県駿東郡清水町伏見38-1",
      "lat": 35.11059,
      "lng": 138.900417,
      "geocoding_level": null,
      "phone": "",
      "license_no": "S71202300236",
      "license_date": "2023-07-27",
      "expire_date": "2029-09-30"
    },
    {
      "name": "静岡医療センター",
      "name_kana": "シズオカイリョウセンター",
      "business_type": "① 飲食店営業",
      "address": "静岡県駿東郡清水町長沢762-1",
      "lat": 35.099852,
      "lng": 138.889908,
      "geocoding_level": null,
      "phone": "",
      "license_no": "S71202300366",
      "license_date": "2023-09-28",
      "expire_date": "2029-09-30"
    },
    {
      "name": "介護老人保健施設　夢の樹の郷",
      "name_kana": "カイゴロウジンホケンシセツユメノキノサト",
      "business_type": "① 飲食店営業",
      "address": "静岡県駿東郡清水町玉川１８３－１",
      "lat": 35.106177,
      "lng": 138.907927,
      "geocoding_level": null,
      "phone": "055-971-1000",
      "license_no": "S56200700074",
      "license_date": "2025-09-30",
      "expire_date": "2031-09-30"
    },
    {
      "name": "ウエルシア清水町久米田店",
      "name_kana": "ウエルシアシミズチョウクマイデンテン",
      "business_type": "⑪ 百貨店、総合スーパー",
      "address": "静岡県駿東郡清水町久米田60-1",
      "lat": 35.099481,
      "lng": 138.910972,
      "geocoding_level": null,
      "phone": "055-973-6868",
      "license_no": "",
      "license_date": null,
      "expire_date": null
    },
    {
      "name": "クスリのアオキ清水町伏見店",
      "name_kana": "クスリノアオキシミズチョウフシミテン",
      "business_type": "⑪ 百貨店、総合スーパー",
      "address": "静岡県駿東郡清水町伏見638番地の1",
      "lat": 35.112335,
      "lng": 138.897441,
      "geocoding_level": null,
      "phone": "055-955-5131",
      "license_no": "",
      "license_date": null,
      "expire_date": null
    },
    {
      "name": "ウエルシア清水町新宿店",
      "name_kana": "ウエルシアシミズチョウシンシュクテン",
      "business_type": "⑪ 百貨店、総合スーパー",
      "address": "静岡県駿東郡清水町新宿221-1",
      "lat": 35.118269,
      "lng": 138.902064,
      "geocoding_level": null,
      "phone": "055-991-5140",
      "license_no": "",
      "license_date": null,
      "expire_date": null
    },
    {
      "name": "ウエルシア清水町新宿店",
      "name_kana": "ウエルシアシミズチョウシンシュクテン",
      "business_type": "⑫ 自動販売機による販売業（コップ式自動販売機（自動洗浄・屋内設置）及び営業許可の対象となる自動販売機を除く）",
      "address": "静岡県駿東郡清水町新宿221-1",
      "lat": 35.118269,
      "lng": 138.902064,
      "geocoding_level": null,
      "phone": "055-991-5140",
      "license_no": "",
      "license_date": null,
      "expire_date": null
    },
    {
      "name": "フィットネスプラザ・スプラッシュ",
      "name_kana": "フィットネスプラザ・スプラッシュ",
      "business_type": "⑫ 自動販売機による販売業（コップ式自動販売機（自動洗浄・屋内設置）及び営業許可の対象となる自動販売機を除く）",
      "address": "静岡県駿東郡清水町堂庭262番地",
      "lat": 35.097679,
      "lng": 138.90529,
      "geocoding_level": null,
      "phone": "055-976-9300",
      "license_no": "",
      "license_date": null,
      "expire_date": null
    },
    {
      "name": "ラーメン山岡家沼津柿田川店",
      "name_kana": "ラーメンヤマオカヤヌマヅカキタガワテン",
      "business_type": "⑬ その他の食料・飲料販売業",
      "address": "静岡県駿東郡清水町八幡174-2",
      "lat": 35.108827,
      "lng": 138.896812,
      "geocoding_level": null,
      "phone": "055-981-1182",
      "license_no": "",
      "license_date": null,
      "expire_date": null
    },
    {
      "name": "山岡家　沼津柿田川店",
      "name_kana": "ヤマオカヤヌマヅカキタガワテン",
      "business_type": "① 飲食店営業",
      "address": "静岡県駿東郡清水町八幡１７４",
      "lat": 35.108845,
      "lng": 138.896807,
      "geocoding_level": null,
      "phone": "055-981-1182",
      "license_no": "S56200900698",
      "license_date": "2022-09-30",
      "expire_date": "2027-09-30"
    },
    {
      "name": "有限会社松村商店",
      "name_kana": "ユウゲンカイシャマツムラショウテン",
      "business_type": "㉕ そうざい製造業",
      "address": "静岡県駿東郡清水町卸団地372-4",
      "lat": 35.09244,
      "lng": 138.908946,
      "geocoding_level": null,
      "phone": "055-971-2007",
      "license_no": "S71202100132",
      "license_date": "2021-08-31",
      "expire_date": "2026-09-30"
    },
    {
      "name": "有限会社松村商店",
      "name_kana": "ユウゲンカイシャマツムラショウテン",
      "business_type": "③ 乳類販売業",
      "address": "静岡県駿東郡清水町卸団地372-4",
      "lat": 35.09244,
      "lng": 138.908946,
      "geocoding_level": null,
      "phone": "",
      "license_no": "",
      "license_date": null,
      "expire_date": null
    },
    {
      "name": "有限会社松村商店",
      "name_kana": "ユウゲンカイシャマツムラショウテン",
      "business_type": "③ 乳類販売業",
      "address": "静岡県駿東郡清水町卸団地372-4",
      "lat": 35.09244,
      "lng": 138.908946,
      "geocoding_level": null,
      "phone": "",
      "license_no": "",
      "license_date": null,
      "expire_date": null
    },
    {
      "name": "有限会社松村商店",
      "name_kana": "ユウゲンカイシャマツムラショウテン",
      "business_type": "㉔ その他の食料品製造・加工業",
      "address": "静岡県駿東郡清水町卸団地372-4",
      "lat": 35.09244,
      "lng": 138.908946,
      "geocoding_level": null,
      "phone": "",
      "license_no": "",
      "license_date": null,
      "expire_date": null
    },
    {
      "name": "ファミリーマート清水町伏見店",
      "name_kana": "ファミリーマートシミズチョウフシミテン",
      "business_type": "⑩ コンビニエンスストア",
      "address": "静岡県駿東郡清水町伏見596-16",
      "lat": 35.11554,
      "lng": 138.897944,
      "geocoding_level": null,
      "phone": "",
      "license_no": "",
      "license_date": null,
      "expire_date": null
    },
    {
      "name": "駿東平安典礼会館",
      "name_kana": "スントウヘイアンテンレイカイカン",
      "business_type": "① 飲食店営業",
      "address": "静岡県駿東郡清水町久米田６９－８",
      "lat": 35.100447,
      "lng": 138.908359,
      "geocoding_level": null,
      "phone": "055-991-5751",
      "license_no": "S71202300469",
      "license_date": "2023-11-08",
      "expire_date": "2029-09-30"
    },
    {
      "name": "ウエルシア清水町徳倉店",
      "name_kana": "ウエルシアシミズチョウトクラテン",
      "business_type": "⑪ 百貨店、総合スーパー",
      "address": "静岡県駿東郡清水町徳倉1530番地の1",
      "lat": 35.090677,
      "lng": 138.896807,
      "geocoding_level": null,
      "phone": "055-935-6500",
      "license_no": "",
      "license_date": null,
      "expire_date": null
    },
    {
      "name": "ウエルシア清水町徳倉店",
      "name_kana": "ウエルシアシミズチョウトクラテン",
      "business_type": "⑪ 百貨店、総合スーパー",
      "address": "静岡県駿東郡清水町徳倉1530番地の1",
      "lat": 35.090677,
      "lng": 138.896807,
      "geocoding_level": null,
      "phone": "055-935-6500",
      "license_no": "",
      "license_date": null,
      "expire_date": null
    },
    {
      "name": "ウエルシア清水町徳倉店",
      "name_kana": "ウエルシアシミズチョウトクラテン",
      "business_type": "⑫ 自動販売機による販売業（コップ式自動販売機（自動洗浄・屋内設置）及び営業許可の対象となる自動販売機を除く）",
      "address": "静岡県駿東郡清水町徳倉1530番地の1",
      "lat": 35.090677,
      "lng": 138.896807,
      "geocoding_level": null,
      "phone": "055-935-6500",
      "license_no": "",
      "license_date": null,
      "expire_date": null
    },
    {
      "name": "貝出汁らぁ麺　燈や　サントムーン柿田川店/フルーツサンド　ルーチェ",
      "name_kana": "カイダシラアメントモシビヤサントムーンカキタガワテンフルーツサンドルーチェ",
      "business_type": "① 飲食店営業",
      "address": "静岡県駿東郡清水町伏見58-1 サントムーン柿田川　アネックス3F",
      "lat": 35.10867,
      "lng": 138.900923,
      "geocoding_level": null,
      "phone": "0559833008",
      "license_no": "S71202100203",
      "license_date": "2021-09-30",
      "expire_date": "2027-09-30"
    },
    {
      "name": "ミニストップ清水町柿田店",
      "name_kana": "ミニストップシミズチョウカキタテン",
      "business_type": "⑩ コンビニエンスストア",
      "address": "静岡県駿東郡清水町柿田１４７－４",
      "lat": 35.104108,
      "lng": 138.898294,
      "geocoding_level": null,
      "phone": "055-981-5141",
      "license_no": "",
      "license_date": null,
      "expire_date": null
    },
    {
      "name": "ミニストップ清水町柿田店",
      "name_kana": "ミニストップシミズチョウカキタテン",
      "business_type": "① 飲食店営業",
      "address": "静岡県駿東郡清水町柿田１４７－４",
      "lat": 35.099923,
      "lng": 138.896242,
      "geocoding_level": 3,
      "phone": "055-981-5141",
      "license_no": "S56201500793",
      "license_date": "2021-08-31",
      "expire_date": "2026-09-30"
    },
    {
      "name": "マルハン三島駿東店",
      "name_kana": "マルハンミシマスントウテン",
      "business_type": "⑬ その他の食料・飲料販売業",
      "address": "静岡県駿東郡清水町伏見364-1",
      "lat": 35.112823,
      "lng": 138.890891,
      "geocoding_level": null,
      "phone": "",
      "license_no": "",
      "license_date": null,
      "expire_date": null
    },
    {
      "name": "株式会社バイタルフーズ",
      "name_kana": "カブシキガイシャバイタルフーズ",
      "business_type": "③ 乳類販売業",
      "address": "静岡県駿東郡清水町徳倉１０９３",
      "lat": 35.086385,
      "lng": 138.896792,
      "geocoding_level": null,
      "phone": "055-931-4733",
      "license_no": "",
      "license_date": null,
      "expire_date": null
    },
    {
      "name": "ロイヤルホスト柿田川公園店",
      "name_kana": "ロイヤルホストカキタガワコウエン",
      "business_type": "⑬ その他の食料・飲料販売業",
      "address": "静岡県駿東郡清水町玉川111-3",
      "lat": 35.107754,
      "lng": 138.904199,
      "geocoding_level": null,
      "phone": "055-976-9607",
      "license_no": "",
      "license_date": null,
      "expire_date": null
    },
    {
      "name": "株式会社八百はら商店",
      "name_kana": "カブシキガイシャヤオハラショウテン",
      "business_type": "⑦ 野菜果物販売業",
      "address": "静岡県駿東郡清水町卸団地３７２番地の１４",
      "lat": 35.09244,
      "lng": 138.908946,
      "geocoding_level": null,
      "phone": "055-971-0361",
      "license_no": "",
      "license_date": null,
      "expire_date": null
    },
    {
      "name": "きんた",
      "name_kana": "キンタ",
      "business_type": "① 飲食店営業",
      "address": "静岡県駿東郡清水町長沢２０２－４",
      "lat": 35.107385,
      "lng": 138.897835,
      "geocoding_level": null,
      "phone": "055-971-5618",
      "license_no": "S71202100075",
      "license_date": "2021-08-19",
      "expire_date": "2026-09-30"
    },
    {
      "name": "エスポット駿東店",
      "name_kana": "エスポットスントウテン",
      "business_type": "⑪ 百貨店、総合スーパー",
      "address": "静岡県駿東郡清水町長沢２２８－５",
      "lat": 35.10564,
      "lng": 138.897815,
      "geocoding_level": null,
      "phone": "055-981-7300",
      "license_no": "",
      "license_date": null,
      "expire_date": null
    },
    {
      "name": "業務スーパー清水町徳倉店",
      "name_kana": "ギョウムスーパーシミズチョウトクラテン",
      "business_type": "⑪ 百貨店、総合スーパー",
      "address": "静岡県駿東郡清水町徳倉1497番地１",
      "lat": 35.093102,
      "lng": 138.894439,
      "geocoding_level": null,
      "phone": "0559287622",
      "license_no": "",
      "license_date": null,
      "expire_date": null
    },
    {
      "name": "エスポット駿東店",
      "name_kana": "エスポットスントウテン",
      "business_type": "⑪ 菓子製造業",
      "address": "静岡県駿東郡清水町長沢２２８－５",
      "lat": 35.10564,
      "lng": 138.897815,
      "geocoding_level": null,
      "phone": "055-981-5580",
      "license_no": "S56200500785",
      "license_date": "2024-09-30",
      "expire_date": "2029-09-30"
    },
    {
      "name": "マルシェフ布袋屋",
      "name_kana": "マルシェフホテイヤ",
      "business_type": "⑪ 百貨店、総合スーパー",
      "address": "静岡県駿東郡清水町卸団地１４３",
      "lat": 35.096354,
      "lng": 138.909087,
      "geocoding_level": null,
      "phone": "055-981-5707",
      "license_no": "",
      "license_date": null,
      "expire_date": null
    },
    {
      "name": "セブン－イレブン清水町黄瀬川店",
      "name_kana": "セブンーイレブンシミズチョウキセガワテン",
      "business_type": "⑩ コンビニエンスストア",
      "address": "静岡県駿東郡清水町長沢９０－２",
      "lat": 35.107714,
      "lng": 138.888433,
      "geocoding_level": null,
      "phone": "055-981-7887",
      "license_no": "",
      "license_date": null,
      "expire_date": null
    },
    {
      "name": "ユーシーシーコーヒープロフェッショナル株式会社　沼津支店",
      "name_kana": "ユーシーシーコーヒープロフェッショナルカブシキガイシャヌマヅシテン",
      "business_type": "⑬ その他の食料・飲料販売業",
      "address": "静岡県駿東郡清水町徳倉４６０－３",
      "lat": 35.082813,
      "lng": 138.898065,
      "geocoding_level": null,
      "phone": "055-934-7788",
      "license_no": "",
      "license_date": null,
      "expire_date": null
    },
    {
      "name": "Hawaiian cafe 魔法のパンケーキ伊豆Gate清水町",
      "name_kana": "ハワイアンカフェ マホウノパンケーキイズゲートシミズチョウ",
      "business_type": "① 飲食店営業",
      "address": "静岡県駿東郡清水町湯川43-1",
      "lat": 35.094688,
      "lng": 138.90411,
      "geocoding_level": null,
      "phone": "",
      "license_no": "S71202100162",
      "license_date": "2021-09-14",
      "expire_date": "2027-09-30"
    },
    {
      "name": "セブン－イレブン清水町玉川店",
      "name_kana": "セブンーイレブンシミズチョウタマガワテン",
      "business_type": "① 飲食店営業",
      "address": "静岡県駿東郡清水町玉川１６６－７",
      "lat": 35.106012,
      "lng": 138.904523,
      "geocoding_level": null,
      "phone": "055-975-5957",
      "license_no": "S56201600173",
      "license_date": "2021-08-31",
      "expire_date": "2026-09-30"
    },
    {
      "name": "セブン－イレブン清水町玉川店",
      "name_kana": "セブンーイレブンシミズチョウタマガワテン",
      "business_type": "⑩ コンビニエンスストア",
      "address": "静岡県駿東郡清水町玉川１６６－７",
      "lat": 35.106012,
      "lng": 138.904523,
      "geocoding_level": null,
      "phone": "055-975-5957",
      "license_no": "",
      "license_date": null,
      "expire_date": null
    },
    {
      "name": "ＬＡＴＴＥ　ＣＡＦＦＥ　ＡＴＥＬＩＥＲ　３４６",
      "name_kana": "ラテカフェアトリエサンヨンロク",
      "business_type": "① 飲食店営業",
      "address": "静岡県駿東郡清水町新宿８５ スプレング小林１０３",
      "lat": 35.113043,
      "lng": 138.901103,
      "geocoding_level": null,
      "phone": "080-5169-3042",
      "license_no": "S56201100100",
      "license_date": "2021-08-31",
      "expire_date": "2026-09-30"
    },
    {
      "name": "ビアードパパ　サントムーン柿田川店",
      "name_kana": "ビアードパパカキタガワテン",
      "business_type": "⑪ 菓子製造業",
      "address": "静岡県駿東郡清水町玉川６１－２ サントムーン柿田川１Ｆ",
      "lat": 35.109826,
      "lng": 138.903953,
      "geocoding_level": null,
      "phone": "055-981-8861",
      "license_no": "S56201500191",
      "license_date": "2021-08-31",
      "expire_date": "2027-09-30"
    },
    {
      "name": "モスバーガーサントムーン柿田川店",
      "name_kana": "モスバーガーサントムーンカキタガワテン",
      "business_type": "① 飲食店営業",
      "address": "静岡県駿東郡清水町玉川６１－２",
      "lat": 35.110462,
      "lng": 138.9035,
      "geocoding_level": null,
      "phone": "055-973-3473",
      "license_no": "S00534090069",
      "license_date": "2025-09-30",
      "expire_date": "2030-09-30"
    },
    {
      "name": "V-kitchen",
      "name_kana": "ブイキッチン",
      "business_type": "① 飲食店営業",
      "address": "静岡県駿東郡清水町徳倉916-16",
      "lat": 35.085971,
      "lng": 138.899299,
      "geocoding_level": null,
      "phone": "055-932-9118",
      "license_no": "S71202300253",
      "license_date": "2023-08-09",
      "expire_date": "2028-11-30"
    },
    {
      "name": "プロン株式会社沼津営業所",
      "name_kana": "プロンカブシキカイシャヌマヅエイギョウショ",
      "business_type": "③ 乳類販売業",
      "address": "静岡県駿東郡清水町卸団地３４９－１",
      "lat": 35.093231,
      "lng": 138.907401,
      "geocoding_level": null,
      "phone": "055-973-5333",
      "license_no": "",
      "license_date": null,
      "expire_date": null
    },
    {
      "name": "花小町　エスポット駿東",
      "name_kana": "ハナコマチエスポットスントウ",
      "business_type": "① 飲食店営業",
      "address": "静岡県駿東郡清水町長沢字柿崎228-5",
      "lat": 35.10516,
      "lng": 138.891324,
      "geocoding_level": null,
      "phone": "055-976-0781",
      "license_no": "S56201100792",
      "license_date": "2024-09-30",
      "expire_date": "2030-09-30"
    },
    {
      "name": "株式会社綾市商店",
      "name_kana": "カブシキガイシャアヤイチショウテン",
      "business_type": "④ 魚介類販売業",
      "address": "静岡県駿東郡清水町卸団地３７２－１８ 沼津卸団地　食遊市場内",
      "lat": 35.09244,
      "lng": 138.908946,
      "geocoding_level": null,
      "phone": "055-983-2233",
      "license_no": "S56200200438",
      "license_date": "2021-08-31",
      "expire_date": "2027-09-30"
    },
    {
      "name": "沼津港 ふくだい 寿司",
      "name_kana": "ヌマヅコウフクダイスシ",
      "business_type": "⑯ 水産製品製造業",
      "address": "静岡県駿東郡清水町長沢字柿崎２２８－５ エスポット駿東内",
      "lat": 35.102656,
      "lng": 138.891878,
      "geocoding_level": 3,
      "phone": "055-991-0517",
      "license_no": "S56201000267",
      "license_date": "2022-09-30",
      "expire_date": "2028-09-30"
    },
    {
      "name": "茶房　柿田川",
      "name_kana": "サボウカキダガワ",
      "business_type": "① 飲食店営業",
      "address": "静岡県駿東郡清水町八幡２５１",
      "lat": 35.106965,
      "lng": 138.899708,
      "geocoding_level": 3,
      "phone": "055-973-3271",
      "license_no": "S00533630422",
      "license_date": "2021-08-31",
      "expire_date": "2026-09-30"
    },
    {
      "name": "平盛苑",
      "name_kana": "ヘイセイエン",
      "business_type": "① 飲食店営業",
      "address": "静岡県駿東郡清水町柿田１３６－１",
      "lat": 35.099923,
      "lng": 138.896242,
      "geocoding_level": 3,
      "phone": "055-976-3439",
      "license_no": "S56200300084",
      "license_date": "2021-08-31",
      "expire_date": "2027-09-30"
    },
    {
      "name": "株式会社天神屋三島店",
      "name_kana": "カブシキガイシャテンジンヤミシマテン",
      "business_type": "㉕ そうざい製造業",
      "address": "静岡県駿東郡清水町八幡１７９－１",
      "lat": 35.108475,
      "lng": 138.897874,
      "geocoding_level": null,
      "phone": "055-991-1733",
      "license_no": "S56201500343",
      "license_date": "2021-08-31",
      "expire_date": "2027-09-30"
    },
    {
      "name": "長沢旅館",
      "name_kana": "ナガサワリョカン",
      "business_type": "① 飲食店営業",
      "address": "静岡県駿東郡清水町長沢７１８－１",
      "lat": 35.102656,
      "lng": 138.891878,
      "geocoding_level": 3,
      "phone": "055-972-1087",
      "license_no": "S56200600060",
      "license_date": "2021-08-31",
      "expire_date": "2026-09-30"
    },
    {
      "name": "二代目 ほっかい",
      "name_kana": "ニダイメホッカイ",
      "business_type": "① 飲食店営業",
      "address": "静岡県駿東郡清水町堂庭２６２ ホテルエルムリージェンシー１Ｆ",
      "lat": 35.10088,
      "lng": 138.905293,
      "geocoding_level": 3,
      "phone": "055-981-7771",
      "license_no": "S56201000425",
      "license_date": "2021-08-31",
      "expire_date": "2026-09-30"
    },
    {
      "name": "串特急清水町徳倉店",
      "name_kana": "クシトッキュウシミズチョウトクラテン",
      "business_type": "① 飲食店営業",
      "address": "静岡県駿東郡清水町徳倉４６０－８５",
      "lat": 35.087579,
      "lng": 138.90081600000002,
      "geocoding_level": 3,
      "phone": "055-932-7331",
      "license_no": "S00534040410",
      "license_date": "2021-08-31",
      "expire_date": "2026-09-30"
    },
    {
      "name": "弁当屋さん太",
      "name_kana": "ベントウヤサンタ",
      "business_type": "㉕ そうざい製造業",
      "address": "静岡県駿東郡清水町八幡１２２",
      "lat": 35.108917,
      "lng": 138.895986,
      "geocoding_level": null,
      "phone": "",
      "license_no": "S56201500204",
      "license_date": "2021-08-31",
      "expire_date": "2026-09-30"
    },
    {
      "name": "Ｄｉｎｇｈｙ",
      "name_kana": "ディンギー",
      "business_type": "① 飲食店営業",
      "address": "静岡県駿東郡清水町伏見３６２－１",
      "lat": 35.113593,
      "lng": 138.890699,
      "geocoding_level": null,
      "phone": "055-975-8182",
      "license_no": "S56201500629",
      "license_date": "2021-08-31",
      "expire_date": "2026-09-30"
    },
    {
      "name": "Ｄｉｎｇｈｙ",
      "name_kana": "ディンギー",
      "business_type": "⑪ 菓子製造業",
      "address": "静岡県駿東郡清水町伏見３６２－１",
      "lat": 35.111688,
      "lng": 138.896267,
      "geocoding_level": 3,
      "phone": "055-975-8182",
      "license_no": "S56201700067",
      "license_date": "2022-09-30",
      "expire_date": "2027-09-30"
    },
    {
      "name": "カメヤ食品柿田川店",
      "name_kana": "カメヤショクヒンカキタガワテン",
      "business_type": "⑫ アイスクリーム類製造業",
      "address": "静岡県駿東郡清水町伏見86",
      "lat": 35.106764,
      "lng": 138.902516,
      "geocoding_level": null,
      "phone": "055-971-1102",
      "license_no": "S71202100165",
      "license_date": "2021-09-15",
      "expire_date": "2026-09-30"
    },
    {
      "name": "カメヤ柿田川店",
      "name_kana": "カメヤカキタガワテン",
      "business_type": "① 飲食店営業",
      "address": "静岡県駿東郡清水町伏見８６",
      "lat": 35.106742,
      "lng": 138.902537,
      "geocoding_level": null,
      "phone": "055-973-9511",
      "license_no": "S56200900800",
      "license_date": "2025-09-30",
      "expire_date": "2030-09-30"
    },
    {
      "name": "Una casita farm サントムーン柿田川店",
      "name_kana": "オナカスイタファームサントムーンカキタガワテン",
      "business_type": "⑦ 野菜果物販売業",
      "address": "静岡県駿東郡清水町伏見52-1",
      "lat": 35.109478,
      "lng": 138.900883,
      "geocoding_level": null,
      "phone": "055-928-5517",
      "license_no": "",
      "license_date": null,
      "expire_date": null
    },
    {
      "name": "柿田川みやげ館",
      "name_kana": "カキタガワミヤゲカン",
      "business_type": "⑦ 野菜果物販売業",
      "address": "静岡県駿東郡清水町伏見86",
      "lat": 35.106764,
      "lng": 138.902516,
      "geocoding_level": null,
      "phone": "055-973-9511",
      "license_no": "",
      "license_date": null,
      "expire_date": null
    },
    {
      "name": "亀屋　本店",
      "name_kana": "カメヤ　ホンテン",
      "business_type": "⑦ 野菜果物販売業",
      "address": "静岡県駿東郡清水町新宿815-2",
      "lat": 35.118794,
      "lng": 138.904739,
      "geocoding_level": null,
      "phone": "055-971-7110",
      "license_no": "",
      "license_date": null,
      "expire_date": null
    },
    {
      "name": "亀屋　本店",
      "name_kana": "カメヤ　ホンテン",
      "business_type": "⑬ その他の食料・飲料販売業",
      "address": "静岡県駿東郡清水町新宿815-2",
      "lat": 35.118794,
      "lng": 138.904739,
      "geocoding_level": null,
      "phone": "055-971-7110",
      "license_no": "",
      "license_date": null,
      "expire_date": null
    },
    {
      "name": "柿田川　豆腐館",
      "name_kana": "カキタガワ　トウフカン",
      "business_type": "⑬ その他の食料・飲料販売業",
      "address": "静岡県駿東郡清水町伏見86",
      "lat": 35.106764,
      "lng": 138.902516,
      "geocoding_level": null,
      "phone": "055-973-9511",
      "license_no": "",
      "license_date": null,
      "expire_date": null
    },
    {
      "name": "柿田川とうふ館",
      "name_kana": "カキタガワトウフカン",
      "business_type": "㉒ 豆腐製造業",
      "address": "静岡県駿東郡清水町伏見８５－１",
      "lat": 35.114101,
      "lng": 138.896359,
      "geocoding_level": null,
      "phone": "055-971-1102",
      "license_no": "S71202200235",
      "license_date": "2022-09-30",
      "expire_date": "2028-09-30"
    },
    {
      "name": "豆腐館",
      "name_kana": "トウフカン",
      "business_type": "① 飲食店営業",
      "address": "静岡県駿東郡清水町伏見８６",
      "lat": 35.111688,
      "lng": 138.896267,
      "geocoding_level": 3,
      "phone": "055-971-1102",
      "license_no": "S56201600051",
      "license_date": "2023-02-28",
      "expire_date": "2028-09-30"
    },
    {
      "name": "御菓子庵田子の月　田子の月伏見店",
      "name_kana": "オカシアンタゴノツキ　タゴノツキフシミテン",
      "business_type": "⑬ その他の食料・飲料販売業",
      "address": "静岡県駿東郡清水町伏見８０１",
      "lat": 35.115383,
      "lng": 138.901533,
      "geocoding_level": null,
      "phone": "0559910500",
      "license_no": "",
      "license_date": null,
      "expire_date": null
    },
    {
      "name": "フードマーケット マム 柿田川店",
      "name_kana": "フードマーケットマムカキタガワテン",
      "business_type": "① 飲食店営業",
      "address": "静岡県駿東郡清水町柿田１７２－１",
      "lat": 35.099923,
      "lng": 138.896242,
      "geocoding_level": 3,
      "phone": "055-983-1039",
      "license_no": "S56201000728",
      "license_date": "2023-09-25",
      "expire_date": "2029-09-30"
    },
    {
      "name": "フードマーケットマム柿田川店",
      "name_kana": "フードマーケットマムカキタガワテン",
      "business_type": "③ 食肉販売業",
      "address": "静岡県駿東郡清水町柿田１７２－１",
      "lat": 35.10204,
      "lng": 138.897854,
      "geocoding_level": null,
      "phone": "055-983-1039",
      "license_no": "S56200600274",
      "license_date": "2024-09-30",
      "expire_date": "2029-09-30"
    },
    {
      "name": "フードマーケットマム柿田川店",
      "name_kana": "フードマーケットマムカキタガワテン",
      "business_type": "④ 魚介類販売業",
      "address": "静岡県駿東郡清水町柿田１７２－１",
      "lat": 35.10204,
      "lng": 138.897854,
      "geocoding_level": null,
      "phone": "055-983-1039",
      "license_no": "S56200600276",
      "license_date": "2024-09-30",
      "expire_date": "2029-09-30"
    },
    {
      "name": "フードマーケットマム柿田川店",
      "name_kana": "フードマーケットマムカキタガワテン",
      "business_type": "① 飲食店営業",
      "address": "静岡県駿東郡清水町柿田１７２－１",
      "lat": 35.10204,
      "lng": 138.897854,
      "geocoding_level": null,
      "phone": "055-983-1039",
      "license_no": "S56200600277",
      "license_date": "2024-09-30",
      "expire_date": "2029-09-30"
    },
    {
      "name": "スーパーカドイケ徳倉店",
      "name_kana": "スーパーカドイケトクラテン",
      "business_type": "④ 魚介類販売業",
      "address": "静岡県駿東郡清水町徳倉１０３３－１",
      "lat": 35.083484,
      "lng": 138.896978,
      "geocoding_level": null,
      "phone": "055-935-5575",
      "license_no": "S56200200683",
      "license_date": "2021-09-21",
      "expire_date": "2027-09-30"
    },
    {
      "name": "スーパーカドイケ徳倉店",
      "name_kana": "スーパーカドイケトクラテン",
      "business_type": "㉕ そうざい製造業",
      "address": "静岡県駿東郡清水町徳倉１０３３－１",
      "lat": 35.083484,
      "lng": 138.896978,
      "geocoding_level": null,
      "phone": "055-935-5575",
      "license_no": "S56200200862",
      "license_date": "2021-09-21",
      "expire_date": "2027-09-30"
    },
    {
      "name": "スーパーカドイケ徳倉店",
      "name_kana": "スーパーカドイケトクラテン",
      "business_type": "③ 食肉販売業",
      "address": "静岡県駿東郡清水町徳倉１０３３－１",
      "lat": 35.083458393,
      "lng": 138.896922314,
      "geocoding_level": 8,
      "phone": "055-935-5575",
      "license_no": "S56200200684",
      "license_date": "2025-09-30",
      "expire_date": "2030-09-30"
    },
    {
      "name": "株式会社カドイケ徳倉店",
      "name_kana": "カブシキガイシャカドイケトクラテン",
      "business_type": "① 飲食店営業",
      "address": "静岡県駿東郡清水町徳倉１０３３－１",
      "lat": 35.083458393,
      "lng": 138.896922314,
      "geocoding_level": 8,
      "phone": "055-935-5575",
      "license_no": "S56200700328",
      "license_date": "2025-09-30",
      "expire_date": "2030-09-30"
    },
    {
      "name": "パン工房　エリオット",
      "name_kana": "パンコウボウエリオット",
      "business_type": "③ 乳類販売業",
      "address": "静岡県駿東郡清水町長沢２６４－４",
      "lat": 35.104021,
      "lng": 138.895396,
      "geocoding_level": null,
      "phone": "055-973-7771",
      "license_no": "",
      "license_date": null,
      "expire_date": null
    },
    {
      "name": "パン工房　エリオット",
      "name_kana": "パンコウボウエリオット",
      "business_type": "⑪ 菓子製造業",
      "address": "静岡県駿東郡清水町長沢２６４－４",
      "lat": 35.102656,
      "lng": 138.891878,
      "geocoding_level": 3,
      "phone": "055-973-7771",
      "license_no": "S00534110950",
      "license_date": "2021-09-21",
      "expire_date": "2027-09-30"
    },
    {
      "name": "株式会社クリエイティブ　ル・グランガーデン清水",
      "name_kana": "カブシキガイシャクリエイティブルグランガーデンシミズ",
      "business_type": "① 飲食店営業",
      "address": "静岡県駿東郡清水町徳倉１０４２－３",
      "lat": 35.083832,
      "lng": 138.895624,
      "geocoding_level": null,
      "phone": "055-932-9570",
      "license_no": "S56201400689",
      "license_date": "2021-09-21",
      "expire_date": "2027-09-30"
    },
    {
      "name": "ｃｏｎａｙａ．",
      "name_kana": "コナヤ",
      "business_type": "⑪ 菓子製造業",
      "address": "静岡県駿東郡清水町徳倉１０４７－５",
      "lat": 35.083828896,
      "lng": 138.896647661,
      "geocoding_level": 8,
      "phone": "",
      "license_no": "S56201500004",
      "license_date": "2021-09-21",
      "expire_date": "2026-09-30"
    },
    {
      "name": "北泉堂菓子舗",
      "name_kana": "ホクセンドウカシホ",
      "business_type": "⑪ 菓子製造業",
      "address": "静岡県駿東郡清水町堂庭１９９－１８",
      "lat": 35.099639,
      "lng": 138.906043,
      "geocoding_level": null,
      "phone": "055-971-3110",
      "license_no": "S56200500011",
      "license_date": "2021-09-21",
      "expire_date": "2027-09-30"
    },
    {
      "name": "有限会社海野商店",
      "name_kana": "ユウゲンガイシャ　ウンノショウテン",
      "business_type": "⑦ 野菜果物販売業",
      "address": "静岡県駿東郡清水町卸団地79",
      "lat": 35.097139,
      "lng": 138.907798,
      "geocoding_level": null,
      "phone": "055-972-5363",
      "license_no": "",
      "license_date": null,
      "expire_date": null
    },
    {
      "name": "タリーズコーヒー　サントムーン柿田川店",
      "name_kana": "タリーズコーヒーサントムーンカキタガワテン",
      "business_type": "① 飲食店営業",
      "address": "静岡県駿東郡清水町玉川６１－２ サントムーン柿田川１階",
      "lat": 35.109365,
      "lng": 138.902398,
      "geocoding_level": null,
      "phone": "055-991-1577",
      "license_no": "S56200800780",
      "license_date": "2021-09-21",
      "expire_date": "2027-09-30"
    },
    {
      "name": "喫茶　ロリアン",
      "name_kana": "キッサロリアン",
      "business_type": "① 飲食店営業",
      "address": "静岡県駿東郡清水町玉川６１－２ サントムーン柿田川",
      "lat": 35.109290757,
      "lng": 138.903341021,
      "geocoding_level": 8,
      "phone": "055-981-8858",
      "license_no": "S00534090055",
      "license_date": "2021-09-21",
      "expire_date": "2026-09-30"
    },
    {
      "name": "医療法人社団宏和会　岡村記念病院",
      "name_kana": "イリョウホウジンシャダンコウワカイオカムラキネンビョウイン",
      "business_type": "① 飲食店営業",
      "address": "静岡県駿東郡清水町柿田２９３－１",
      "lat": 35.102638,
      "lng": 138.895844,
      "geocoding_level": null,
      "phone": "055-973-3221",
      "license_no": "S56201800168",
      "license_date": "2024-09-30",
      "expire_date": "2030-09-30"
    },
    {
      "name": "麺屋　明星",
      "name_kana": "メンヤミョウジョウ",
      "business_type": "① 飲食店営業",
      "address": "静岡県駿東郡清水町久米田７７ アメニティハイツＹＡＭＡＭＯＴＯ１０１",
      "lat": 35.100231,
      "lng": 138.911071,
      "geocoding_level": null,
      "phone": "055-981-1750",
      "license_no": "S56201500427",
      "license_date": "2021-09-21",
      "expire_date": "2026-09-30"
    },
    {
      "name": "どんどん　三島店",
      "name_kana": "ドンドンミシマテン",
      "business_type": "① 飲食店営業",
      "address": "静岡県駿東郡清水町八幡１７９－１",
      "lat": 35.108475,
      "lng": 138.897874,
      "geocoding_level": null,
      "phone": "",
      "license_no": "S56201500342",
      "license_date": "2021-09-21",
      "expire_date": "2026-09-30"
    },
    {
      "name": "ｃｈａｒｃｏａｌ",
      "name_kana": "チャコール",
      "business_type": "① 飲食店営業",
      "address": "静岡県駿東郡清水町伏見５９７－８",
      "lat": 35.115343,
      "lng": 138.898946,
      "geocoding_level": null,
      "phone": "055-976-2989",
      "license_no": "S56201600359",
      "license_date": "2021-09-21",
      "expire_date": "2026-09-30"
    },
    {
      "name": "CHaRcOaL",
      "name_kana": "チャコール",
      "business_type": "① 飲食店営業",
      "address": "静岡県駿東郡清水町伏見県保健所管内一円",
      "lat": 35.114101,
      "lng": 138.896359,
      "geocoding_level": null,
      "phone": "055-913-5643",
      "license_no": "S71202400131",
      "license_date": "2024-04-25",
      "expire_date": "2029-11-30"
    },
    {
      "name": "炭の家",
      "name_kana": "スミノヤ",
      "business_type": "① 飲食店営業",
      "address": "静岡県駿東郡清水町伏見５９７－８",
      "lat": 35.115242762,
      "lng": 138.89889764,
      "geocoding_level": 8,
      "phone": "055-976-2989",
      "license_no": "S56201400329",
      "license_date": "2024-09-30",
      "expire_date": "2029-09-30"
    },
    {
      "name": "ドンキー＆バニー",
      "name_kana": "ドンキーアンドバニー",
      "business_type": "⑪ 菓子製造業",
      "address": "静岡県駿東郡清水町柿田７２１－９",
      "lat": 35.096959,
      "lng": 138.894583,
      "geocoding_level": null,
      "phone": "",
      "license_no": "S56201600919",
      "license_date": "2023-09-29",
      "expire_date": "2028-09-30"
    },
    {
      "name": "山本寝具製麹店",
      "name_kana": "ヤマモトシングセイキクテン",
      "business_type": "⑳ みそ又はしょうゆ製造業",
      "address": "静岡県駿東郡清水町新宿２３１－３",
      "lat": 35.116371,
      "lng": 138.903461,
      "geocoding_level": 3,
      "phone": "055-975-2222",
      "license_no": "S00053520051",
      "license_date": "2021-09-21",
      "expire_date": "2026-09-30"
    },
    {
      "name": "フードマーケットマム柿田川店",
      "name_kana": "フードマーケットマムカキタガワテン",
      "business_type": "⑪ 百貨店、総合スーパー",
      "address": "静岡県駿東郡清水町柿田１７２－１",
      "lat": 35.101955,
      "lng": 138.897693,
      "geocoding_level": null,
      "phone": "055-983-1039",
      "license_no": "",
      "license_date": null,
      "expire_date": null
    },
    {
      "name": "静岡医療センター",
      "name_kana": "シズオカイリョウセンター",
      "business_type": "① 飲食店営業",
      "address": "静岡県駿東郡清水町長沢762-1",
      "lat": 35.099899,
      "lng": 138.889891,
      "geocoding_level": null,
      "phone": "",
      "license_no": "S71202100219",
      "license_date": "2021-10-12",
      "expire_date": "2028-09-30"
    },
    {
      "name": "東屋商店",
      "name_kana": "アズマヤショウテン",
      "business_type": "⑦ 野菜果物販売業",
      "address": "静岡県駿東郡清水町長沢725-2",
      "lat": 35.100798,
      "lng": 138.890488,
      "geocoding_level": null,
      "phone": "055-975-6773",
      "license_no": "",
      "license_date": null,
      "expire_date": null
    },
    {
      "name": "ガウダムブッダ",
      "name_kana": "ガウダムブッダ",
      "business_type": "① 飲食店営業",
      "address": "静岡県駿東郡清水町卸団地203",
      "lat": 35.09611,
      "lng": 138.907139,
      "geocoding_level": null,
      "phone": "090-9688-2772",
      "license_no": "S71202100218",
      "license_date": "2021-10-07",
      "expire_date": "2027-09-30"
    },
    {
      "name": "サントムーン　１Ｆフロアー",
      "name_kana": "サントムーンイチカイフロアー",
      "business_type": "⑤ コップ式自動販売機（自動洗浄・屋内設置）",
      "address": "静岡県駿東郡清水町玉川６１－２",
      "lat": 35.109826,
      "lng": 138.903953,
      "geocoding_level": null,
      "phone": "055-973-5181",
      "license_no": "",
      "license_date": null,
      "expire_date": null
    },
    {
      "name": "サントムーン　休憩室",
      "name_kana": "サントムーンキュウケイシツ",
      "business_type": "⑤ コップ式自動販売機（自動洗浄・屋内設置）",
      "address": "静岡県駿東郡清水町玉川６１－２",
      "lat": 35.109826,
      "lng": 138.903953,
      "geocoding_level": null,
      "phone": "055-973-5181",
      "license_no": "",
      "license_date": null,
      "expire_date": null
    },
    {
      "name": "サントムーン　休憩室",
      "name_kana": "サントムーンキュウケイシツ",
      "business_type": "③ 乳類販売業",
      "address": "静岡県駿東郡清水町玉川６１－２",
      "lat": 35.109826,
      "lng": 138.903953,
      "geocoding_level": null,
      "phone": "055-973-5181",
      "license_no": "",
      "license_date": null,
      "expire_date": null
    },
    {
      "name": "株式会社　富士テクニカ",
      "name_kana": "カブシキカイシャフジテクニカ",
      "business_type": "⑤ コップ式自動販売機（自動洗浄・屋内設置）",
      "address": "静岡県駿東郡清水町的場２０",
      "lat": 35.09166,
      "lng": 138.909736,
      "geocoding_level": null,
      "phone": "055-973-5181",
      "license_no": "",
      "license_date": null,
      "expire_date": null
    },
    {
      "name": "㈱富士テクニカ宮津　三島工場３Ｆ　４Ｊ２８８５",
      "name_kana": "カブフジテクニカミヤヅミシマコウジョウサンカイ",
      "business_type": "⑤ コップ式自動販売機（自動洗浄・屋内設置）",
      "address": "静岡県駿東郡清水町的場２０",
      "lat": 35.09166,
      "lng": 138.909736,
      "geocoding_level": null,
      "phone": "055-973-5181",
      "license_no": "",
      "license_date": null,
      "expire_date": null
    },
    {
      "name": "清泉クリニック整形外科　４Ｊ２８８７",
      "name_kana": "セイセンクリニックセイケイゲカ",
      "business_type": "⑤ コップ式自動販売機（自動洗浄・屋内設置）",
      "address": "静岡県駿東郡清水町柿田１９１－１",
      "lat": 35.100606,
      "lng": 138.898287,
      "geocoding_level": null,
      "phone": "055-973-5181",
      "license_no": "",
      "license_date": null,
      "expire_date": null
    },
    {
      "name": "田村商店（株）清水町店",
      "name_kana": "タムラショウテンカブシキガイシャシミズチョウテン",
      "business_type": "③ 乳類販売業",
      "address": "静岡県駿東郡清水町畑中9-3",
      "lat": 35.094936,
      "lng": 138.911349,
      "geocoding_level": null,
      "phone": "",
      "license_no": "",
      "license_date": null,
      "expire_date": null
    },
    {
      "name": "サントムーン柿田川大東紡エステート㈱セントラルコート",
      "name_kana": "サントムーンカキタガワダイトウボウエステートカブセントラルコート",
      "business_type": "⑤ コップ式自動販売機（自動洗浄・屋内設置）",
      "address": "静岡県駿東郡清水町玉川６１－２",
      "lat": 35.108836,
      "lng": 138.90378,
      "geocoding_level": null,
      "phone": "055-973-5181",
      "license_no": "",
      "license_date": null,
      "expire_date": null
    },
    {
      "name": "東レプラスチック精工ＢＲＫ従業員食堂1Ｆ",
      "name_kana": "トウレプラスチックセイコウブリックジュウギョウインショクドウイッカイ",
      "business_type": "③ 乳類販売業",
      "address": "静岡県駿東郡清水町柿田757",
      "lat": 35.097353,
      "lng": 138.893763,
      "geocoding_level": null,
      "phone": "055-957-7175",
      "license_no": "",
      "license_date": null,
      "expire_date": null
    },
    {
      "name": "ドットカム",
      "name_kana": "ドットカム",
      "business_type": "⑬ その他の食料・飲料販売業",
      "address": "静岡県駿東郡清水町柿田293-1 岡村記念病院内",
      "lat": 35.102633,
      "lng": 138.895809,
      "geocoding_level": null,
      "phone": "",
      "license_no": "",
      "license_date": null,
      "expire_date": null
    },
    {
      "name": "株式会社トミヤコーヒー沼津支店",
      "name_kana": "カブシキガイシャトミヤコーヒーヌマヅシテン",
      "business_type": "① 魚介類販売業（包装済みの魚介類のみの販売）",
      "address": "静岡県駿東郡清水町卸団地171",
      "lat": 35.095889,
      "lng": 138.908626,
      "geocoding_level": null,
      "phone": "",
      "license_no": "",
      "license_date": null,
      "expire_date": null
    },
    {
      "name": "株式会社トミヤコーヒー沼津支店",
      "name_kana": "カブシキガイシャトミヤコーヒーヌマヅシテン",
      "business_type": "② 食肉販売業（包装済みの食肉のみの販売）",
      "address": "静岡県駿東郡清水町卸団地171",
      "lat": 35.095889,
      "lng": 138.908626,
      "geocoding_level": null,
      "phone": "",
      "license_no": "",
      "license_date": null,
      "expire_date": null
    },
    {
      "name": "株式会社トミヤコーヒー沼津支店",
      "name_kana": "カブシキガイシャトミヤコーヒーヌマヅシテン",
      "business_type": "③ 乳類販売業",
      "address": "静岡県駿東郡清水町卸団地171",
      "lat": 35.095889,
      "lng": 138.908626,
      "geocoding_level": null,
      "phone": "",
      "license_no": "",
      "license_date": null,
      "expire_date": null
    },
    {
      "name": "株式会社トミヤコーヒーミートセンター",
      "name_kana": "カブシキガイシャトミヤコーヒーミートセンター",
      "business_type": "⑨ 食肉処理業",
      "address": "静岡県駿東郡清水町卸団地１７１",
      "lat": 35.095889,
      "lng": 138.908626,
      "geocoding_level": null,
      "phone": "055-976-3547",
      "license_no": "S56200500320",
      "license_date": "2024-09-30",
      "expire_date": "2029-09-30"
    },
    {
      "name": "無印良品　サントムーン柿田川店",
      "name_kana": "ムジルシリョウヒン　サントムーンカキタガワテン",
      "business_type": "⑬ その他の食料・飲料販売業",
      "address": "静岡県駿東郡清水町玉川６１－２　サントムーン柿田川1F",
      "lat": 35.109931,
      "lng": 138.902853,
      "geocoding_level": null,
      "phone": "",
      "license_no": "",
      "license_date": null,
      "expire_date": null
    },
    {
      "name": "生鮮館サントムーン柿田川店",
      "name_kana": "サントムーンカキタガワ",
      "business_type": "⑫ 自動販売機による販売業（コップ式自動販売機（自動洗浄・屋内設置）及び営業許可の対象となる自動販売機を除く）",
      "address": "静岡県駿東郡清水町玉川６１−２",
      "lat": 35.108836,
      "lng": 138.90378,
      "geocoding_level": null,
      "phone": "055-991-2805",
      "license_no": "",
      "license_date": null,
      "expire_date": null
    },
    {
      "name": "スポウエル健身塾サントムーン柿田川",
      "name_kana": "スポウェルケンシンジュクサントムーンカキタガワ",
      "business_type": "⑫ 自動販売機による販売業（コップ式自動販売機（自動洗浄・屋内設置）及び営業許可の対象となる自動販売機を除く）",
      "address": "静岡県駿東郡清水町伏見５８−１４",
      "lat": 35.108092,
      "lng": 138.901635,
      "geocoding_level": null,
      "phone": "055-976-3033",
      "license_no": "",
      "license_date": null,
      "expire_date": null
    },
    {
      "name": "キッチンかわせみ",
      "name_kana": "キッチンカワセミ",
      "business_type": "① 飲食店営業",
      "address": "静岡県駿東郡清水町伏見８６",
      "lat": 35.111688,
      "lng": 138.896267,
      "geocoding_level": 3,
      "phone": "055-973-9511",
      "license_no": "S56201600055",
      "license_date": "2022-02-25",
      "expire_date": "2028-09-30"
    },
    {
      "name": "かわせみ本館",
      "name_kana": "カワセミホンカン",
      "business_type": "① 飲食店営業",
      "address": "静岡県駿東郡清水町伏見８６",
      "lat": 35.111688,
      "lng": 138.896267,
      "geocoding_level": 3,
      "phone": "055-973-7700",
      "license_no": "S56201600053",
      "license_date": "2022-02-25",
      "expire_date": "2028-09-30"
    },
    {
      "name": "カメヤ食品株式会社本社工場",
      "name_kana": "カメヤショクヒンカブシキガイシャホンシャコウジョウ",
      "business_type": "⑯ 水産製品製造業",
      "address": "静岡県駿東郡清水町新宿815－2",
      "lat": 35.118822,
      "lng": 138.904726,
      "geocoding_level": null,
      "phone": "0559725555",
      "license_no": "S71202400097",
      "license_date": "2024-05-16",
      "expire_date": "2029-09-30"
    },
    {
      "name": "カメヤ食品株式会社本社工場",
      "name_kana": "カメヤショクヒンカブシキガイシャホンシャコウジョウ",
      "business_type": "㉙ 漬物製造業",
      "address": "静岡県駿東郡清水町新宿815－2",
      "lat": 35.118822,
      "lng": 138.904726,
      "geocoding_level": null,
      "phone": "0559725555",
      "license_no": "S71202400098",
      "license_date": "2024-05-16",
      "expire_date": "2029-09-30"
    },
    {
      "name": "カメヤ食品株式会社第２工場",
      "name_kana": "カメヤショクヒンカブシキガイシャダイニコウジョウ",
      "business_type": "㉙ 漬物製造業",
      "address": "静岡県駿東郡清水町新宿225",
      "lat": 35.119774,
      "lng": 138.902774,
      "geocoding_level": null,
      "phone": "0559762120",
      "license_no": "S71202400099",
      "license_date": "2024-05-16",
      "expire_date": "2029-09-30"
    },
    {
      "name": "カメヤ食品株式会社本社工場",
      "name_kana": "カメヤショクヒンカブシキガイシャホンシャコウジョウ",
      "business_type": "㉚ 密封包装食品製造業",
      "address": "静岡県駿東郡清水町新宿815－2",
      "lat": 35.118822,
      "lng": 138.904726,
      "geocoding_level": null,
      "phone": "0559725555",
      "license_no": "S71202400189",
      "license_date": "2024-05-16",
      "expire_date": "2029-09-30"
    },
    {
      "name": "Kurum Gurum",
      "name_kana": "クルムグルム",
      "business_type": "① 飲食店営業",
      "address": "静岡県駿東郡清水町玉川60番地4 TSUBODECKS1",
      "lat": 35.109955,
      "lng": 138.905539,
      "geocoding_level": null,
      "phone": "",
      "license_no": "S71202100305",
      "license_date": "2021-11-22",
      "expire_date": "2027-09-30"
    },
    {
      "name": "有限会社木澤工業",
      "name_kana": "ユウゲンガイシャキザワコウギョウ",
      "business_type": "㉗ 器具、容器包装の製造・加工業（合成樹脂が使用された器具又は容器包装の製造、加工に限る。）",
      "address": "静岡県駿東郡清水町的場191-3",
      "lat": 35.087055,
      "lng": 138.908202,
      "geocoding_level": null,
      "phone": "055-977-7358",
      "license_no": "",
      "license_date": null,
      "expire_date": null
    },
    {
      "name": "TSUTAYA三島店",
      "name_kana": "ツタヤミシマテン",
      "business_type": "⑬ その他の食料・飲料販売業",
      "address": "静岡県駿東郡清水町玉川157-1 施設名　TSUTAYA三島店",
      "lat": 35.106814,
      "lng": 138.90571,
      "geocoding_level": null,
      "phone": "055-981-8151",
      "license_no": "",
      "license_date": null,
      "expire_date": null
    },
    {
      "name": "株式会社大野商店",
      "name_kana": "カブシキガイシャオオノショウテン",
      "business_type": "⑧ 米穀類販売業",
      "address": "静岡県駿東郡清水町伏見769-2",
      "lat": 35.113007,
      "lng": 138.900628,
      "geocoding_level": null,
      "phone": "0559755390",
      "license_no": "",
      "license_date": null,
      "expire_date": null
    },
    {
      "name": "株式会社大野商店　食遊市場　卸団地店",
      "name_kana": "カブシキガイシャオオノショウテンショクユウイチバオロシダンチテン",
      "business_type": "⑧ 米穀類販売業",
      "address": "静岡県駿東郡清水町卸団地372-7",
      "lat": 35.09244,
      "lng": 138.908946,
      "geocoding_level": null,
      "phone": "0559814153",
      "license_no": "",
      "license_date": null,
      "expire_date": null
    },
    {
      "name": "銀米堂　サントムーン柿田川店",
      "name_kana": "ギンマイドウ　サントムーンカキタガワテン",
      "business_type": "⑧ 米穀類販売業",
      "address": "静岡県駿東郡清水町玉川61-2",
      "lat": 35.109826,
      "lng": 138.903953,
      "geocoding_level": null,
      "phone": "0559818835",
      "license_no": "",
      "license_date": null,
      "expire_date": null
    },
    {
      "name": "（有）清水製菓",
      "name_kana": "ユウシミズセイカ",
      "business_type": "⑪ 菓子製造業",
      "address": "静岡県駿東郡清水町久米田７０－１",
      "lat": 35.101418,
      "lng": 138.911256,
      "geocoding_level": 3,
      "phone": "055-991-0141",
      "license_no": "S56200700217",
      "license_date": "2023-09-29",
      "expire_date": "2028-09-30"
    },
    {
      "name": "㈲清水製菓",
      "name_kana": "シミズセイカ",
      "business_type": "㉔ その他の食料品製造・加工業",
      "address": "静岡県駿東郡清水町久米田70-1",
      "lat": 35.100707,
      "lng": 138.908265,
      "geocoding_level": null,
      "phone": "055-991-0141",
      "license_no": "",
      "license_date": null,
      "expire_date": null
    },
    {
      "name": "Home Assist",
      "name_kana": "ホームアシスト",
      "business_type": "⑧ 米穀類販売業",
      "address": "静岡県駿東郡清水町玉川61-2",
      "lat": 35.109372,
      "lng": 138.902399,
      "geocoding_level": null,
      "phone": "",
      "license_no": "",
      "license_date": null,
      "expire_date": null
    },
    {
      "name": "どんどん　三島店",
      "name_kana": "ドンドン　ミシマテン",
      "business_type": "② 食肉販売業（包装済みの食肉のみの販売）",
      "address": "静岡県駿東郡清水町八幡179-1",
      "lat": 35.108475,
      "lng": 138.897874,
      "geocoding_level": null,
      "phone": "0559831529",
      "license_no": "",
      "license_date": null,
      "expire_date": null
    },
    {
      "name": "駿東ドリームビレッジ",
      "name_kana": "スントウドリームビレッジ",
      "business_type": "㉕ そうざい製造業",
      "address": "静岡県駿東郡清水町堂庭89-5",
      "lat": 35.102253,
      "lng": 138.905026,
      "geocoding_level": null,
      "phone": "055-939-8888",
      "license_no": "S71202200355",
      "license_date": "2022-10-24",
      "expire_date": "2028-09-30"
    },
    {
      "name": "朝霧乳業株式会社　沼津営業所",
      "name_kana": "アサギリニュウギョウカブシキガイシャ　ヌマヅエイギョウショ",
      "business_type": "③ 乳類販売業",
      "address": "静岡県駿東郡清水町徳倉1192-1",
      "lat": 35.083289,
      "lng": 138.892957,
      "geocoding_level": null,
      "phone": "0559334620",
      "license_no": "",
      "license_date": null,
      "expire_date": null
    },
    {
      "name": "（株）木村鋳造所内食堂",
      "name_kana": "カブシキガイシャキムラチュウゾウショナイショクドウ",
      "business_type": "① 飲食店営業",
      "address": "静岡県駿東郡清水町長沢１１５７",
      "lat": 35.096921,
      "lng": 138.886131,
      "geocoding_level": null,
      "phone": "055-975-7050",
      "license_no": "S56201000451",
      "license_date": "2022-09-30",
      "expire_date": "2028-09-30"
    },
    {
      "name": "こむぎ工房　柿田川店",
      "name_kana": "コムギコウボウ　カキタガワテン",
      "business_type": "③ 乳類販売業",
      "address": "静岡県駿東郡清水町玉川61-2 サントムーン柿田川",
      "lat": 35.108836,
      "lng": 138.90378,
      "geocoding_level": null,
      "phone": "055-981-8847",
      "license_no": "",
      "license_date": null,
      "expire_date": null
    },
    {
      "name": "ブーランジュール",
      "name_kana": "ブーランジュール",
      "business_type": "③ 乳類販売業",
      "address": "静岡県駿東郡清水町的場6-3",
      "lat": 35.089474,
      "lng": 138.908949,
      "geocoding_level": null,
      "phone": "055-983-3007",
      "license_no": "",
      "license_date": null,
      "expire_date": null
    },
    {
      "name": "こむぎ工房　柿田川店",
      "name_kana": "コムギコウボウカキタガワ",
      "business_type": "⑪ 菓子製造業",
      "address": "静岡県駿東郡清水町玉川６１－２ サントムーン柿田川",
      "lat": 35.109290757,
      "lng": 138.903341021,
      "geocoding_level": 8,
      "phone": "055-981-8847",
      "license_no": "S00534090057",
      "license_date": "2024-09-30",
      "expire_date": "2029-09-30"
    },
    {
      "name": "夢咲き保育園",
      "name_kana": "ユメサキホイクエン",
      "business_type": "㉙ その他",
      "address": "静岡県駿東郡清水町卸団地126",
      "lat": 35.096608,
      "lng": 138.908357,
      "geocoding_level": null,
      "phone": "",
      "license_no": "",
      "license_date": null,
      "expire_date": null
    },
    {
      "name": "夢咲き保育園",
      "name_kana": "ユメサキホイクエン",
      "business_type": "㉖ 集団給食施設",
      "address": "静岡県駿東郡清水町卸団地126",
      "lat": 35.096608,
      "lng": 138.908357,
      "geocoding_level": null,
      "phone": "",
      "license_no": "",
      "license_date": null,
      "expire_date": null
    },
    {
      "name": "恵明キッズローズビレッジ",
      "name_kana": "ケイメイキッズローズビレッジ",
      "business_type": "㉖ 集団給食施設",
      "address": "静岡県駿東郡清水町堂庭89-16",
      "lat": 35.101988,
      "lng": 138.905241,
      "geocoding_level": null,
      "phone": "0559435519",
      "license_no": "",
      "license_date": null,
      "expire_date": null
    },
    {
      "name": "",
      "name_kana": "",
      "business_type": "⑬ その他の食料・飲料販売業",
      "address": "静岡県駿東郡清水町徳倉2167-5",
      "lat": 35.092423,
      "lng": 138.889298,
      "geocoding_level": null,
      "phone": "0559313600",
      "license_no": "",
      "license_date": null,
      "expire_date": null
    },
    {
      "name": "庭家niwaya",
      "name_kana": "ニワヤ",
      "business_type": "① 飲食店営業",
      "address": "静岡県駿東郡清水町徳倉1181-1",
      "lat": 35.082129,
      "lng": 138.892052,
      "geocoding_level": null,
      "phone": "055-955-7517",
      "license_no": "S71202100368",
      "license_date": "2021-12-27",
      "expire_date": "2027-09-30"
    },
    {
      "name": "ペトロユーロアジア株式会社",
      "name_kana": "ペトロユーロアジアカブシキガイシャ",
      "business_type": "㉔ その他の食料品製造・加工業",
      "address": "静岡県駿東郡清水町伏見507-7 ペトロユーロアジア伏見工場",
      "lat": 35.117045,
      "lng": 138.89276,
      "geocoding_level": null,
      "phone": "055-943-5583",
      "license_no": "",
      "license_date": null,
      "expire_date": null
    },
    {
      "name": "おかわり",
      "name_kana": "オカワリ",
      "business_type": "① 飲食店営業",
      "address": "静岡県駿東郡清水町八幡221-1 フォンテーヌミヤビ１０２",
      "lat": 35.106035,
      "lng": 138.898602,
      "geocoding_level": null,
      "phone": "0559555849",
      "license_no": "S71202100350",
      "license_date": "2021-12-13",
      "expire_date": "2027-09-30"
    },
    {
      "name": "ラーメンろたす",
      "name_kana": "ラーメンロタス",
      "business_type": "㉕ そうざい製造業",
      "address": "静岡県駿東郡清水町堂庭8-7",
      "lat": 35.105167,
      "lng": 138.904208,
      "geocoding_level": null,
      "phone": "0559001883",
      "license_no": "S71202100381",
      "license_date": "2022-01-17",
      "expire_date": "2027-09-30"
    },
    {
      "name": "ラーメンろたす",
      "name_kana": "ラーメンロタス",
      "business_type": "① 飲食店営業",
      "address": "静岡県駿東郡清水町堂庭8-7",
      "lat": 35.105167,
      "lng": 138.904208,
      "geocoding_level": null,
      "phone": "0559001883",
      "license_no": "S71202100382",
      "license_date": "2022-01-17",
      "expire_date": "2027-09-30"
    },
    {
      "name": "ラーメンろたす",
      "name_kana": "ラーメンロタス",
      "business_type": "① 飲食店営業",
      "address": "静岡県駿東郡清水町柿田県保健所管内一円",
      "lat": 35.100352,
      "lng": 138.896359,
      "geocoding_level": null,
      "phone": "",
      "license_no": "S71202400588",
      "license_date": "2024-11-11",
      "expire_date": "2029-11-30"
    },
    {
      "name": "株式会社ヤマコー",
      "name_kana": "カブシキガイシャヤマコー",
      "business_type": "⑬ その他の食料・飲料販売業",
      "address": "静岡県駿東郡清水町新宿２１５－６",
      "lat": 35.117897,
      "lng": 138.902378,
      "geocoding_level": null,
      "phone": "0559756621",
      "license_no": "",
      "license_date": null,
      "expire_date": null
    },
    {
      "name": "NANA-Canele'",
      "name_kana": "ナナカヌレ",
      "business_type": "① 飲食店営業",
      "address": "静岡県駿東郡清水町柿田136-47",
      "lat": 35.103418,
      "lng": 138.898764,
      "geocoding_level": null,
      "phone": "",
      "license_no": "S71202100423",
      "license_date": "2022-02-16",
      "expire_date": "2027-09-30"
    },
    {
      "name": "NANA-Canele'",
      "name_kana": "ナナカヌレ",
      "business_type": "⑪ 菓子製造業",
      "address": "静岡県駿東郡清水町柿田136-47",
      "lat": 35.103418,
      "lng": 138.898764,
      "geocoding_level": null,
      "phone": "",
      "license_no": "S71202100424",
      "license_date": "2022-02-16",
      "expire_date": "2027-09-30"
    },
    {
      "name": "あづまや酒店",
      "name_kana": "アヅマヤサケテン",
      "business_type": "① 飲食店営業",
      "address": "静岡県駿東郡清水町中徳倉県保健所管内一円",
      "lat": 35.089208,
      "lng": 138.89573,
      "geocoding_level": null,
      "phone": "",
      "license_no": "S71202200110",
      "license_date": "2022-06-02",
      "expire_date": "2027-11-30"
    },
    {
      "name": "酵素温浴すみかすみれ",
      "name_kana": "コウソオンヨクスミカスミレ",
      "business_type": "⑬ その他の食料・飲料販売業",
      "address": "静岡県駿東郡清水町徳倉1768-2 徳倉岩崎テナント5号",
      "lat": 35.090592,
      "lng": 138.900411,
      "geocoding_level": null,
      "phone": "",
      "license_no": "",
      "license_date": null,
      "expire_date": null
    },
    {
      "name": "カフェエアーシップ 清水店",
      "name_kana": "カフェエアーシップ シミズテン",
      "business_type": "① 飲食店営業",
      "address": "静岡県駿東郡清水町伏見364-1",
      "lat": 35.112823,
      "lng": 138.890891,
      "geocoding_level": null,
      "phone": "",
      "license_no": "S71202100442",
      "license_date": "2022-02-28",
      "expire_date": "2027-09-30"
    },
    {
      "name": "オレンジポット柿田川店",
      "name_kana": "オレンジポットカキタガワテン",
      "business_type": "① 飲食店営業",
      "address": "静岡県駿東郡清水町伏見５８－１ サントムーン柿田川アネックス内",
      "lat": 35.108893,
      "lng": 138.901051,
      "geocoding_level": null,
      "phone": "055-976-8280",
      "license_no": "S56200800100",
      "license_date": "2025-09-30",
      "expire_date": "2030-09-30"
    },
    {
      "name": "鳥野商店",
      "name_kana": "トリノショウテン",
      "business_type": "㉕ そうざい製造業",
      "address": "静岡県駿東郡清水町八幡200-1 太田店舗",
      "lat": 35.106445,
      "lng": 138.898586,
      "geocoding_level": null,
      "phone": "0559009378",
      "license_no": "S71202100456",
      "license_date": "2022-02-25",
      "expire_date": "2027-09-30"
    },
    {
      "name": "ミニストップ清水町柿田店",
      "name_kana": "ミニストップシミズチョウカキタテン",
      "business_type": "① 飲食店営業",
      "address": "静岡県駿東郡清水町柿田１４６－５",
      "lat": 35.103943,
      "lng": 138.898241,
      "geocoding_level": null,
      "phone": "055-981-5154",
      "license_no": "S71202200525",
      "license_date": "2023-02-16",
      "expire_date": "2028-09-30"
    },
    {
      "name": "ミニストップ清水町柿田店",
      "name_kana": "ミニストップシミズチョウカキタテン",
      "business_type": "⑩ コンビニエンスストア",
      "address": "静岡県駿東郡清水町柿田146-5",
      "lat": 35.103956,
      "lng": 138.898252,
      "geocoding_level": null,
      "phone": "055-981-5154",
      "license_no": "",
      "license_date": null,
      "expire_date": null
    },
    {
      "name": "ミニストップ清水町柿田店",
      "name_kana": "ミニストップシミズチョウカキタテン",
      "business_type": "⑩ コンビニエンスストア",
      "address": "静岡県駿東郡清水町柿田146-5",
      "lat": 35.103943,
      "lng": 138.898241,
      "geocoding_level": null,
      "phone": "055-981-5154",
      "license_no": "",
      "license_date": null,
      "expire_date": null
    },
    {
      "name": "わたなべ農園",
      "name_kana": "ワタナベノウエン",
      "business_type": "⑦ 野菜果物販売業",
      "address": "静岡県駿東郡清水町徳倉1559",
      "lat": 35.089989,
      "lng": 138.898464,
      "geocoding_level": null,
      "phone": "",
      "license_no": "",
      "license_date": null,
      "expire_date": null
    },
    {
      "name": "わたなべ農園",
      "name_kana": "ワタナベノウエン",
      "business_type": "⑧ 米穀類販売業",
      "address": "静岡県駿東郡清水町徳倉1559",
      "lat": 35.089989,
      "lng": 138.898464,
      "geocoding_level": null,
      "phone": "",
      "license_no": "",
      "license_date": null,
      "expire_date": null
    },
    {
      "name": "わたなべ農園",
      "name_kana": "ワタナベノウエン",
      "business_type": "⑰ 農産保存食料品製造・加工業",
      "address": "静岡県駿東郡清水町徳倉1559",
      "lat": 35.089989,
      "lng": 138.898464,
      "geocoding_level": null,
      "phone": "",
      "license_no": "",
      "license_date": null,
      "expire_date": null
    },
    {
      "name": "静岡医療センター売店内　パン工房",
      "name_kana": "シズオカイリョウセンターバイテンナイパンコウボウ",
      "business_type": "⑪ 菓子製造業",
      "address": "静岡県駿東郡清水町長沢762-1",
      "lat": 35.100217,
      "lng": 138.889751,
      "geocoding_level": null,
      "phone": "",
      "license_no": "S71202200617",
      "license_date": "2023-03-29",
      "expire_date": "2028-09-30"
    },
    {
      "name": "静岡医療センター売店",
      "name_kana": "シズオカイリョウセンターバイテン",
      "business_type": "① 飲食店営業",
      "address": "静岡県駿東郡清水町長沢762-1 （静岡医療センター内２階）",
      "lat": 35.100217,
      "lng": 138.889751,
      "geocoding_level": null,
      "phone": "",
      "license_no": "S71202300003",
      "license_date": "2023-04-26",
      "expire_date": "2028-09-30"
    },
    {
      "name": "静岡医療センター売店",
      "name_kana": "シズオカイリョウセンターバイテン",
      "business_type": "⑬ その他の食料・飲料販売業",
      "address": "静岡県駿東郡清水町長沢762-1",
      "lat": 35.100217,
      "lng": 138.889751,
      "geocoding_level": null,
      "phone": "",
      "license_no": "",
      "license_date": null,
      "expire_date": null
    },
    {
      "name": "ほっともっと清水町店",
      "name_kana": "ホットモットシミズチョウテン",
      "business_type": "① 飲食店営業",
      "address": "静岡県駿東郡清水町久米田59-13",
      "lat": 35.099779,
      "lng": 138.911261,
      "geocoding_level": null,
      "phone": "0559917366",
      "license_no": "S71202100505",
      "license_date": "2022-03-22",
      "expire_date": "2028-09-30"
    },
    {
      "name": "駿か－０１２食堂",
      "name_kana": "スンカゼロイチニショクドウ",
      "business_type": "① 飲食店営業",
      "address": "静岡県駿東郡清水町的場１８８－６ ケアハウスかわせみ内",
      "lat": 35.089418,
      "lng": 138.907278,
      "geocoding_level": 3,
      "phone": "055-984-3377",
      "license_no": "S56200300811",
      "license_date": "2025-09-30",
      "expire_date": "2032-09-30"
    },
    {
      "name": "おんどり亭サントムーン柿田川店",
      "name_kana": "オンドリテイサントムーンカキタガワテン",
      "business_type": "① 飲食店営業",
      "address": "静岡県駿東郡清水町伏見52-1 サントムーン柿田川オアシス２F",
      "lat": 35.109818,
      "lng": 138.901026,
      "geocoding_level": null,
      "phone": "0559578456",
      "license_no": "S71202200034",
      "license_date": "2022-04-20",
      "expire_date": "2027-09-30"
    },
    {
      "name": "エベレストキッチン",
      "name_kana": "エベレストキッチン",
      "business_type": "① 飲食店営業",
      "address": "静岡県駿東郡清水町玉川６１－２ サントムーン　本館フードコート（３９－８）",
      "lat": 35.108836,
      "lng": 138.90378,
      "geocoding_level": null,
      "phone": "055-954-2555",
      "license_no": "S71202200032",
      "license_date": "2022-04-20",
      "expire_date": "2027-09-30"
    },
    {
      "name": "池めん　清水町店",
      "name_kana": "イケメンシミズチョウテン",
      "business_type": "① 飲食店営業",
      "address": "静岡県駿東郡清水町徳倉１０５１－３",
      "lat": 35.084387,
      "lng": 138.897205,
      "geocoding_level": null,
      "phone": "09063668231",
      "license_no": "S71202200228",
      "license_date": "2022-07-25",
      "expire_date": "2027-11-30"
    },
    {
      "name": "ＡＫＢ５号館ゆうすい",
      "name_kana": "エーケービーゴゴウカンユウスイ",
      "business_type": "① 飲食店営業",
      "address": "静岡県駿東郡清水町徳倉６１６－１",
      "lat": 35.083336,
      "lng": 138.902397,
      "geocoding_level": null,
      "phone": "",
      "license_no": "S56201800004",
      "license_date": "2024-09-30",
      "expire_date": "2030-09-30"
    },
    {
      "name": "Tippaya",
      "name_kana": "ティパヤ",
      "business_type": "① 飲食店営業",
      "address": "静岡県駿東郡清水町堂庭246-6",
      "lat": 35.09801,
      "lng": 138.906736,
      "geocoding_level": null,
      "phone": "08016006432",
      "license_no": "S71202200161",
      "license_date": "2022-07-07",
      "expire_date": "2027-09-30"
    },
    {
      "name": "Tippaya",
      "name_kana": "ティパヤ",
      "business_type": "⑱ 調味料製造・加工業",
      "address": "静岡県駿東郡清水町堂庭246-6",
      "lat": 35.09802,
      "lng": 138.906718,
      "geocoding_level": null,
      "phone": "",
      "license_no": "",
      "license_date": null,
      "expire_date": null
    },
    {
      "name": "板倉こうじ製造所",
      "name_kana": "イタクラコウジセイゾウジョ",
      "business_type": "⑳ みそ又はしょうゆ製造業",
      "address": "静岡県駿東郡清水町伏見４",
      "lat": 35.111688,
      "lng": 138.896267,
      "geocoding_level": 3,
      "phone": "055-975-8436",
      "license_no": "S00053600075",
      "license_date": "2022-09-30",
      "expire_date": "2027-09-30"
    },
    {
      "name": "らりるレトロん",
      "name_kana": "ラリルレトロン",
      "business_type": "① 飲食店営業",
      "address": "静岡県駿東郡清水町中徳倉１６－１",
      "lat": 35.09074,
      "lng": 138.894782,
      "geocoding_level": null,
      "phone": "055-939-9709",
      "license_no": "S71202200236",
      "license_date": "2022-09-30",
      "expire_date": "2027-09-30"
    },
    {
      "name": "大津製菓",
      "name_kana": "オオツセイカ",
      "business_type": "⑪ 菓子製造業",
      "address": "静岡県駿東郡清水町徳倉１１００－３２",
      "lat": 35.086479,
      "lng": 138.894884,
      "geocoding_level": null,
      "phone": "055-932-2260",
      "license_no": "S71202200283",
      "license_date": "2022-09-30",
      "expire_date": "2027-09-30"
    },
    {
      "name": "大津製菓",
      "name_kana": "オオツセイカ",
      "business_type": "③ 乳類販売業",
      "address": "静岡県駿東郡清水町徳倉１１００－３２",
      "lat": 35.086479,
      "lng": 138.894884,
      "geocoding_level": null,
      "phone": "055-932-2260",
      "license_no": "",
      "license_date": null,
      "expire_date": null
    },
    {
      "name": "富士伊豆農業協同組合清水支店",
      "name_kana": "フジイズノウギョウキョウドウクミアイシミズシテン",
      "business_type": "㉕ そうざい製造業",
      "address": "静岡県駿東郡清水町堂庭２０２",
      "lat": 35.099491,
      "lng": 138.904847,
      "geocoding_level": null,
      "phone": "055-975-4723",
      "license_no": "S56201000346",
      "license_date": "2022-09-30",
      "expire_date": "2028-09-30"
    },
    {
      "name": "沼津丼丸　柿田川店",
      "name_kana": "ヌマヅドンマルカキタガワテン",
      "business_type": "① 飲食店営業",
      "address": "静岡県駿東郡清水町柿田１８９－１１",
      "lat": 35.099923,
      "lng": 138.896242,
      "geocoding_level": 3,
      "phone": "055-941-7734",
      "license_no": "S56201800023",
      "license_date": "2023-09-25",
      "expire_date": "2028-09-30"
    },
    {
      "name": "清水町立南中学校",
      "name_kana": "シミズチョウリツミナミチュウガッコウ",
      "business_type": "① 飲食店営業",
      "address": "静岡県駿東郡清水町徳倉２２２２－４",
      "lat": 35.093313,
      "lng": 138.885547,
      "geocoding_level": null,
      "phone": "055-929-7979",
      "license_no": "S56201000014",
      "license_date": "2022-09-30",
      "expire_date": "2028-09-30"
    },
    {
      "name": "コノイト",
      "name_kana": "コノイト",
      "business_type": "① 飲食店営業",
      "address": "静岡県駿東郡清水町伏見３９４",
      "lat": 35.111688,
      "lng": 138.896267,
      "geocoding_level": 3,
      "phone": "055-983-5700",
      "license_no": "S56201600681",
      "license_date": "2022-09-30",
      "expire_date": "2027-09-30"
    },
    {
      "name": "セブン－イレブン清水町上徳倉店",
      "name_kana": "セブンイレブンシミズチョウカミトクラテン",
      "business_type": "① 飲食店営業",
      "address": "静岡県駿東郡清水町徳倉１１３７－１",
      "lat": 35.082639672,
      "lng": 138.89408763,
      "geocoding_level": 8,
      "phone": "055-933-1781",
      "license_no": "S56201600809",
      "license_date": "2022-09-30",
      "expire_date": "2027-09-30"
    },
    {
      "name": "セブン－イレブン清水町湯川店",
      "name_kana": "セブンイレブンシミズチョウユカワテン",
      "business_type": "① 飲食店営業",
      "address": "静岡県駿東郡清水町湯川１２３",
      "lat": 35.092747,
      "lng": 138.903811,
      "geocoding_level": 3,
      "phone": "055-973-0337",
      "license_no": "S56201700225",
      "license_date": "2022-09-30",
      "expire_date": "2027-09-30"
    },
    {
      "name": "セブン－イレブン清水町上徳倉店",
      "name_kana": "セブンイレブンシミズチョウカミトクラテン",
      "business_type": "⑩ コンビニエンスストア",
      "address": "静岡県駿東郡清水町徳倉１１３７－１",
      "lat": 35.082639672,
      "lng": 138.89408763,
      "geocoding_level": 8,
      "phone": "055-933-1781",
      "license_no": "",
      "license_date": null,
      "expire_date": null
    },
    {
      "name": "セブン－イレブン清水町湯川店",
      "name_kana": "セブンイレブンシミズチョウユカワテン",
      "business_type": "⑩ コンビニエンスストア",
      "address": "静岡県駿東郡清水町湯川１２３",
      "lat": 35.092747,
      "lng": 138.903811,
      "geocoding_level": 3,
      "phone": "055-973-0337",
      "license_no": "",
      "license_date": null,
      "expire_date": null
    },
    {
      "name": "北海道料理　中むら",
      "name_kana": "ホッカイドウリョウリナカムラ",
      "business_type": "① 飲食店営業",
      "address": "静岡県駿東郡清水町伏見６１３－１１",
      "lat": 35.114642541,
      "lng": 138.900048464,
      "geocoding_level": 8,
      "phone": "055-972-7571",
      "license_no": "S00534080658",
      "license_date": "2022-09-30",
      "expire_date": "2027-09-30"
    },
    {
      "name": "赤とんぼ",
      "name_kana": "アカトンボ",
      "business_type": "① 飲食店営業",
      "address": "静岡県駿東郡清水町徳倉１５９９－７",
      "lat": 35.087579,
      "lng": 138.90081600000002,
      "geocoding_level": 3,
      "phone": "055-934-0979",
      "license_no": "S00533600303",
      "license_date": "2022-09-30",
      "expire_date": "2027-09-30"
    },
    {
      "name": "つばさ寿し",
      "name_kana": "ツバサズシ",
      "business_type": "① 飲食店営業",
      "address": "静岡県駿東郡清水町伏見８１０－１０",
      "lat": 35.11637182,
      "lng": 138.901941421,
      "geocoding_level": 8,
      "phone": "055-975-8386",
      "license_no": "S00533550260",
      "license_date": "2022-09-30",
      "expire_date": "2027-09-30"
    },
    {
      "name": "ちぇりー ろこ",
      "name_kana": "チェリーロコ",
      "business_type": "① 飲食店営業",
      "address": "静岡県駿東郡清水町新宿２７０－３",
      "lat": 35.11684,
      "lng": 138.904213,
      "geocoding_level": null,
      "phone": "090-4192-9106",
      "license_no": "S56201600486",
      "license_date": "2022-09-26",
      "expire_date": "2027-09-30"
    },
    {
      "name": "ちぇりーろこ",
      "name_kana": "チェリーロコ",
      "business_type": "⑦ 野菜果物販売業",
      "address": "静岡県駿東郡清水町新宿270-3",
      "lat": 35.116839,
      "lng": 138.904217,
      "geocoding_level": null,
      "phone": "",
      "license_no": "",
      "license_date": null,
      "expire_date": null
    },
    {
      "name": "ローソン清水町堂庭店",
      "name_kana": "ローソンシミズチョウドウニワテン",
      "business_type": "① 飲食店営業",
      "address": "静岡県駿東郡清水町堂庭１４９－３",
      "lat": 35.10088,
      "lng": 138.905293,
      "geocoding_level": 3,
      "phone": "055-972-1920",
      "license_no": "S56201700010",
      "license_date": "2022-09-30",
      "expire_date": "2027-09-30"
    },
    {
      "name": "ローソン清水町堂庭店",
      "name_kana": "ローソンシミズチョウドウニワテン",
      "business_type": "⑩ コンビニエンスストア",
      "address": "静岡県駿東郡清水町堂庭１４９－３",
      "lat": 35.10088,
      "lng": 138.905293,
      "geocoding_level": 3,
      "phone": "055-972-1920",
      "license_no": "",
      "license_date": null,
      "expire_date": null
    },
    {
      "name": "ｏｓｔｅｒｉａ　Ｃａｓａ　ｄｉ　Ｒａｎａ",
      "name_kana": "オステリアカーサディラナ",
      "business_type": "① 飲食店営業",
      "address": "静岡県駿東郡清水町徳倉１５９３－１",
      "lat": 35.088556009,
      "lng": 138.89774824,
      "geocoding_level": 8,
      "phone": "055-941-8851",
      "license_no": "S56201700062",
      "license_date": "2022-09-30",
      "expire_date": "2027-09-30"
    },
    {
      "name": "OSTERIA Casa di Rana",
      "name_kana": "オステリアカーサディラナ",
      "business_type": "① 飲食店営業",
      "address": "静岡県駿東郡清水町徳倉県保健所管内一円",
      "lat": 35.083679,
      "lng": 138.897618,
      "geocoding_level": null,
      "phone": "",
      "license_no": "S71202500650",
      "license_date": "2026-03-10",
      "expire_date": "2031-11-30"
    },
    {
      "name": "デイリーヤマザキ　清水町",
      "name_kana": "デイリーヤマザキシミズチョウ",
      "business_type": "① 飲食店営業",
      "address": "静岡県駿東郡清水町長沢１３７－１",
      "lat": 35.106145085,
      "lng": 138.891432564,
      "geocoding_level": 8,
      "phone": "055-976-9391",
      "license_no": "S56201700131",
      "license_date": "2022-09-30",
      "expire_date": "2027-09-30"
    },
    {
      "name": "デイリーヤマザキ　清水町",
      "name_kana": "デイリーヤマザキシミズチョウ",
      "business_type": "⑪ 菓子製造業",
      "address": "静岡県駿東郡清水町長沢１３７－１",
      "lat": 35.106145085,
      "lng": 138.891432564,
      "geocoding_level": 8,
      "phone": "055-976-9391",
      "license_no": "S56201700132",
      "license_date": "2022-09-30",
      "expire_date": "2027-09-30"
    },
    {
      "name": "デイリーヤマザキ　清水町",
      "name_kana": "デイリーヤマザキシミズチョウ",
      "business_type": "⑩ コンビニエンスストア",
      "address": "静岡県駿東郡清水町長沢１３７－１",
      "lat": 35.106145085,
      "lng": 138.891432564,
      "geocoding_level": 8,
      "phone": "055-976-9391",
      "license_no": "",
      "license_date": null,
      "expire_date": null
    },
    {
      "name": "銀サロン",
      "name_kana": "ギンサロン",
      "business_type": "① 飲食店営業",
      "address": "静岡県駿東郡清水町卸団地２０３",
      "lat": 35.096057,
      "lng": 138.908426,
      "geocoding_level": 3,
      "phone": "055-973-1903",
      "license_no": "S56200100360",
      "license_date": "2022-09-30",
      "expire_date": "2027-09-30"
    },
    {
      "name": "ひだまりの家",
      "name_kana": "ヒダマリノイエ",
      "business_type": "① 飲食店営業",
      "address": "静岡県駿東郡清水町柿田１７８－３",
      "lat": 35.101465,
      "lng": 138.896879,
      "geocoding_level": null,
      "phone": "055-983-3630",
      "license_no": "S56201100921",
      "license_date": "2022-09-30",
      "expire_date": "2027-09-30"
    },
    {
      "name": "喫茶せせらぎ",
      "name_kana": "キッサセセラギ",
      "business_type": "① 飲食店営業",
      "address": "静岡県駿東郡清水町堂庭２２１－１",
      "lat": 35.10088,
      "lng": 138.905293,
      "geocoding_level": 3,
      "phone": "055-981-1632",
      "license_no": "S56201700064",
      "license_date": "2022-09-30",
      "expire_date": "2027-09-30"
    },
    {
      "name": "紅龍",
      "name_kana": "コウリュウ",
      "business_type": "① 飲食店営業",
      "address": "静岡県駿東郡清水町新宿３３－３",
      "lat": 35.114296103,
      "lng": 138.903088849,
      "geocoding_level": 8,
      "phone": "055-975-7725",
      "license_no": "S00533480037",
      "license_date": "2022-09-30",
      "expire_date": "2027-09-30"
    },
    {
      "name": "はら田",
      "name_kana": "ハラダ",
      "business_type": "① 飲食店営業",
      "address": "静岡県駿東郡清水町柿田１９－１",
      "lat": 35.099923,
      "lng": 138.896242,
      "geocoding_level": 3,
      "phone": "055-973-1271",
      "license_no": "S56200600572",
      "license_date": "2022-09-30",
      "expire_date": "2027-09-30"
    },
    {
      "name": "ＩＺＡＫＡＹＡ　ＣＡＦＥ　ＹＯＲＩＭＩＣＨＩ",
      "name_kana": "イザカヤカフェヨリミチ",
      "business_type": "① 飲食店営業",
      "address": "静岡県駿東郡清水町長沢１２６－６",
      "lat": 35.104620561,
      "lng": 138.889695309,
      "geocoding_level": 8,
      "phone": "055-941-7373",
      "license_no": "S56201600678",
      "license_date": "2022-09-30",
      "expire_date": "2027-09-30"
    },
    {
      "name": "一品料理　木々",
      "name_kana": "イッピンリョウリキギ",
      "business_type": "① 飲食店営業",
      "address": "静岡県駿東郡清水町長沢６６６－２",
      "lat": 35.102656,
      "lng": 138.891878,
      "geocoding_level": 3,
      "phone": "055-975-3246",
      "license_no": "S00534090529",
      "license_date": "2022-09-30",
      "expire_date": "2027-09-30"
    },
    {
      "name": "和華",
      "name_kana": "ワカ",
      "business_type": "① 飲食店営業",
      "address": "静岡県駿東郡清水町柿田６８１－１",
      "lat": 35.100153417,
      "lng": 138.892498775,
      "geocoding_level": 8,
      "phone": "055-972-7011",
      "license_no": "S56201100820",
      "license_date": "2022-09-30",
      "expire_date": "2027-09-30"
    },
    {
      "name": "創作ｄｉｎｉｎｇ自由人",
      "name_kana": "ソウサクダイニングジユウジン",
      "business_type": "① 飲食店営業",
      "address": "静岡県駿東郡清水町長沢６２０",
      "lat": 35.1025,
      "lng": 138.891505,
      "geocoding_level": null,
      "phone": "055-973-0099",
      "license_no": "S56201600588",
      "license_date": "2022-09-30",
      "expire_date": "2027-09-30"
    },
    {
      "name": "創作ダイニング自由人",
      "name_kana": "ソウサクダイニングジユウジン",
      "business_type": "① 飲食店営業",
      "address": "静岡県駿東郡清水町長沢県保健所管内一円",
      "lat": 35.10516,
      "lng": 138.891324,
      "geocoding_level": null,
      "phone": "",
      "license_no": "S71202500450",
      "license_date": "2025-11-27",
      "expire_date": "2030-11-30"
    },
    {
      "name": "サーティワンアイスクリーム　サントムーン柿田川店",
      "name_kana": "サーティワンアイスクリームサントムーンカキタガワテン",
      "business_type": "① 飲食店営業",
      "address": "静岡県駿東郡清水町玉川６１－２",
      "lat": 35.109290757,
      "lng": 138.903341021,
      "geocoding_level": 8,
      "phone": "055-981-8800",
      "license_no": "S56200700368",
      "license_date": "2022-09-30",
      "expire_date": "2027-09-30"
    },
    {
      "name": "製麺屋 中川",
      "name_kana": "セイメンヤナカガワ",
      "business_type": "㉔ 麺類製造業",
      "address": "静岡県駿東郡清水町八幡１２２",
      "lat": 35.108922,
      "lng": 138.895985,
      "geocoding_level": null,
      "phone": "",
      "license_no": "S56201100782",
      "license_date": "2022-09-30",
      "expire_date": "2027-09-30"
    },
    {
      "name": "麺屋なか川",
      "name_kana": "メンヤナカガワ",
      "business_type": "① 飲食店営業",
      "address": "静岡県駿東郡清水町八幡１８２－１",
      "lat": 35.106965,
      "lng": 138.899708,
      "geocoding_level": 3,
      "phone": "055-983-0523",
      "license_no": "S56201800708",
      "license_date": "2024-09-30",
      "expire_date": "2029-09-30"
    },
    {
      "name": "駿府宅配センター徳倉店",
      "name_kana": "スンプタクハイセンタートクラ",
      "business_type": "③ 乳類販売業",
      "address": "静岡県駿東郡清水町中徳倉１－１６",
      "lat": 35.089836,
      "lng": 138.895137,
      "geocoding_level": 3,
      "phone": "055-935-0107",
      "license_no": "",
      "license_date": null,
      "expire_date": null
    },
    {
      "name": "野田牛乳店",
      "name_kana": "ノダギュウニュウテン",
      "business_type": "③ 乳類販売業",
      "address": "静岡県駿東郡清水町伏見２０－２",
      "lat": 35.112289062,
      "lng": 138.902243571,
      "geocoding_level": 8,
      "phone": "055-971-8830",
      "license_no": "",
      "license_date": null,
      "expire_date": null
    },
    {
      "name": "札幌麺屋そらや",
      "name_kana": "サッポロメンヤソラヤ",
      "business_type": "① 飲食店営業",
      "address": "静岡県駿東郡清水町卸団地２０３",
      "lat": 35.096126,
      "lng": 138.907146,
      "geocoding_level": null,
      "phone": "090-4230-8650",
      "license_no": "S71202200377",
      "license_date": "2022-10-25",
      "expire_date": "2028-09-30"
    },
    {
      "name": "清水町温水プール",
      "name_kana": "シミズチョウオンスイプール",
      "business_type": "⑬ その他の食料・飲料販売業",
      "address": "静岡県駿東郡清水町柿田166-1",
      "lat": 35.103061,
      "lng": 138.897845,
      "geocoding_level": null,
      "phone": "",
      "license_no": "",
      "license_date": null,
      "expire_date": null
    },
    {
      "name": "FiT24三島店",
      "name_kana": "フィットニジュウヨンミシマテン",
      "business_type": "⑤ コップ式自動販売機（自動洗浄・屋内設置）",
      "address": "静岡県駿東郡清水町玉川１０８－１",
      "lat": 35.108192,
      "lng": 138.904893,
      "geocoding_level": null,
      "phone": "055-983-4288",
      "license_no": "",
      "license_date": null,
      "expire_date": null
    },
    {
      "name": "デリ・シオ　キッチン",
      "name_kana": "デリシオキッチン",
      "business_type": "① 飲食店営業",
      "address": "静岡県駿東郡清水町長沢県保健所管内一円",
      "lat": 35.10516,
      "lng": 138.891324,
      "geocoding_level": null,
      "phone": "",
      "license_no": "S56201700613",
      "license_date": "2022-11-30",
      "expire_date": "2027-11-30"
    },
    {
      "name": "パスタ屋一丁目",
      "name_kana": "パスタヤイッチョウメ",
      "business_type": "① 飲食店営業",
      "address": "静岡県駿東郡清水町玉川６１－２",
      "lat": 35.110462,
      "lng": 138.9035,
      "geocoding_level": null,
      "phone": "055-971-9623",
      "license_no": "S56200700559",
      "license_date": "2025-09-30",
      "expire_date": "2030-09-30"
    },
    {
      "name": "ウエルシアサントムーン柿田川店",
      "name_kana": "ウエルシアサントムーンカキタガワテン",
      "business_type": "⑪ 百貨店、総合スーパー",
      "address": "静岡県駿東郡清水町玉川 61-2",
      "lat": 35.108791,
      "lng": 138.903834,
      "geocoding_level": null,
      "phone": "055-981-8900",
      "license_no": "",
      "license_date": null,
      "expire_date": null
    },
    {
      "name": "大衆食堂もどき",
      "name_kana": "タイシュウショクドウモドキ",
      "business_type": "① 飲食店営業",
      "address": "静岡県駿東郡清水町卸団地203番地",
      "lat": 35.096126,
      "lng": 138.907146,
      "geocoding_level": null,
      "phone": "0559506223",
      "license_no": "S71202200472",
      "license_date": "2023-01-16",
      "expire_date": "2028-09-30"
    },
    {
      "name": "大衆食堂もどき",
      "name_kana": "タイシュウショクドウモドキ",
      "business_type": "㉕ そうざい製造業",
      "address": "静岡県駿東郡清水町卸団地203番地",
      "lat": 35.096126,
      "lng": 138.907146,
      "geocoding_level": null,
      "phone": "0559506223",
      "license_no": "S71202200473",
      "license_date": "2023-01-16",
      "expire_date": "2028-09-30"
    },
    {
      "name": "マクドナルド黄瀬川店",
      "name_kana": "マクドナルドキセガワテン",
      "business_type": "① 飲食店営業",
      "address": "静岡県駿東郡清水町八幡２２－２",
      "lat": 35.108846,
      "lng": 138.890595,
      "geocoding_level": null,
      "phone": "055-991-5515",
      "license_no": "S56201200167",
      "license_date": "2024-09-30",
      "expire_date": "2030-09-30"
    },
    {
      "name": "笑たこ　サントムーン柿田川店",
      "name_kana": "ワラタコサントムーンカキタガワテン",
      "business_type": "① 飲食店営業",
      "address": "静岡県駿東郡清水町玉川６１－２ サントムーン柿田川",
      "lat": 35.110348,
      "lng": 138.902813,
      "geocoding_level": null,
      "phone": "055-975-3987",
      "license_no": "S56201300136",
      "license_date": "2023-09-29",
      "expire_date": "2028-09-30"
    },
    {
      "name": "石垣珈琲株式会社",
      "name_kana": "イシガキコーヒーカブシキガイシャ",
      "business_type": "⑯ コーヒー製造・加工業（飲料の製造を除く。）",
      "address": "静岡県駿東郡清水町新宿７－１",
      "lat": 35.114948,
      "lng": 138.904375,
      "geocoding_level": null,
      "phone": "",
      "license_no": "",
      "license_date": null,
      "expire_date": null
    },
    {
      "name": "株式会社CーMEX",
      "name_kana": "カブシキガイシャシーメックス",
      "business_type": "⑨ 通信販売・訪問販売による販売業",
      "address": "静岡県駿東郡清水町的場191-3",
      "lat": 35.087066,
      "lng": 138.908207,
      "geocoding_level": null,
      "phone": "",
      "license_no": "",
      "license_date": null,
      "expire_date": null
    },
    {
      "name": "Keisui",
      "name_kana": "ケイスイ",
      "business_type": "① 飲食店営業",
      "address": "静岡県駿東郡清水町中徳倉27−11",
      "lat": 35.088428,
      "lng": 138.896571,
      "geocoding_level": null,
      "phone": "",
      "license_no": "S71202300047",
      "license_date": "2023-04-25",
      "expire_date": "2028-09-30"
    },
    {
      "name": "みなパチ16",
      "name_kana": "ミナパチジュウロク",
      "business_type": "① 飲食店営業",
      "address": "静岡県駿東郡清水町伏見364-1",
      "lat": 35.112823,
      "lng": 138.890891,
      "geocoding_level": null,
      "phone": "08010962376",
      "license_no": "S71202300049",
      "license_date": "2023-04-13",
      "expire_date": "2028-11-30"
    },
    {
      "name": "前田　恵子",
      "name_kana": "マエダ　ケイコ",
      "business_type": "⑰ 農産保存食料品製造・加工業",
      "address": "静岡県駿東郡清水町堂庭161",
      "lat": 35.10007,
      "lng": 138.90287,
      "geocoding_level": null,
      "phone": "09091714899",
      "license_no": "",
      "license_date": null,
      "expire_date": null
    },
    {
      "name": "ほどほど満足　住吉三島本店",
      "name_kana": "ホドホドマンゾクスミヨシミシマホンテン",
      "business_type": "① 飲食店営業",
      "address": "静岡県駿東郡清水町畑中65-4",
      "lat": 35.092496,
      "lng": 138.912029,
      "geocoding_level": null,
      "phone": "0559577207",
      "license_no": "S71202500305",
      "license_date": "2025-10-10",
      "expire_date": "2031-09-30"
    },
    {
      "name": "富士林檎　サントムーン柿田川店",
      "name_kana": "フジリンゴサントムーンカキタガワテン",
      "business_type": "① 飲食店営業",
      "address": "静岡県駿東郡清水町玉川61-2 サントムーン柿田川本館１Ｆ",
      "lat": 35.109372,
      "lng": 138.902399,
      "geocoding_level": null,
      "phone": "",
      "license_no": "S71202600001",
      "license_date": "2026-04-14",
      "expire_date": "2031-09-30"
    },
    {
      "name": "カラダよろこぶカフェpoca poca",
      "name_kana": "カラダヨロコブカフェポカポカ",
      "business_type": "① 飲食店営業",
      "address": "静岡県駿東郡清水町玉川134-6",
      "lat": 35.105901,
      "lng": 138.903625,
      "geocoding_level": null,
      "phone": "055-941-7291",
      "license_no": "S71202300111",
      "license_date": "2023-05-30",
      "expire_date": "2028-09-30"
    },
    {
      "name": "カラダよろこぶカフェpoca poca",
      "name_kana": "カラダヨロコブカフェ　ポカポカ",
      "business_type": "⑱ 調味料製造・加工業",
      "address": "静岡県駿東郡清水町玉川134-6",
      "lat": 35.105901,
      "lng": 138.903625,
      "geocoding_level": null,
      "phone": "055941-7291",
      "license_no": "",
      "license_date": null,
      "expire_date": null
    },