{
  "meta": {
    "updated": 1783568789,
    "sources": [
      {
        "source": "厚生労働省 食品衛生申請等システム（オープンデータ）",
        "license": "公共データ利用規約（第1.0版, PDL1.0）"
      }
    ]
  },
  "data": [
    {
      "name": "ドラッグイレブン金武店",
      "name_kana": "ドラッグイレブンキンテン",
      "business_type": "⑪ 百貨店、総合スーパー",
      "address": "沖縄県国頭郡金武町金武11445-1",
      "lat": 26.46357,
      "lng": 127.935724,
      "geocoding_level": null,
      "phone": "098-983-2511",
      "license_no": "",
      "license_date": null,
      "expire_date": null
    },
    {
      "name": "障害者支援施設　松原園",
      "name_kana": "ショウガィシャシェンシセツ　マツバラエン",
      "business_type": "③ 乳類販売業",
      "address": "沖縄県国頭郡金武町金武４２３１",
      "lat": 26.45144,
      "lng": 127.914301,
      "geocoding_level": null,
      "phone": "098-968-3963",
      "license_no": "",
      "license_date": null,
      "expire_date": null
    },
    {
      "name": "ファミリーマート金武大通り店",
      "name_kana": "ファミリーマートキンオオドオリテン",
      "business_type": "⑩ コンビニエンスストア",
      "address": "沖縄県国頭郡金武町金武66番地5",
      "lat": 26.454541,
      "lng": 127.92533,
      "geocoding_level": null,
      "phone": "0989686098",
      "license_no": "",
      "license_date": null,
      "expire_date": null
    },
    {
      "name": "沖縄の空と小さな屋根の農園",
      "name_kana": "オキナワノソラトチイサナヤネノノウエン",
      "business_type": "① 飲食店営業",
      "address": "沖縄県国頭郡金武町金武666-2（沖縄県全域）",
      "lat": 26.455063,
      "lng": 127.926195,
      "geocoding_level": null,
      "phone": "",
      "license_no": "03202501898",
      "license_date": "2026-02-17",
      "expire_date": "2031-02-28"
    },
    {
      "name": "沖縄自動車道　伊芸SA上り線自動販売機",
      "name_kana": "オキナワジドウシャドウイゲイサービスエリアノボリセンジドウハンバイキ",
      "business_type": "⑫ 自動販売機による販売業（コップ式自動販売機（自動洗浄・屋内設置）及び営業許可の対象となる自動販売機を除く）",
      "address": "沖縄県国頭郡金武町伊芸1261",
      "lat": 26.459195,
      "lng": 127.871674,
      "geocoding_level": null,
      "phone": "",
      "license_no": "",
      "license_date": null,
      "expire_date": null
    }
  ]
}
