{
  "meta": {
    "updated": 1783568789,
    "sources": [
      {
        "source": "厚生労働省 食品衛生申請等システム（オープンデータ）",
        "license": "公共データ利用規約（第1.0版, PDL1.0）"
      }
    ]
  },
  "data": [
    {
      "name": "長印ながのファーム中野しいたけセンター",
      "name_kana": "チョウジルシナガノファームナカノシイタケセンター",
      "business_type": "⑤ コップ式自動販売機（自動洗浄・屋内設置）",
      "address": "長野県中野市大字吉田66－1",
      "lat": 36.749782,
      "lng": 138.349948,
      "geocoding_level": null,
      "phone": "",
      "license_no": "",
      "license_date": null,
      "expire_date": null
    },
    {
      "name": "中野スタンピング工場1F",
      "name_kana": "ナカノスタンピングコウジョウイチエフ",
      "business_type": "⑤ コップ式自動販売機（自動洗浄・屋内設置）",
      "address": "長野県中野市大字草間1248－5",
      "lat": 36.737778,
      "lng": 138.326416,
      "geocoding_level": null,
      "phone": "",
      "license_no": "",
      "license_date": null,
      "expire_date": null
    },
    {
      "name": "中野スタンピング2F食堂",
      "name_kana": "ナカノスタンピングニエフショクドウ",
      "business_type": "⑤ コップ式自動販売機（自動洗浄・屋内設置）",
      "address": "長野県中野市大字草間1248－5",
      "lat": 36.737778,
      "lng": 138.326416,
      "geocoding_level": null,
      "phone": "",
      "license_no": "",
      "license_date": null,
      "expire_date": null
    },
    {
      "name": "めん六や　中野店",
      "name_kana": "メンロクヤ　ナカノテン",
      "business_type": "① 飲食店営業",
      "address": "長野県中野市江部字砂山４２７番地",
      "lat": 36.730423,
      "lng": 138.341908,
      "geocoding_level": null,
      "phone": "070-1370-9843",
      "license_no": "17146555",
      "license_date": "2021-09-30",
      "expire_date": "2027-09-30"
    },
    {
      "name": "エフバイエー中野",
      "name_kana": "エフバイエーナカノ",
      "business_type": "⑫ 自動販売機による販売業（コップ式自動販売機（自動洗浄・屋内設置）及び営業許可の対象となる自動販売機を除く）",
      "address": "長野県中野市西1-1-7",
      "lat": 36.744044,
      "lng": 138.365999,
      "geocoding_level": null,
      "phone": "",
      "license_no": "",
      "license_date": null,
      "expire_date": null
    },
    {
      "name": "アルビスファーム信州なかの",
      "name_kana": "アルビスファームシンシュウナカノ",
      "business_type": "⑰ 農産保存食料品製造・加工業",
      "address": "長野県中野市中野1340-1",
      "lat": 36.752053,
      "lng": 138.381354,
      "geocoding_level": null,
      "phone": "0269245011",
      "license_no": "",
      "license_date": null,
      "expire_date": null
    },
    {
      "name": "ダイナム中野店",
      "name_kana": "ダイナムイナカノテン",
      "business_type": "⑤ コップ式自動販売機（自動洗浄・屋内設置）",
      "address": "長野県中野市江部427番地1",
      "lat": 36.728324,
      "lng": 138.3406,
      "geocoding_level": null,
      "phone": "070-1370-9843",
      "license_no": "",
      "license_date": null,
      "expire_date": null
    },
    {
      "name": "デリシア中野西店　清流物語",
      "name_kana": "デリシアナカノニシテン　セイリュウモノガタリ",
      "business_type": "⑫ 自動販売機による販売業（コップ式自動販売機（自動洗浄・屋内設置）及び営業許可の対象となる自動販売機を除く）",
      "address": "長野県中野市大字江部字松ノ木1236",
      "lat": 36.730576,
      "lng": 138.341457,
      "geocoding_level": null,
      "phone": "",
      "license_no": "",
      "license_date": null,
      "expire_date": null
    },
    {
      "name": "デリシア中野店　清流物語",
      "name_kana": "デリシアナカノテン　セイリュウモノガタリ",
      "business_type": "⑫ 自動販売機による販売業（コップ式自動販売機（自動洗浄・屋内設置）及び営業許可の対象となる自動販売機を除く）",
      "address": "長野県中野市吉田字柿ノ木726",
      "lat": 36.750373,
      "lng": 138.356415,
      "geocoding_level": null,
      "phone": "",
      "license_no": "",
      "license_date": null,
      "expire_date": null
    },
    {
      "name": "ANYTIME FITNESS信州中野店",
      "name_kana": "エニタイムフィットネスシンシュウナカノテン",
      "business_type": "⑫ 自動販売機による販売業（コップ式自動販売機（自動洗浄・屋内設置）及び営業許可の対象となる自動販売機を除く）",
      "address": "長野県中野市吉田16-3",
      "lat": 36.747337,
      "lng": 138.350688,
      "geocoding_level": null,
      "phone": "0269-38-1301",
      "license_no": "",
      "license_date": null,
      "expire_date": null
    },
    {
      "name": "かっぱ寿司　信州中野店",
      "name_kana": "カッパズシ　シンシュウナカノテン",
      "business_type": "⑪ 菓子製造業",
      "address": "長野県中野市片塩字松崎58-2",
      "lat": 36.743995,
      "lng": 138.341457,
      "geocoding_level": null,
      "phone": "0269-26-1797",
      "license_no": "17180282",
      "license_date": "2023-03-13",
      "expire_date": "2029-09-30"
    },
    {
      "name": "かっぱ寿司　信州中野店",
      "name_kana": "カッパズシ　シンシュウナカノテン",
      "business_type": "⑥ 弁当販売業",
      "address": "長野県中野市片塩字松崎58-2",
      "lat": 36.743995,
      "lng": 138.341457,
      "geocoding_level": null,
      "phone": "0269-26-1797",
      "license_no": "",
      "license_date": null,
      "expire_date": null
    },
    {
      "name": "かっぱ寿司  信州中野店",
      "name_kana": "カッパズシ　シンシュウナカノテン",
      "business_type": "① 飲食店営業",
      "address": "長野県中野市片塩字松崎58-2",
      "lat": 36.743995,
      "lng": 138.341457,
      "geocoding_level": null,
      "phone": "0269-26-1797",
      "license_no": "17163519",
      "license_date": "2025-09-30",
      "expire_date": "2031-09-30"
    },
    {
      "name": "アメリカンドラッグ吉田店",
      "name_kana": "アメリカンドラッグヨシダテン",
      "business_type": "③ 乳類販売業",
      "address": "長野県中野市吉田718-3",
      "lat": 36.754662,
      "lng": 138.365454,
      "geocoding_level": null,
      "phone": "0269-62-0022",
      "license_no": "",
      "license_date": null,
      "expire_date": null
    },
    {
      "name": "アメリカンドラッグ新駅南店",
      "name_kana": "アメリカンドラッグシンエキナンテン",
      "business_type": "③ 乳類販売業",
      "address": "長野県中野市西条大字吉原587-2",
      "lat": 36.736953,
      "lng": 138.356415,
      "geocoding_level": null,
      "phone": "0269-23-3346",
      "license_no": "",
      "license_date": null,
      "expire_date": null
    },
    {
      "name": "アメリカンドラッグ中野豊津店",
      "name_kana": "アメリカンドラッグナカノトヨツテン",
      "business_type": "③ 乳類販売業",
      "address": "長野県中野市豊津字土浮３３７番１",
      "lat": 36.784232,
      "lng": 138.330937,
      "geocoding_level": null,
      "phone": "0269-38-1035",
      "license_no": "",
      "license_date": null,
      "expire_date": null
    },
    {
      "name": "信濃興産株式会社",
      "name_kana": "シナノコウサンカブシキガイシャ",
      "business_type": "㉔ その他の食料品製造・加工業",
      "address": "長野県中野市大字吉田42番地",
      "lat": 36.74885,
      "lng": 138.349851,
      "geocoding_level": null,
      "phone": "0269-22-5135",
      "license_no": "",
      "license_date": null,
      "expire_date": null
    },
    {
      "name": "信濃興産株式会社",
      "name_kana": "シナノコウサンカブシキガイシャ",
      "business_type": "㉕ そうざい製造業",
      "address": "長野県中野市大字吉田４２番地",
      "lat": 36.74885,
      "lng": 138.349851,
      "geocoding_level": null,
      "phone": "0269-22-5135",
      "license_no": "17147963",
      "license_date": "2022-09-30",
      "expire_date": "2028-09-30"
    },
    {
      "name": "ドン・キホーテ信州中野店",
      "name_kana": "ドン・キホーテシンシュウナカノテン",
      "business_type": "⑪ 百貨店、総合スーパー",
      "address": "長野県中野市大字江部1236",
      "lat": 36.742993,
      "lng": 138.348931,
      "geocoding_level": null,
      "phone": "0570-076-611",
      "license_no": "",
      "license_date": null,
      "expire_date": null
    },
    {
      "name": "株式会社マルエー　長野営業所",
      "name_kana": "カブシキガイシャマルエー　ナガノエイギョウショ",
      "business_type": "③ 乳類販売業",
      "address": "長野県中野市牛出140-1",
      "lat": 36.73772,
      "lng": 138.31455,
      "geocoding_level": null,
      "phone": "0269-38-0194",
      "license_no": "",
      "license_date": null,
      "expire_date": null
    },
    {
      "name": "スバル信州株式会社中野店1Fロビー",
      "name_kana": "スバルシンシュウカブシキガイシャナカノテンイチエフロビー",
      "business_type": "⑤ コップ式自動販売機（自動洗浄・屋内設置）",
      "address": "長野県中野市吉田87-1",
      "lat": 36.751887,
      "lng": 138.350376,
      "geocoding_level": null,
      "phone": "",
      "license_no": "",
      "license_date": null,
      "expire_date": null
    },
    {
      "name": "株式会社コントリビューション",
      "name_kana": "カブシキカイシャコントリビューション",
      "business_type": "⑨ 通信販売・訪問販売による販売業",
      "address": "長野県中野市一円",
      "lat": 36.741999,
      "lng": 138.369355,
      "geocoding_level": null,
      "phone": "0453243500",
      "license_no": "",
      "license_date": null,
      "expire_date": null
    },
    {
      "name": "有限会社シュウワ　豊津農産物加工所",
      "name_kana": "ユウゲンガイシャシュウワトヨツノウサンブツカコウジョ",
      "business_type": "㉚ 密封包装食品製造業",
      "address": "長野県中野市大字豊津３８０８－１",
      "lat": 36.782721,
      "lng": 138.337148,
      "geocoding_level": null,
      "phone": "0269-38-0533",
      "license_no": "17178146",
      "license_date": "2021-06-04",
      "expire_date": "2028-05-31"
    },
    {
      "name": "ガスト 信州中野店",
      "name_kana": "ガストシンシュウナカノテン",
      "business_type": "⑬ その他の食料・飲料販売業",
      "address": "長野県中野市吉田５４８－３",
      "lat": 36.755294,
      "lng": 138.357137,
      "geocoding_level": null,
      "phone": "0269-24-1429",
      "license_no": "",
      "license_date": null,
      "expire_date": null
    },
    {
      "name": "ＪＡ中野市南部共選所",
      "name_kana": "ジェイエイナカノシナンブキョウセンジョ",
      "business_type": "⑦ 野菜果物販売業",
      "address": "長野県中野市中野277-2",
      "lat": 36.735552,
      "lng": 138.365514,
      "geocoding_level": null,
      "phone": "0269-26-0184",
      "license_no": "",
      "license_date": null,
      "expire_date": null
    },
    {
      "name": "ＪＡ中野市平岡共選所",
      "name_kana": "ジェイエイナカノシヒラオカキョウセンジョ",
      "business_type": "⑦ 野菜果物販売業",
      "address": "長野県中野市若宮249-1",
      "lat": 36.767628,
      "lng": 138.367516,
      "geocoding_level": null,
      "phone": "0269-22-3762",
      "license_no": "",
      "license_date": null,
      "expire_date": null
    },
    {
      "name": "ＪＡ中野市高社共選所",
      "name_kana": "ジェイエイナカノシコウシャキョウセンジョ",
      "business_type": "⑦ 野菜果物販売業",
      "address": "長野県中野市越1131",
      "lat": 36.779279,
      "lng": 138.367342,
      "geocoding_level": null,
      "phone": "0269-22-2202",
      "license_no": "",
      "license_date": null,
      "expire_date": null
    },
    {
      "name": "中野市豊田農産物加工施設利用組合",
      "name_kana": "ナカノシトヨタノウサンブツカコウシセツリヨウクミアイ",
      "business_type": "⑳ みそ又はしょうゆ製造業",
      "address": "長野県中野市大字永江２２１１－１",
      "lat": 36.800244,
      "lng": 138.323038,
      "geocoding_level": null,
      "phone": "0269-38-3309",
      "license_no": "17178178",
      "license_date": "2021-06-01",
      "expire_date": "2027-05-31"
    },
    {
      "name": "中野市豊田農産物加工施設利用組合",
      "name_kana": "ナカノシトヨタノウサンブツカコウシセツリヨウクミアイ",
      "business_type": "㉙ 漬物製造業",
      "address": "長野県中野市大字永江２２１１－１",
      "lat": 36.800244,
      "lng": 138.323038,
      "geocoding_level": null,
      "phone": "0269-38-3309",
      "license_no": "17178192",
      "license_date": "2021-06-14",
      "expire_date": "2028-05-31"
    },
    {
      "name": "株式会社長印　中野支社",
      "name_kana": "カブシキガイシャチョウジルシ　ナカノシシャ",
      "business_type": "⑦ 野菜果物販売業",
      "address": "長野県中野市田麦大清水567-1",
      "lat": 36.767493,
      "lng": 138.344127,
      "geocoding_level": null,
      "phone": "0269-22-3171",
      "license_no": "",
      "license_date": null,
      "expire_date": null
    },
    {
      "name": "株式会社ツルヤ　一本木店",
      "name_kana": "カブシキガイシャツルヤ　イッポンギテン",
      "business_type": "⑪ 百貨店、総合スーパー",
      "address": "長野県中野市竹原116-1",
      "lat": 36.759409,
      "lng": 138.380385,
      "geocoding_level": null,
      "phone": "0269-24-0611",
      "license_no": "",
      "license_date": null,
      "expire_date": null
    },
    {
      "name": "ツルヤ一本木店",
      "name_kana": "ツルヤイッポンギテン",
      "business_type": "① 飲食店営業",
      "address": "長野県中野市竹原１１６－１",
      "lat": 36.759409,
      "lng": 138.380385,
      "geocoding_level": null,
      "phone": "0269-24-0611",
      "license_no": "17150031",
      "license_date": "2024-09-30",
      "expire_date": "2030-09-30"
    },
    {
      "name": "ツルヤ一本木店",
      "name_kana": "ツルヤイッポンギテン",
      "business_type": "① 飲食店営業",
      "address": "長野県中野市竹原１１６－１",
      "lat": 36.759409,
      "lng": 138.380385,
      "geocoding_level": null,
      "phone": "0269-24-0611",
      "license_no": "17150048",
      "license_date": "2024-09-30",
      "expire_date": "2030-09-30"
    },
    {
      "name": "ツルヤ一本木店",
      "name_kana": "ツルヤイッポンギテン",
      "business_type": "⑪ 菓子製造業",
      "address": "長野県中野市竹原１１６－１",
      "lat": 36.759409,
      "lng": 138.380385,
      "geocoding_level": null,
      "phone": "0269-24-0611",
      "license_no": "17150055",
      "license_date": "2024-09-30",
      "expire_date": "2030-09-30"
    },
    {
      "name": "ツルヤ一本木店",
      "name_kana": "ツルヤイッポンギテン",
      "business_type": "④ 魚介類販売業",
      "address": "長野県中野市竹原１１６－１",
      "lat": 36.759409,
      "lng": 138.380385,
      "geocoding_level": null,
      "phone": "0269-24-0611",
      "license_no": "17150062",
      "license_date": "2024-09-30",
      "expire_date": "2030-09-30"
    },
    {
      "name": "ツルヤ一本木店",
      "name_kana": "ツルヤイッポンギテン",
      "business_type": "③ 食肉販売業",
      "address": "長野県中野市竹原１１６－１",
      "lat": 36.759409,
      "lng": 138.380385,
      "geocoding_level": null,
      "phone": "0269-24-0611",
      "license_no": "17150070",
      "license_date": "2024-09-30",
      "expire_date": "2030-09-30"
    },
    {
      "name": "株式会社サンエー",
      "name_kana": "カブシキガイシャサンエー",
      "business_type": "㉛ 食品の小分け業",
      "address": "長野県中野市大字新井３６７－４",
      "lat": 36.759924,
      "lng": 138.366116,
      "geocoding_level": null,
      "phone": "0269-26-2461",
      "license_no": "17178235",
      "license_date": "2021-06-21",
      "expire_date": "2027-09-30"
    },
    {
      "name": "(株)サンエー",
      "name_kana": "カブシキガイシャサンエー",
      "business_type": "① 飲食店営業",
      "address": "長野県中野市新井３６７－４",
      "lat": 36.759924,
      "lng": 138.366116,
      "geocoding_level": null,
      "phone": "0269-26-2461",
      "license_no": "17160804",
      "license_date": "2021-09-30",
      "expire_date": "2026-09-30"
    },
    {
      "name": "株式会社サンエー",
      "name_kana": "カブシキカイシャサンエー",
      "business_type": "⑬ その他の食料・飲料販売業",
      "address": "長野県中野市新井367-4",
      "lat": 36.759924,
      "lng": 138.366116,
      "geocoding_level": null,
      "phone": "0269-26-2461",
      "license_no": "",
      "license_date": null,
      "expire_date": null
    },
    {
      "name": "信州中野　ふるさとおやき本舗",
      "name_kana": "シンシュウナカノ　フルサトオヤキホンポ",
      "business_type": "㉗ 冷凍食品製造業",
      "address": "長野県中野市大字七瀬135-2",
      "lat": 36.755563,
      "lng": 138.351623,
      "geocoding_level": null,
      "phone": "0269-26-7701",
      "license_no": "17180688",
      "license_date": "2023-06-26",
      "expire_date": "2029-09-30"
    },
    {
      "name": "信州中野　ふるさとおやき本舗",
      "name_kana": "シンシュウナカノ　フルサトオヤキホンポ",
      "business_type": "⑪ 菓子製造業",
      "address": "長野県中野市大字七瀬135-2",
      "lat": 36.755563,
      "lng": 138.351623,
      "geocoding_level": null,
      "phone": "0269-26-7701",
      "license_no": "17180695",
      "license_date": "2023-06-26",
      "expire_date": "2029-09-30"
    },
    {
      "name": "(株）サンエー第二工場",
      "name_kana": "カブシキガイシャサンエーダイニコウジョウ",
      "business_type": "㉙ 漬物製造業",
      "address": "長野県中野市大字新井３６７－４",
      "lat": 36.759924,
      "lng": 138.366116,
      "geocoding_level": null,
      "phone": "0269-26-2461",
      "license_no": "17181249",
      "license_date": "2023-09-22",
      "expire_date": "2029-09-30"
    },
    {
      "name": "（株）サンエー新井第一工場",
      "name_kana": "カブシキガイシャサンエーアライダイイチコウジョウ",
      "business_type": "㉕ そうざい製造業",
      "address": "長野県中野市大字新井３６７番地４",
      "lat": 36.759924,
      "lng": 138.366116,
      "geocoding_level": null,
      "phone": "0269-26-2461",
      "license_no": "17138747",
      "license_date": "2023-09-29",
      "expire_date": "2029-09-30"
    },
    {
      "name": "信州中野いきいき館",
      "name_kana": "シンシュウナカノイキイキカン",
      "business_type": "⑦ 野菜果物販売業",
      "address": "長野県中野市未選択５１９",
      "lat": 36.741999,
      "lng": 138.369355,
      "geocoding_level": null,
      "phone": "",
      "license_no": "",
      "license_date": null,
      "expire_date": null
    },
    {
      "name": "多目的ホールしゃぼん玉館",
      "name_kana": "タモクテキホールシャボンダマカン",
      "business_type": "① 飲食店営業",
      "address": "長野県中野市大字吉田立石木１０７－１",
      "lat": 36.750373,
      "lng": 138.356415,
      "geocoding_level": null,
      "phone": "0269-26-1122",
      "license_no": "17139201",
      "license_date": "2023-09-29",
      "expire_date": "2029-09-30"
    },
    {
      "name": "ジェイエイ・アップル（株）",
      "name_kana": "ジェイエイ・アップルカブシキガイシャ",
      "business_type": "① 飲食店営業",
      "address": "長野県中野市吉田５１９番地",
      "lat": 36.754128,
      "lng": 138.357048,
      "geocoding_level": null,
      "phone": "",
      "license_no": "17165395",
      "license_date": "2023-09-29",
      "expire_date": "2028-09-30"
    },
    {
      "name": "アップルシティーなかの２階",
      "name_kana": "アップルシティーナカノニカイ",
      "business_type": "① 飲食店営業",
      "address": "長野県中野市大字吉田５１９番地",
      "lat": 36.754128,
      "lng": 138.357048,
      "geocoding_level": null,
      "phone": "0269-26-1122",
      "license_no": "17139151",
      "license_date": "2023-09-29",
      "expire_date": "2029-09-30"
    },
    {
      "name": "ジェイエイ・アップル(株)",
      "name_kana": "ジェイエイ・アップルカブシキガイシャ",
      "business_type": "① 飲食店営業",
      "address": "長野県中野市吉田５１９",
      "lat": 36.754128,
      "lng": 138.357048,
      "geocoding_level": null,
      "phone": "0269-26-1122",
      "license_no": "17171479",
      "license_date": "2023-09-29",
      "expire_date": "2029-09-30"
    },
    {
      "name": "ジェイエイ・アップル株式会社",
      "name_kana": "ジェイエイアップルカブシキガイシャ",
      "business_type": "① 飲食店営業",
      "address": "長野県中野市大字吉田５１９番地",
      "lat": 36.754128,
      "lng": 138.357048,
      "geocoding_level": null,
      "phone": "0269-26-1122",
      "license_no": "17183378",
      "license_date": "2024-10-09",
      "expire_date": "2030-09-30"
    },
    {
      "name": "ジェイエイ・アップル株式会社",
      "name_kana": "ジェイエイアップルカブシキガイシャ",
      "business_type": "㉕ そうざい製造業",
      "address": "長野県中野市吉田５１９番地",
      "lat": 36.754128,
      "lng": 138.357048,
      "geocoding_level": null,
      "phone": "0269261122",
      "license_no": "17164230",
      "license_date": "2025-09-30",
      "expire_date": "2031-09-30"
    },
    {
      "name": "ジェイエイ・アップル株式会社",
      "name_kana": "ジェイエイアップルカブシキガイシャ",
      "business_type": "① 魚介類販売業（包装済みの魚介類のみの販売）",
      "address": "長野県中野市吉田５１９番地",
      "lat": 36.754128,
      "lng": 138.357048,
      "geocoding_level": null,
      "phone": "0269261122",
      "license_no": "",
      "license_date": null,
      "expire_date": null
    },
    {
      "name": "ジェイエイ・アップル株式会社",
      "name_kana": "ジェイエイアップルカブシキガイシャ",
      "business_type": "② 食肉販売業（包装済みの食肉のみの販売）",
      "address": "長野県中野市吉田５１９番地",
      "lat": 36.754128,
      "lng": 138.357048,
      "geocoding_level": null,
      "phone": "0269261122",
      "license_no": "",
      "license_date": null,
      "expire_date": null
    },
    {
      "name": "ジェイエイ・アップル株式会社",
      "name_kana": "ジェイエイアップルカブシキガイシャ",
      "business_type": "③ 乳類販売業",
      "address": "長野県中野市吉田５１９番地",
      "lat": 36.754128,
      "lng": 138.357048,
      "geocoding_level": null,
      "phone": "0269261122",
      "license_no": "",
      "license_date": null,
      "expire_date": null
    },
    {
      "name": "紫陽花",
      "name_kana": "アジサイ",
      "business_type": "㉑ 製茶業",
      "address": "長野県中野市大字一本木286-5",
      "lat": 36.756051,
      "lng": 138.377612,
      "geocoding_level": null,
      "phone": "090-7185-7454",
      "license_no": "",
      "license_date": null,
      "expire_date": null
    },
    {
      "name": "信濃産業株式会社",
      "name_kana": "シナノサンギョウカブシキガイシャ",
      "business_type": "㉔ その他の食料品製造・加工業",
      "address": "長野県中野市大字吉田42番地",
      "lat": 36.74885,
      "lng": 138.349851,
      "geocoding_level": null,
      "phone": "0269-22-5135",
      "license_no": "",
      "license_date": null,
      "expire_date": null
    },
    {
      "name": "クスリのアオキ西条店",
      "name_kana": "クスリノアオキニシジョウテン",
      "business_type": "⑪ 百貨店、総合スーパー",
      "address": "長野県中野市西条869番地",
      "lat": 36.739211,
      "lng": 138.366025,
      "geocoding_level": null,
      "phone": "0269-38-1171",
      "license_no": "",
      "license_date": null,
      "expire_date": null
    },
    {
      "name": "クスリのアオキ中野西店",
      "name_kana": "クスリノアオキナカノニシテン",
      "business_type": "⑪ 百貨店、総合スーパー",
      "address": "長野県中野市西二丁目1番2号",
      "lat": 36.747776,
      "lng": 138.368119,
      "geocoding_level": null,
      "phone": "0269-38-0591",
      "license_no": "",
      "license_date": null,
      "expire_date": null
    },
    {
      "name": "株式会社信州フードファクトリー",
      "name_kana": "カブシキガイシャシンシュウフードファクトリー",
      "business_type": "① 飲食店営業",
      "address": "長野県中野市中央２丁目３－２",
      "lat": 36.745043,
      "lng": 138.372063,
      "geocoding_level": null,
      "phone": "",
      "license_no": "17178300",
      "license_date": "2021-07-05",
      "expire_date": "2026-09-30"
    },
    {
      "name": "株式会社信州フードファクトリー",
      "name_kana": "カブシキガイシャシンシュウフードファクトリー",
      "business_type": "① 飲食店営業",
      "address": "長野県中野市中央２丁目３－２",
      "lat": 36.745043,
      "lng": 138.372063,
      "geocoding_level": null,
      "phone": "",
      "license_no": "17178317",
      "license_date": "2021-07-05",
      "expire_date": "2026-09-30"
    },
    {
      "name": "やま家",
      "name_kana": "ヤマヤ",
      "business_type": "① 飲食店営業",
      "address": "長野県中野市大字吉田１２２－４",
      "lat": 36.753605,
      "lng": 138.353259,
      "geocoding_level": null,
      "phone": "090-6494-2417",
      "license_no": "17178349",
      "license_date": "2021-07-09",
      "expire_date": "2027-09-30"
    },
    {
      "name": "くつろぎ処よっちゃん",
      "name_kana": "クツロギドコロヨッチャン",
      "business_type": "① 飲食店営業",
      "address": "長野県中野市三好町１丁目３－４",
      "lat": 36.74345,
      "lng": 138.370358,
      "geocoding_level": null,
      "phone": "090-6513-5023",
      "license_no": "17178363",
      "license_date": "2021-07-12",
      "expire_date": "2027-09-30"
    },
    {
      "name": "株式会社　原信　中野店",
      "name_kana": "カブシキガイシャ　ハラシン　ナカノテン",
      "business_type": "⑪ 百貨店、総合スーパー",
      "address": "長野県中野市大字西条字吉原572番地1",
      "lat": 36.736953,
      "lng": 138.356415,
      "geocoding_level": null,
      "phone": "0269-24-7870",
      "license_no": "",
      "license_date": null,
      "expire_date": null
    },
    {
      "name": "株式会社　原信　中野店",
      "name_kana": "カブシキガイシャ　ハラシン　ナカノテン",
      "business_type": "① 飲食店営業",
      "address": "長野県中野市大字西条字吉原５７２番地１",
      "lat": 36.736953,
      "lng": 138.356415,
      "geocoding_level": null,
      "phone": "0269-24-7870",
      "license_no": "17145962",
      "license_date": "2021-09-30",
      "expire_date": "2027-09-30"
    },
    {
      "name": "株式会社　原信　中野店",
      "name_kana": "カブシキガイシャ　ハラシン　ナカノテン",
      "business_type": "① 飲食店営業",
      "address": "長野県中野市大字西条字吉原５７２番地１",
      "lat": 36.736953,
      "lng": 138.356415,
      "geocoding_level": null,
      "phone": "0269-24-7870",
      "license_no": "17145948",
      "license_date": "2021-09-30",
      "expire_date": "2027-09-30"
    },
    {
      "name": "株式会社　原信　中野店",
      "name_kana": "カブシキガイシャ　ハラシン　ナカノテン",
      "business_type": "⑪ 菓子製造業",
      "address": "長野県中野市大字西条字吉原５７２番地１",
      "lat": 36.736953,
      "lng": 138.356415,
      "geocoding_level": null,
      "phone": "0269-24-7870",
      "license_no": "17145970",
      "license_date": "2021-09-30",
      "expire_date": "2027-09-30"
    },
    {
      "name": "株式会社　原信　中野店",
      "name_kana": "カブシキガイシャ　ハラシン　ナカノテン",
      "business_type": "④ 魚介類販売業",
      "address": "長野県中野市大字西条字吉原５７２番地１",
      "lat": 36.736953,
      "lng": 138.356415,
      "geocoding_level": null,
      "phone": "0269-24-7870",
      "license_no": "17145923",
      "license_date": "2021-09-30",
      "expire_date": "2027-09-30"
    },
    {
      "name": "株式会社　原信　中野店",
      "name_kana": "カブシキガイシャ　ハラシン　ナカノテン",
      "business_type": "③ 食肉販売業",
      "address": "長野県中野市大字西条字吉原５７２番地１",
      "lat": 36.736953,
      "lng": 138.356415,
      "geocoding_level": null,
      "phone": "0269-24-7870",
      "license_no": "17145931",
      "license_date": "2021-09-30",
      "expire_date": "2027-09-30"
    },
    {
      "name": "株式会社　原信　中野店",
      "name_kana": "カブシキガイシャ　ハラシン　ナカノテン",
      "business_type": "⑪ 百貨店、総合スーパー",
      "address": "長野県中野市大字西条字吉原５７２番地１",
      "lat": 36.736953,
      "lng": 138.356415,
      "geocoding_level": null,
      "phone": "0269-24-7870",
      "license_no": "",
      "license_date": null,
      "expire_date": null
    },
    {
      "name": "カインズ中野店",
      "name_kana": "カインズナカノテン",
      "business_type": "⑧ 米穀類販売業",
      "address": "長野県中野市七瀬字街渠６３５番地",
      "lat": 36.755066,
      "lng": 138.346442,
      "geocoding_level": null,
      "phone": "0269-38-1555",
      "license_no": "",
      "license_date": null,
      "expire_date": null
    },
    {
      "name": "イオン中野店",
      "name_kana": "イオンナカノテン",
      "business_type": "⑪ 百貨店、総合スーパー",
      "address": "長野県中野市一本木２５２－１",
      "lat": 36.758752,
      "lng": 138.372468,
      "geocoding_level": null,
      "phone": "0269-23-4555",
      "license_no": "",
      "license_date": null,
      "expire_date": null
    },
    {
      "name": "イオン中野店",
      "name_kana": "イオンナカノテン",
      "business_type": "⑪ 菓子製造業",
      "address": "長野県中野市大字一本木２５２－１",
      "lat": 36.758752,
      "lng": 138.372468,
      "geocoding_level": null,
      "phone": "0269-23-4555",
      "license_no": "17183621",
      "license_date": "2024-12-06",
      "expire_date": "2031-09-30"
    },
    {
      "name": "農産物産館オランチェ",
      "name_kana": "ノウサンブッサンカン",
      "business_type": "① 魚介類販売業（包装済みの魚介類のみの販売）",
      "address": "長野県中野市大字草間１５４３－５",
      "lat": 36.733848,
      "lng": 138.319066,
      "geocoding_level": null,
      "phone": "0269-23-5595",
      "license_no": "",
      "license_date": null,
      "expire_date": null
    },
    {
      "name": "農産物産館オランチェ",
      "name_kana": "ノウサンブッサンカン",
      "business_type": "② 食肉販売業（包装済みの食肉のみの販売）",
      "address": "長野県中野市大字草間１５４３－５",
      "lat": 36.733848,
      "lng": 138.319066,
      "geocoding_level": null,
      "phone": "0269-23-5595",
      "license_no": "",
      "license_date": null,
      "expire_date": null
    },
    {
      "name": "農産物産館オランチェ",
      "name_kana": "ノウサンブッサンカン",
      "business_type": "③ 乳類販売業",
      "address": "長野県中野市大字草間１５４３－５",
      "lat": 36.733848,
      "lng": 138.319066,
      "geocoding_level": null,
      "phone": "0269-23-5595",
      "license_no": "",
      "license_date": null,
      "expire_date": null
    },
    {
      "name": "農産物産館オランチェ",
      "name_kana": "ノウサンブッサンカン",
      "business_type": "⑦ 野菜果物販売業",
      "address": "長野県中野市大字草間１５４３－５",
      "lat": 36.733848,
      "lng": 138.319066,
      "geocoding_level": null,
      "phone": "0269-23-5595",
      "license_no": "",
      "license_date": null,
      "expire_date": null
    },
    {
      "name": "シャトレーゼ信州中野店",
      "name_kana": "シャトレーゼシンシュウナカノテン",
      "business_type": "⑪ 菓子製造業",
      "address": "長野県中野市吉田５１９",
      "lat": 36.754128,
      "lng": 138.357048,
      "geocoding_level": null,
      "phone": "0269-38-1317",
      "license_no": "17178406",
      "license_date": "2021-07-26",
      "expire_date": "2027-09-30"
    },
    {
      "name": "シャトレーゼ信州中野店",
      "name_kana": "シャトレーゼシンシュウナカノテン",
      "business_type": "③ 乳類販売業",
      "address": "長野県中野市中野市５１９",
      "lat": 36.741999,
      "lng": 138.369355,
      "geocoding_level": null,
      "phone": "0269-38-1317",
      "license_no": "",
      "license_date": null,
      "expire_date": null
    },
    {
      "name": "焼肉乃上　本店",
      "name_kana": "ヤキニクノカミホンテン",
      "business_type": "① 飲食店営業",
      "address": "長野県中野市中央３丁目１－２３",
      "lat": 36.746418,
      "lng": 138.369643,
      "geocoding_level": null,
      "phone": "080-9679-4567",
      "license_no": "17180193",
      "license_date": "2023-01-30",
      "expire_date": "2029-09-30"
    },
    {
      "name": "焼肉乃上　本店",
      "name_kana": "ヤキニクノカミ　ホンテン",
      "business_type": "① 飲食店営業",
      "address": "長野県中野市中央３丁目１－２３",
      "lat": 36.746502,
      "lng": 138.36976,
      "geocoding_level": null,
      "phone": "0269-38-1209",
      "license_no": "17182073",
      "license_date": "2024-03-06",
      "expire_date": "2029-09-30"
    },
    {
      "name": "焼肉乃上　本店",
      "name_kana": "ヤキニクノガミホンテン",
      "business_type": "㉕ そうざい製造業",
      "address": "長野県中野市中央3丁目１－２３",
      "lat": 36.746502,
      "lng": 138.36976,
      "geocoding_level": null,
      "phone": "0269-38-1209",
      "license_no": "17182170",
      "license_date": "2024-03-14",
      "expire_date": "2030-09-30"
    },
    {
      "name": "ファームさとう　きよみキッチン",
      "name_kana": "ファームサトウ　キヨミキッチン",
      "business_type": "① 飲食店営業",
      "address": "長野県中野市金井1208-1",
      "lat": 36.769191,
      "lng": 138.364616,
      "geocoding_level": null,
      "phone": "",
      "license_no": "17180485",
      "license_date": "2023-04-28",
      "expire_date": "2028-09-30"
    },
    {
      "name": "ファームさとう　きよみキッチン",
      "name_kana": "ファームサトウ　キヨミキッチン",
      "business_type": "㉔ その他の食料品製造・加工業",
      "address": "長野県中野市金井1208-1",
      "lat": 36.769191,
      "lng": 138.364616,
      "geocoding_level": null,
      "phone": "",
      "license_no": "",
      "license_date": null,
      "expire_date": null
    },
    {
      "name": "ファームさとう　きよみキッチン",
      "name_kana": "ファームサトウキヨミキッチン",
      "business_type": "㉕ そうざい製造業",
      "address": "長野県中野市金井１２０８－１",
      "lat": 36.769191,
      "lng": 138.364616,
      "geocoding_level": null,
      "phone": "090-4912-4059",
      "license_no": "17182237",
      "license_date": "2024-03-15",
      "expire_date": "2030-09-30"
    },
    {
      "name": "ファームさとう　きよみキッチン",
      "name_kana": "ファームサトウキヨミキッチン",
      "business_type": "① 飲食店営業",
      "address": "長野県中野市金井１２０８－１",
      "lat": 36.769176,
      "lng": 138.364614,
      "geocoding_level": null,
      "phone": "090-4912-4059",
      "license_no": "17183093",
      "license_date": "2024-08-06",
      "expire_date": "2030-09-30"
    },
    {
      "name": "北信商事株式会社",
      "name_kana": "ホクシンショウジカブシキガイシャ",
      "business_type": "⑧ 米穀類販売業",
      "address": "長野県中野市中央4丁目4番23号",
      "lat": 36.74486,
      "lng": 138.375401,
      "geocoding_level": null,
      "phone": "0269-22-4118",
      "license_no": "",
      "license_date": null,
      "expire_date": null
    },
    {
      "name": "オランチェ中野",
      "name_kana": "オランチェナカノ",
      "business_type": "⑫ 自動販売機による販売業（コップ式自動販売機（自動洗浄・屋内設置）及び営業許可の対象となる自動販売機を除く）",
      "address": "長野県中野市草間１５４３－５",
      "lat": 36.733848,
      "lng": 138.319066,
      "geocoding_level": null,
      "phone": "",
      "license_no": "",
      "license_date": null,
      "expire_date": null
    },
    {
      "name": "ニュー東京中野",
      "name_kana": "ニュートウキョウナカノ",
      "business_type": "⑫ 自動販売機による販売業（コップ式自動販売機（自動洗浄・屋内設置）及び営業許可の対象となる自動販売機を除く）",
      "address": "長野県中野市江部288-1",
      "lat": 36.731623,
      "lng": 138.343092,
      "geocoding_level": null,
      "phone": "",
      "license_no": "",
      "license_date": null,
      "expire_date": null
    },
    {
      "name": "ミールケア　もえぎ事業所",
      "name_kana": "ミールケア　モエギジギョウショ",
      "business_type": "① 飲食店営業",
      "address": "長野県中野市吉田123-1",
      "lat": 36.752551,
      "lng": 138.351935,
      "geocoding_level": null,
      "phone": "",
      "license_no": "17185518",
      "license_date": "2026-05-12",
      "expire_date": "2032-09-30"
    },
    {
      "name": "焼肉カルビ屋三夢中野店",
      "name_kana": "ヤキニクカルビヤサムナカノテン",
      "business_type": "㉙ その他",
      "address": "長野県中野市一本木308-1",
      "lat": 36.758781,
      "lng": 138.375079,
      "geocoding_level": null,
      "phone": "0269227667",
      "license_no": "",
      "license_date": null,
      "expire_date": null
    },
    {
      "name": "焼肉カルビ屋三夢中野店",
      "name_kana": "ヤキニクカルビヤサムナカノテン",
      "business_type": "② 食肉販売業（包装済みの食肉のみの販売）",
      "address": "長野県中野市中野市一本木308-1",
      "lat": 36.758781,
      "lng": 138.375079,
      "geocoding_level": null,
      "phone": "0269227667",
      "license_no": "",
      "license_date": null,
      "expire_date": null
    },
    {
      "name": "さくら保育園",
      "name_kana": "サクラホイクエン",
      "business_type": "㉖ 集団給食施設",
      "address": "長野県中野市小田中119番地1",
      "lat": 36.741831,
      "lng": 138.376638,
      "geocoding_level": null,
      "phone": "0269-22-3244",
      "license_no": "",
      "license_date": null,
      "expire_date": null
    },
    {
      "name": "みなみ保育園",
      "name_kana": "ミナミホイクエン",
      "business_type": "㉖ 集団給食施設",
      "address": "長野県中野市大字新野335番地2",
      "lat": 36.724995,
      "lng": 138.368298,
      "geocoding_level": null,
      "phone": "0269-26-2187",
      "license_no": "",
      "license_date": null,
      "expire_date": null
    },
    {
      "name": "ひらおか保育園",
      "name_kana": "ヒラオカホイクエン",
      "business_type": "㉖ 集団給食施設",
      "address": "長野県中野市大字間長瀬496番地2",
      "lat": 36.776694,
      "lng": 138.359653,
      "geocoding_level": null,
      "phone": "0269-26-2525",
      "license_no": "",
      "license_date": null,
      "expire_date": null
    },
    {
      "name": "たかやしろ保育園",
      "name_kana": "タカヤシロホイクエン",
      "business_type": "㉖ 集団給食施設",
      "address": "長野県中野市大字赤岩1525番地2",
      "lat": 36.788377,
      "lng": 138.361712,
      "geocoding_level": null,
      "phone": "0269-22-6611",
      "license_no": "",
      "license_date": null,
      "expire_date": null
    },
    {
      "name": "ひまわり保育園",
      "name_kana": "ヒマワリホイクエン",
      "business_type": "㉖ 集団給食施設",
      "address": "長野県中野市三好町一丁目6番12号",
      "lat": 36.743379,
      "lng": 138.368006,
      "geocoding_level": null,
      "phone": "0269-22-3324",
      "license_no": "",
      "license_date": null,
      "expire_date": null
    },
    {
      "name": "松川保育園",
      "name_kana": "マツカワホイクエン",
      "business_type": "㉖ 集団給食施設",
      "address": "長野県中野市中野1461番地1",
      "lat": 36.748465,
      "lng": 138.37695,
      "geocoding_level": null,
      "phone": "0269-22-2248",
      "license_no": "",
      "license_date": null,
      "expire_date": null
    },
    {
      "name": "中野市とよた保育園",
      "name_kana": "ナカノシトヨタホイクエン",
      "business_type": "㉖ 集団給食施設",
      "address": "長野県中野市大字豊津３０７９番地１",
      "lat": 36.776003,
      "lng": 138.329102,
      "geocoding_level": null,
      "phone": "0269-38-2123",
      "license_no": "",
      "license_date": null,
      "expire_date": null
    },
    {
      "name": "マスニ農園",
      "name_kana": "マスニノウエン",
      "business_type": "㉔ その他の食料品製造・加工業",
      "address": "長野県中野市豊津4277-5",
      "lat": 36.775538,
      "lng": 138.32528,
      "geocoding_level": null,
      "phone": "0269-38-3056",
      "license_no": "",
      "license_date": null,
      "expire_date": null
    },
    {
      "name": "北信総合病院　老人保健施設もえぎ",
      "name_kana": "ホクシンソウゴウビョウインロウジンホケンシセツモエギ",
      "business_type": "① 飲食店営業",
      "address": "長野県中野市吉田１２３－１",
      "lat": 36.752551,
      "lng": 138.351935,
      "geocoding_level": null,
      "phone": "0269-22-7800",
      "license_no": "17171529",
      "license_date": "2023-09-29",
      "expire_date": "2029-09-30"
    },
    {
      "name": "株式会社高見澤　特産事業部",
      "name_kana": "カブシキガイシャタカミサワ　トクサンジギョウブ",
      "business_type": "⑦ 野菜果物販売業",
      "address": "長野県中野市安源寺708",
      "lat": 36.73966,
      "lng": 138.331662,
      "geocoding_level": null,
      "phone": "0269-22-3121",
      "license_no": "",
      "license_date": null,
      "expire_date": null
    },
    {
      "name": "原澤　哲男",
      "name_kana": "ハラサワ　テツオ",
      "business_type": "㉔ その他の食料品製造・加工業",
      "address": "長野県中野市田麦４３",
      "lat": 36.768798,
      "lng": 138.347882,
      "geocoding_level": null,
      "phone": "090-8328-4139",
      "license_no": "",
      "license_date": null,
      "expire_date": null
    },
    {
      "name": "ハニーショップ町田養蜂",
      "name_kana": "ハニーショップマチダヨウホウ",
      "business_type": "㉔ その他の食料品製造・加工業",
      "address": "長野県中野市吉田611-4",
      "lat": 36.754338,
      "lng": 138.35913,
      "geocoding_level": null,
      "phone": "0269-22-5600",
      "license_no": "",
      "license_date": null,
      "expire_date": null
    },
    {
      "name": "北信州養蜂園",
      "name_kana": "キタシンシュウヨウホウエン",
      "business_type": "㉔ その他の食料品製造・加工業",
      "address": "長野県中野市間山307",
      "lat": 36.713551,
      "lng": 138.378411,
      "geocoding_level": null,
      "phone": "0269-26-7616",
      "license_no": "",
      "license_date": null,
      "expire_date": null
    },
    {
      "name": "株式会社西友　中野駅前店",
      "name_kana": "カブシキガイシャセイユウ　ナカノエキマエテン",
      "business_type": "④ 魚介類販売業",
      "address": "長野県中野市岩船字西条境 420",
      "lat": 36.742014,
      "lng": 138.355168,
      "geocoding_level": null,
      "phone": "0269-23-3333",
      "license_no": "17142119",
      "license_date": "2025-09-30",
      "expire_date": "2031-09-30"
    },
    {
      "name": "株式会社西友　中野駅前店",
      "name_kana": "カブシキガイシャセイユウ　ナカノエキマエテン",
      "business_type": "⑪ 百貨店、総合スーパー",
      "address": "長野県中野市岩船字西条境420",
      "lat": 36.742014,
      "lng": 138.355168,
      "geocoding_level": null,
      "phone": "0269-23-3333",
      "license_no": "",
      "license_date": null,
      "expire_date": null
    },
    {
      "name": "株式会社西友　中野駅前店　若菜",
      "name_kana": "カブシキガイシャセイユウ　ナカノエキマエテン　ワカナ",
      "business_type": "① 飲食店営業",
      "address": "長野県中野市岩船西条境420",
      "lat": 36.736953,
      "lng": 138.356415,
      "geocoding_level": null,
      "phone": "0269-23-3333",
      "license_no": "17151171",
      "license_date": "2023-09-29",
      "expire_date": "2029-09-30"
    },
    {
      "name": "（有）金子きのこ園",
      "name_kana": "カネコキノコエン",
      "business_type": "⑰ 農産保存食料品製造・加工業",
      "address": "長野県中野市大字三ツ和１２７２",
      "lat": 36.720476,
      "lng": 138.351722,
      "geocoding_level": null,
      "phone": "0269-26-0091",
      "license_no": "",
      "license_date": null,
      "expire_date": null
    },
    {
      "name": "北信州はちみつ屋　８８８",
      "name_kana": "キタシンシュウハチミツヤ　ハチハチハチ",
      "business_type": "㉔ その他の食料品製造・加工業",
      "address": "長野県中野市中野1529-7",
      "lat": 36.748937,
      "lng": 138.374982,
      "geocoding_level": null,
      "phone": "0269-26-3807",
      "license_no": "",
      "license_date": null,
      "expire_date": null
    },
    {
      "name": "永池　澄雄",
      "name_kana": "ナガイケ　スミオ",
      "business_type": "⑬ その他の食料・飲料販売業",
      "address": "長野県中野市大字中野270-1",
      "lat": 36.737228,
      "lng": 138.367271,
      "geocoding_level": null,
      "phone": "0269-22-3650",
      "license_no": "",
      "license_date": null,
      "expire_date": null
    },
    {
      "name": "屯",
      "name_kana": "タムロ",
      "business_type": "① 飲食店営業",
      "address": "長野県中野市中央１－１－１０",
      "lat": 36.744979,
      "lng": 138.372624,
      "geocoding_level": null,
      "phone": "0269-38-1909",
      "license_no": "17181612",
      "license_date": "2023-12-04",
      "expire_date": "2030-09-30"
    },
    {
      "name": "株式会社タカギセイコー",
      "name_kana": "カブシキガイシャタカギセイコー",
      "business_type": "① 飲食店営業",
      "address": "長野県中野市岩船３３０－２",
      "lat": 36.74466,
      "lng": 138.359122,
      "geocoding_level": null,
      "phone": "",
      "license_no": "17173722",
      "license_date": "2024-09-30",
      "expire_date": "2030-09-30"
    },
    {
      "name": "ウエルシア中野駅前店",
      "name_kana": "ウエルシアナカノエキマエテン",
      "business_type": "⑪ 百貨店、総合スーパー",
      "address": "長野県中野市西条字並柳1269",
      "lat": 36.209668,
      "lng": 137.979977,
      "geocoding_level": null,
      "phone": "0269245078",
      "license_no": "",
      "license_date": null,
      "expire_date": null
    },
    {
      "name": "荒井青果店",
      "name_kana": "アライセイカテン",
      "business_type": "① 飲食店営業",
      "address": "長野県中野市中央４丁目３の２６",
      "lat": 36.744985,
      "lng": 138.374319,
      "geocoding_level": null,
      "phone": "080-3250-9515",
      "license_no": "17178502",
      "license_date": "2021-08-30",
      "expire_date": "2027-09-30"
    },
    {
      "name": "ｎａｎａ－ｍａｒ",
      "name_kana": "ナナマール",
      "business_type": "① 飲食店営業",
      "address": "長野県中野市中央２－２－６",
      "lat": 36.744723,
      "lng": 138.371981,
      "geocoding_level": null,
      "phone": "070-8510-3977",
      "license_no": "17178534",
      "license_date": "2021-09-10",
      "expire_date": "2026-09-30"
    },
    {
      "name": "nana-mar",
      "name_kana": "ナナマール",
      "business_type": "⑬ その他の食料・飲料販売業",
      "address": "長野県中野市中央２－２－６",
      "lat": 36.744723,
      "lng": 138.371981,
      "geocoding_level": null,
      "phone": "070-8510-3977",
      "license_no": "",
      "license_date": null,
      "expire_date": null
    },
    {
      "name": "ｎａｎａ－ｍａｒ",
      "name_kana": "ナナマール",
      "business_type": "① 飲食店営業",
      "address": "長野県中野市諏訪町２－２１",
      "lat": 36.745478,
      "lng": 138.377057,
      "geocoding_level": null,
      "phone": "070-8510-3977",
      "license_no": "17182333",
      "license_date": "2024-04-12",
      "expire_date": "2030-09-30"
    },
    {
      "name": "ｎａｎａ－ｍａｒ",
      "name_kana": "ナナマール",
      "business_type": "⑪ 菓子製造業",
      "address": "長野県中野市諏訪町２－２１",
      "lat": 36.745478,
      "lng": 138.377057,
      "geocoding_level": null,
      "phone": "070-8510-3977",
      "license_no": "17182341",
      "license_date": "2024-04-12",
      "expire_date": "2030-09-30"
    },
    {
      "name": "珈琲豆焙煎こかげ",
      "name_kana": "コーヒーマメバイセンコカゲ",
      "business_type": "⑯ コーヒー製造・加工業（飲料の製造を除く。）",
      "address": "長野県中野市新保935-2",
      "lat": 36.728524,
      "lng": 138.352377,
      "geocoding_level": null,
      "phone": "0269380011",
      "license_no": "",
      "license_date": null,
      "expire_date": null
    },
    {
      "name": "中野市農協　北部ライスセンター",
      "name_kana": "ナカノシノウキョウホクブライスセンター",
      "business_type": "⑧ 米穀類販売業",
      "address": "長野県中野市大字壁田1553‐1番地",
      "lat": 36.780412,
      "lng": 138.349263,
      "geocoding_level": null,
      "phone": "0269-22-4191",
      "license_no": "",
      "license_date": null,
      "expire_date": null
    },
    {
      "name": "みゆき野青果株式会社",
      "name_kana": "ミユキノセイカカブシキカイシャ",
      "business_type": "⑦ 野菜果物販売業",
      "address": "長野県中野市大字田麦大清水５６７－１",
      "lat": 36.767005,
      "lng": 138.355987,
      "geocoding_level": null,
      "phone": "",
      "license_no": "",
      "license_date": null,
      "expire_date": null
    },
    {
      "name": "すき家　403号中野江部店",
      "name_kana": "スキヤ　ヨンヒャクサンゴウナカノエベテン",
      "business_type": "① 飲食店営業",
      "address": "長野県中野市江部1371番地5",
      "lat": 36.74376,
      "lng": 138.350855,
      "geocoding_level": null,
      "phone": "",
      "license_no": "17183061",
      "license_date": "2024-08-05",
      "expire_date": "2030-09-30"
    },
    {
      "name": "すき家　403号中野江部店",
      "name_kana": "スキヤ　ヨンヒャクサンゴウナカノエベテン",
      "business_type": "⑬ その他の食料・飲料販売業",
      "address": "長野県中野市江部1371番地5",
      "lat": 36.74376,
      "lng": 138.350855,
      "geocoding_level": null,
      "phone": "",
      "license_no": "",
      "license_date": null,
      "expire_date": null
    },
    {
      "name": "信州笹ずし本舗",
      "name_kana": "シンシュウササズシホンポ",
      "business_type": "㉕ そうざい製造業",
      "address": "長野県中野市新保７３０－６",
      "lat": 36.731328,
      "lng": 138.35419,
      "geocoding_level": null,
      "phone": "090-8946-8472",
      "license_no": "17178559",
      "license_date": "2021-09-22",
      "expire_date": "2027-09-30"
    },
    {
      "name": "株式会社　丸世醸造場",
      "name_kana": "カブシキガイシャマルセジョウゾウジョウ",
      "business_type": "⑳ みそ又はしょうゆ製造業",
      "address": "長野県中野市大字西条字クネ下１１番地１号",
      "lat": 36.736953,
      "lng": 138.356415,
      "geocoding_level": null,
      "phone": "0269-22-3447",
      "license_no": "17178598",
      "license_date": "2021-09-28",
      "expire_date": "2026-09-30"
    },
    {
      "name": "株式会社　丸世醸造場",
      "name_kana": "カブシキガイシャマルセジョウゾウジョウ",
      "business_type": "㉙ 漬物製造業",
      "address": "長野県中野市大字西条字クネ下１１番地１号",
      "lat": 36.736953,
      "lng": 138.356415,
      "geocoding_level": null,
      "phone": "0269-22-3447",
      "license_no": "17178609",
      "license_date": "2021-09-28",
      "expire_date": "2026-09-30"
    },
    {
      "name": "株式会社　丸世醸造場",
      "name_kana": "カブシキガイシャマルセジョウゾウジョウ",
      "business_type": "㉚ 密封包装食品製造業",
      "address": "長野県中野市大字西条字クネ下１１番地１号",
      "lat": 36.736953,
      "lng": 138.356415,
      "geocoding_level": null,
      "phone": "0269-22-3447",
      "license_no": "17178616",
      "license_date": "2021-09-28",
      "expire_date": "2026-09-30"
    },
    {
      "name": "ｋｉｔｃｈｅｎ　ｖｉｃｋｙ",
      "name_kana": "キッチン　ビッキー",
      "business_type": "① 飲食店営業",
      "address": "長野県中野市中野１７８５－１",
      "lat": 36.749456,
      "lng": 138.371932,
      "geocoding_level": null,
      "phone": "",
      "license_no": "17178581",
      "license_date": "2021-09-29",
      "expire_date": "2026-09-30"
    },
    {
      "name": "ｋｉｔｃｈｅｎ　ｖｉｃｋｙ",
      "name_kana": "キッチンビッキー",
      "business_type": "⑪ 菓子製造業",
      "address": "長野県中野市中野１７８５－１",
      "lat": 36.752053,
      "lng": 138.381354,
      "geocoding_level": null,
      "phone": "",
      "license_no": "17183983",
      "license_date": "2025-02-19",
      "expire_date": "2031-09-30"
    },
    {
      "name": "ｋｉｔｃｈｅｎ　ｖｉｃｋｙ",
      "name_kana": "キッチンビッキー",
      "business_type": "① 飲食店営業",
      "address": "長野県中野市壁田１５７２ ＨＵＢＬＩＣ　ＮＡＫＡＮＯ",
      "lat": 36.778709,
      "lng": 138.34839,
      "geocoding_level": null,
      "phone": "",
      "license_no": "17183991",
      "license_date": "2025-02-19",
      "expire_date": "2031-09-30"
    },
    {
      "name": "東京食堂",
      "name_kana": "トウキョウショクドウ",
      "business_type": "① 飲食店営業",
      "address": "長野県中野市江部２８８－１",
      "lat": 36.731623,
      "lng": 138.343092,
      "geocoding_level": null,
      "phone": "",
      "license_no": "17164368",
      "license_date": "2025-09-30",
      "expire_date": "2031-09-30"
    },
    {
      "name": "ジンギスカン",
      "name_kana": "ジンギスカン",
      "business_type": "① 飲食店営業",
      "address": "長野県中野市中央４－３－２番地",
      "lat": 36.745275,
      "lng": 138.373852,
      "geocoding_level": null,
      "phone": "0269-26-1577",
      "license_no": "15113802",
      "license_date": "2021-09-30",
      "expire_date": "2026-09-30"
    },
    {
      "name": "ローソン中野新保店",
      "name_kana": "ローソンナカノシンポテン",
      "business_type": "① 魚介類販売業（包装済みの魚介類のみの販売）",
      "address": "長野県中野市新保割目921－1",
      "lat": 36.726468,
      "lng": 138.350182,
      "geocoding_level": null,
      "phone": "0269231677",
      "license_no": "",
      "license_date": null,
      "expire_date": null
    },
    {
      "name": "ローソン中野新保店",
      "name_kana": "ローソンナカノシンポテン",
      "business_type": "② 食肉販売業（包装済みの食肉のみの販売）",
      "address": "長野県中野市新保割目921－1",
      "lat": 36.726468,
      "lng": 138.350182,
      "geocoding_level": null,
      "phone": "0269231677",
      "license_no": "",
      "license_date": null,
      "expire_date": null
    },
    {
      "name": "ローソン中野新保店",
      "name_kana": "ローソンナカノシンポテン",
      "business_type": "③ 乳類販売業",
      "address": "長野県中野市新保割目921－1",
      "lat": 36.726468,
      "lng": 138.350182,
      "geocoding_level": null,
      "phone": "0269231677",
      "license_no": "",
      "license_date": null,
      "expire_date": null
    },
    {
      "name": "信州フルーツランド　信州中野インター店　１F",
      "name_kana": "シンシュウフルーツランド　シンシュウナカノインターテン　１F",
      "business_type": "① 飲食店営業",
      "address": "長野県中野市草間安源寺境１３５６－１",
      "lat": 36.741132,
      "lng": 138.325527,
      "geocoding_level": null,
      "phone": "0269-22-2530",
      "license_no": "17147408",
      "license_date": "2021-09-30",
      "expire_date": "2026-09-30"
    },
    {
      "name": "信州フルーツランド　信州中野インター店　２F",
      "name_kana": "シンシュウフルーツランド　シンシュウナカノインターテン",
      "business_type": "① 飲食店営業",
      "address": "長野県中野市草間安源寺境１３５６－１",
      "lat": 36.741132,
      "lng": 138.325527,
      "geocoding_level": null,
      "phone": "0269-22-2530",
      "license_no": "17147415",
      "license_date": "2021-09-30",
      "expire_date": "2026-09-30"
    },
    {
      "name": "信州フルーツランド",
      "name_kana": "シンシュウフルーツランド",
      "business_type": "① 飲食店営業",
      "address": "長野県中野市草間安源寺境１３５６－１",
      "lat": 36.741132,
      "lng": 138.325527,
      "geocoding_level": null,
      "phone": "0269-22-2530",
      "license_no": "15126828",
      "license_date": "2021-09-30",
      "expire_date": "2026-09-30"
    },
    {
      "name": "信州フルーツランド信州中野インター店",
      "name_kana": "シンシュウフルーツランドシンシュウナカノインターテン",
      "business_type": "⑦ 野菜果物販売業",
      "address": "長野県中野市草間安源寺境1356-1",
      "lat": 36.741132,
      "lng": 138.325527,
      "geocoding_level": null,
      "phone": "",
      "license_no": "",
      "license_date": null,
      "expire_date": null
    },
    {
      "name": "築地銀だこイオン中野店",
      "name_kana": "ツキジギンダコイオンナカノテン",
      "business_type": "① 飲食店営業",
      "address": "長野県中野市一本木若宮２５２－１",
      "lat": 36.765219,
      "lng": 138.367636,
      "geocoding_level": null,
      "phone": "090-2751-7121",
      "license_no": "17150016",
      "license_date": "2023-09-29",
      "expire_date": "2029-09-30"
    },
    {
      "name": "魚がし",
      "name_kana": "ウオガシ",
      "business_type": "① 飲食店営業",
      "address": "長野県中野市西１－５－３９",
      "lat": 36.747099,
      "lng": 138.367675,
      "geocoding_level": null,
      "phone": "0269-22-4108",
      "license_no": "15125313",
      "license_date": "2021-09-30",
      "expire_date": "2028-09-30"
    },
    {
      "name": "旬菜懐石　吟",
      "name_kana": "シュンサイカイセキ　ギン",
      "business_type": "① 飲食店営業",
      "address": "長野県中野市間山９９８－８",
      "lat": 36.712686,
      "lng": 138.382621,
      "geocoding_level": null,
      "phone": "0269-23-1919",
      "license_no": "17141323",
      "license_date": "2021-09-30",
      "expire_date": "2028-09-30"
    },
    {
      "name": "ローソン中野運動公園前店",
      "name_kana": "ローソンナカノウンドウコウエンマエテン",
      "business_type": "① 飲食店営業",
      "address": "長野県中野市一本木３６７番地３",
      "lat": 36.75834,
      "lng": 138.378845,
      "geocoding_level": null,
      "phone": "0269-23-0122",
      "license_no": "17153197",
      "license_date": "2021-09-30",
      "expire_date": "2026-09-30"
    },
    {
      "name": "金太僂",
      "name_kana": "キンタロウ",
      "business_type": "① 飲食店営業",
      "address": "長野県中野市大字吉田字柿ノ木７６８－１１",
      "lat": 36.753888,
      "lng": 138.365833,
      "geocoding_level": null,
      "phone": "0269-23-3465",
      "license_no": "17146263",
      "license_date": "2021-09-30",
      "expire_date": "2027-09-30"
    },
    {
      "name": "居食屋　菜游季",
      "name_kana": "イショクヤ　サイユウキ",
      "business_type": "① 飲食店営業",
      "address": "長野県中野市大字吉田１２８２－２８",
      "lat": 36.751185,
      "lng": 138.370578,
      "geocoding_level": null,
      "phone": "0269-26-0688",
      "license_no": "17147301",
      "license_date": "2021-09-30",
      "expire_date": "2027-09-30"
    },
    {
      "name": "中よう",
      "name_kana": "チュウヨウ",
      "business_type": "① 飲食店営業",
      "address": "長野県中野市中央１－１１－１６",
      "lat": 36.746133,
      "lng": 138.368873,
      "geocoding_level": null,
      "phone": "",
      "license_no": "17156624",
      "license_date": "2021-09-30",
      "expire_date": "2027-09-30"
    },
    {
      "name": "らーめん文太　３号車",
      "name_kana": "ラーメンブンタ　サンゴウシャ",
      "business_type": "① 飲食店営業",
      "address": "長野県中野市壁田１０３０－５",
      "lat": 36.788837,
      "lng": 138.349308,
      "geocoding_level": null,
      "phone": "",
      "license_no": "17178655",
      "license_date": "2021-10-20",
      "expire_date": "2027-09-30"
    },
    {
      "name": "ファミリーマート信州中野江部店",
      "name_kana": "ファミリーマートシンシュウナカノエベテン",
      "business_type": "⑩ コンビニエンスストア",
      "address": "長野県中野市江部１３３４－１",
      "lat": 36.743282,
      "lng": 138.34802,
      "geocoding_level": null,
      "phone": "",
      "license_no": "",
      "license_date": null,
      "expire_date": null
    },
    {
      "name": "株式会社ハーツ",
      "name_kana": "カブシキガイシャハーツ",
      "business_type": "⑦ 野菜果物販売業",
      "address": "長野県中野市安源寺429",
      "lat": 36.738826,
      "lng": 138.334622,
      "geocoding_level": null,
      "phone": "0269-24-5000",
      "license_no": "",
      "license_date": null,
      "expire_date": null
    },
    {
      "name": "ソワレ",
      "name_kana": "ソワレ",
      "business_type": "① 飲食店営業",
      "address": "長野県中野市中央１丁目４－６ ポエムビル",
      "lat": 36.744541,
      "lng": 138.369182,
      "geocoding_level": null,
      "phone": "090-5767-7714",
      "license_no": "17167193",
      "license_date": "2021-09-30",
      "expire_date": "2027-09-30"
    },
    {
      "name": "うまのす家",
      "name_kana": "ウマノスケ",
      "business_type": "① 飲食店営業",
      "address": "長野県中野市西１－３－２",
      "lat": 36.745112,
      "lng": 138.365512,
      "geocoding_level": null,
      "phone": "0269-38-0182",
      "license_no": "17167617",
      "license_date": "2021-09-30",
      "expire_date": "2027-09-30"
    },
    {
      "name": "ゲストハウスかのか",
      "name_kana": "ゲストハウスカノカ",
      "business_type": "① 飲食店営業",
      "address": "長野県中野市金井５３０－４，５４８－１，５４８－６",
      "lat": 36.772622,
      "lng": 138.367422,
      "geocoding_level": null,
      "phone": "0269-38-1622",
      "license_no": "17167663",
      "license_date": "2021-09-30",
      "expire_date": "2027-09-30"
    },
    {
      "name": "田りた麺之助",
      "name_kana": "タリタメンノスケ",
      "business_type": "① 飲食店営業",
      "address": "長野県中野市安源寺４２９",
      "lat": 36.738826,
      "lng": 138.334622,
      "geocoding_level": null,
      "phone": "090-3961-9431",
      "license_no": "17167695",
      "license_date": "2021-09-30",
      "expire_date": "2027-09-30"
    },
    {
      "name": "今どきの笹",
      "name_kana": "イマドキノササ",
      "business_type": "① 飲食店営業",
      "address": "長野県中野市吉田１１０５",
      "lat": 36.748387,
      "lng": 138.361378,
      "geocoding_level": null,
      "phone": "0269-22-6944",
      "license_no": "17168651",
      "license_date": "2021-09-30",
      "expire_date": "2027-09-30"
    },
    {
      "name": "スターズ",
      "name_kana": "スターズ",
      "business_type": "① 飲食店営業",
      "address": "長野県中野市中央１－８－２６",
      "lat": 36.745908,
      "lng": 138.369575,
      "geocoding_level": null,
      "phone": "0269-23-0333",
      "license_no": "17168765",
      "license_date": "2021-09-30",
      "expire_date": "2027-09-30"
    },
    {
      "name": "酒処くらうん",
      "name_kana": "サケドコロクラウン",
      "business_type": "① 飲食店営業",
      "address": "長野県中野市中央１－２－５",
      "lat": 36.744979,
      "lng": 138.372624,
      "geocoding_level": null,
      "phone": "0269-22-2518",
      "license_no": "17169582",
      "license_date": "2021-09-30",
      "expire_date": "2026-09-30"
    },
    {
      "name": "エコレットカンパニー合同会社",
      "name_kana": "エコレットカンパニーゴウドウガイシャ",
      "business_type": "① 飲食店営業",
      "address": "長野県中野市東山３－１",
      "lat": 36.744897,
      "lng": 138.379384,
      "geocoding_level": null,
      "phone": "",
      "license_no": "17169697",
      "license_date": "2021-09-30",
      "expire_date": "2026-09-30"
    },
    {
      "name": "台湾料理　四季香",
      "name_kana": "タイワンリョウリシキゴ",
      "business_type": "① 飲食店営業",
      "address": "長野県中野市新保７９７番地",
      "lat": 36.729188,
      "lng": 138.351233,
      "geocoding_level": null,
      "phone": "0269-38-0203",
      "license_no": "17170289",
      "license_date": "2021-09-30",
      "expire_date": "2026-09-30"
    },
    {
      "name": "保倉産婦人科医院",
      "name_kana": "ホクラサンフジンカイイン",
      "business_type": "㉖ 集団給食施設",
      "address": "長野県中野市小田中２１０－２",
      "lat": 36.739971,
      "lng": 138.373277,
      "geocoding_level": null,
      "phone": "0269-22-5000",
      "license_no": "",
      "license_date": null,
      "expire_date": null
    },
    {
      "name": "(有)神農素",
      "name_kana": "ユウゲンガイシャシンノウソ",
      "business_type": "① 飲食店営業",
      "address": "長野県中野市若宮５６４－３",
      "lat": 36.758569,
      "lng": 138.368575,
      "geocoding_level": null,
      "phone": "",
      "license_no": "17170321",
      "license_date": "2021-09-30",
      "expire_date": "2026-09-30"
    },
    {
      "name": "レストランカフェ　マッシュルーム",
      "name_kana": "レストランカフェ　マッシュルーム",
      "business_type": "① 飲食店営業",
      "address": "長野県中野市越６７６－１",
      "lat": 36.777098,
      "lng": 138.373072,
      "geocoding_level": null,
      "phone": "",
      "license_no": "17170403",
      "license_date": "2021-09-30",
      "expire_date": "2026-09-30"
    },
    {
      "name": "レストラン＆カフェ　マッシュルーム",
      "name_kana": "レストランアンドカフェマッシュルーム",
      "business_type": "① 飲食店営業",
      "address": "長野県中野市大字越６７６番地１",
      "lat": 36.777098,
      "lng": 138.373072,
      "geocoding_level": null,
      "phone": "0269-22-5038",
      "license_no": "17174233",
      "license_date": "2024-09-30",
      "expire_date": "2029-09-30"
    },
    {
      "name": "ランタン　リルン",
      "name_kana": "ランタン　リルン",
      "business_type": "① 飲食店営業",
      "address": "長野県中野市岩船３０２－５",
      "lat": 36.745407,
      "lng": 138.360515,
      "geocoding_level": null,
      "phone": "0269-22-8660",
      "license_no": "17158123",
      "license_date": "2021-09-30",
      "expire_date": "2027-09-30"
    },
    {
      "name": "(株)しなのライフ",
      "name_kana": "カブシキガイシャシナノライフ",
      "business_type": "⑪ 菓子製造業",
      "address": "長野県中野市七瀬１６０９－１",
      "lat": 36.759124,
      "lng": 138.34502,
      "geocoding_level": null,
      "phone": "0269-23-5336",
      "license_no": "17157466",
      "license_date": "2021-09-30",
      "expire_date": "2027-09-30"
    },
    {
      "name": "コーヒーショップ　ター坊",
      "name_kana": "コーヒーショップ　ターボウ",
      "business_type": "① 飲食店営業",
      "address": "長野県中野市中央２－４－１４",
      "lat": 36.745164,
      "lng": 138.373345,
      "geocoding_level": null,
      "phone": "0269-22-2065",
      "license_no": "17153254",
      "license_date": "2021-09-30",
      "expire_date": "2026-09-30"
    },
    {
      "name": "株式会社　結貴堂",
      "name_kana": "カブシキガイシャ　ユウキドウ",
      "business_type": "⑪ 菓子製造業",
      "address": "長野県中野市中野１７６８",
      "lat": 36.748589,
      "lng": 138.371112,
      "geocoding_level": null,
      "phone": "0269-22-3634",
      "license_no": "15125078",
      "license_date": "2021-09-30",
      "expire_date": "2026-09-30"
    },
    {
      "name": "農工房「ほほえみ」",
      "name_kana": "ノウコウボウホホエミ",
      "business_type": "⑳ みそ又はしょうゆ製造業",
      "address": "長野県中野市三ツ和１９５２－１",
      "lat": 36.718254,
      "lng": 138.358713,
      "geocoding_level": null,
      "phone": "090-4918-8815",
      "license_no": "17160470",
      "license_date": "2021-09-30",
      "expire_date": "2026-09-30"
    },
    {
      "name": "農工房「ほほえみ」",
      "name_kana": "ノウコウボウホホエミ",
      "business_type": "㉕ そうざい製造業",
      "address": "長野県中野市三ツ和１９５２－１",
      "lat": 36.718254,
      "lng": 138.358713,
      "geocoding_level": null,
      "phone": "090-4918-8815",
      "license_no": "17161571",
      "license_date": "2023-09-29",
      "expire_date": "2029-09-30"
    },
    {
      "name": "岩下　友市",
      "name_kana": "イワシタ　トモイチ",
      "business_type": "㉔ その他の食料品製造・加工業",
      "address": "長野県中野市金井５５６－７",
      "lat": 36.772377,
      "lng": 138.36824,
      "geocoding_level": null,
      "phone": "0269-26-3465",
      "license_no": "",
      "license_date": null,
      "expire_date": null
    },
    {
      "name": "セブンイレブン　信州中野店",
      "name_kana": "セブンイレブン　シンシュウナカノテン",
      "business_type": "① 飲食店営業",
      "address": "長野県中野市中野西浦１７５３",
      "lat": 36.752053,
      "lng": 138.381354,
      "geocoding_level": null,
      "phone": "0269-22-2287",
      "license_no": "17143477",
      "license_date": "2021-09-30",
      "expire_date": "2026-09-30"
    },
    {
      "name": "セブン－イレブン　中野市江部北店",
      "name_kana": "セブンイレブンナカノシエベキタテン",
      "business_type": "① 飲食店営業",
      "address": "長野県中野市岩船江部境１８－２",
      "lat": 36.742014,
      "lng": 138.355168,
      "geocoding_level": null,
      "phone": "0269-23-2327",
      "license_no": "17171422",
      "license_date": "2022-09-30",
      "expire_date": "2027-09-30"
    },
    {
      "name": "セブン－イレブン　中野市江部北店",
      "name_kana": "セブンイレブンナカノシエベキタテン",
      "business_type": "① 魚介類販売業（包装済みの魚介類のみの販売）",
      "address": "長野県中野市岩船江部境１８－２",
      "lat": 36.730576,
      "lng": 138.341457,
      "geocoding_level": null,
      "phone": "0269-23-2327",
      "license_no": "",
      "license_date": null,
      "expire_date": null
    },
    {
      "name": "セブン－イレブン　中野市江部北店",
      "name_kana": "セブンイレブンナカノシエベキタテン",
      "business_type": "② 食肉販売業（包装済みの食肉のみの販売）",
      "address": "長野県中野市岩船江部境１８－２",
      "lat": 36.730576,
      "lng": 138.341457,
      "geocoding_level": null,
      "phone": "0269-23-2327",
      "license_no": "",
      "license_date": null,
      "expire_date": null
    },
    {
      "name": "セブン－イレブン　中野市江部北店",
      "name_kana": "セブンイレブンナカノシエベキタテン",
      "business_type": "③ 乳類販売業",
      "address": "長野県中野市岩船江部境１８－２",
      "lat": 36.730576,
      "lng": 138.341457,
      "geocoding_level": null,
      "phone": "0269-23-2327",
      "license_no": "",
      "license_date": null,
      "expire_date": null
    },
    {
      "name": "ケンタッキーフライドチキン　イオン中野店",
      "name_kana": "ケンタッキーフライドチキン　イオンナカノテン",
      "business_type": "⑬ その他の食料・飲料販売業",
      "address": "長野県中野市一本木若宮252-1",
      "lat": 36.758752,
      "lng": 138.372468,
      "geocoding_level": null,
      "phone": "",
      "license_no": "",
      "license_date": null,
      "expire_date": null
    },
    {
      "name": "マクドナルド信州中野店",
      "name_kana": "マクドナルドシンシュウナカノテン",
      "business_type": "① 飲食店営業",
      "address": "長野県中野市大字江部字松崎１３４３－２４",
      "lat": 37.934038,
      "lng": 139.113041,
      "geocoding_level": null,
      "phone": "0269-24-5405",
      "license_no": "17156738",
      "license_date": "2021-09-30",
      "expire_date": "2027-09-30"
    },
    {
      "name": "マクドナルド　イオン中野店",
      "name_kana": "マクドナルド　イオンナカノテン",
      "business_type": "③ 乳類販売業",
      "address": "長野県中野市大字一本木桜木２５２－１",
      "lat": 36.756051,
      "lng": 138.377612,
      "geocoding_level": null,
      "phone": "0269-23-5919",
      "license_no": "",
      "license_date": null,
      "expire_date": null
    },
    {
      "name": "マクドナルド　信州中野店",
      "name_kana": "マクドナルド　シンシュウナカノテン",
      "business_type": "③ 乳類販売業",
      "address": "長野県中野市大字江部字松崎１３４３－２４",
      "lat": 36.730576,
      "lng": 138.341457,
      "geocoding_level": null,
      "phone": "0269-24-5405",
      "license_no": "",
      "license_date": null,
      "expire_date": null
    },
    {
      "name": "マクドナルドイオン中野店",
      "name_kana": "マクドナルドイオンナカノテン",
      "business_type": "① 飲食店営業",
      "address": "長野県中野市一本木宮前２５２－１",
      "lat": 36.756051,
      "lng": 138.377612,
      "geocoding_level": null,
      "phone": "0269-23-5919",
      "license_no": "17156760",
      "license_date": "2021-09-30",
      "expire_date": "2027-09-30"
    },
    {
      "name": "株式会社ミクロ化学　新井第三工場",
      "name_kana": "カブシキガイシャミクロカガク　アライダイサンコウジョウ",
      "business_type": "㉗ 器具、容器包装の製造・加工業（合成樹脂が使用された器具又は容器包装の製造、加工に限る。）",
      "address": "長野県中野市大字新井２４１－１１",
      "lat": 36.762031,
      "lng": 138.360155,
      "geocoding_level": null,
      "phone": "0269-38-8861",
      "license_no": "",
      "license_date": null,
      "expire_date": null
    },
    {
      "name": "株式会社ミクロ化学　竹原工場",
      "name_kana": "カブシキガイシャミクロカガク　タケハラコウジョウ",
      "business_type": "㉗ 器具、容器包装の製造・加工業（合成樹脂が使用された器具又は容器包装の製造、加工に限る。）",
      "address": "長野県中野市竹原１７３１－４",
      "lat": 36.768177,
      "lng": 138.389194,
      "geocoding_level": null,
      "phone": "0269-22-5777",
      "license_no": "",
      "license_date": null,
      "expire_date": null
    },
    {
      "name": "柴草豆腐店",
      "name_kana": "シバクサトウフテン",
      "business_type": "㉒ 豆腐製造業",
      "address": "長野県中野市小田中１１１",
      "lat": 36.741168,
      "lng": 138.377503,
      "geocoding_level": null,
      "phone": "0269-22-5623",
      "license_no": "15007303",
      "license_date": "2021-09-30",
      "expire_date": "2026-09-30"
    },
    {
      "name": "(株)井賀屋酒造場",
      "name_kana": "カブシキガイシャイガヤシュゾウジョウ",
      "business_type": "㉑ 酒類製造業",
      "address": "長野県中野市中野１５９７",
      "lat": 36.747434,
      "lng": 138.373517,
      "geocoding_level": null,
      "phone": "0269-22-3064",
      "license_no": "15028113",
      "license_date": "2021-09-30",
      "expire_date": "2026-09-30"
    },
    {
      "name": "株式会社井賀屋酒造場",
      "name_kana": "カブシキガイシャイガヤシュゾウジョウ",
      "business_type": "① 飲食店営業",
      "address": "長野県中野市中野１５９７",
      "lat": 36.752053,
      "lng": 138.381354,
      "geocoding_level": null,
      "phone": "",
      "license_no": "17181092",
      "license_date": "2023-08-16",
      "expire_date": "2028-09-30"
    },
    {
      "name": "志賀泉酒造株式会社",
      "name_kana": "シガイズミシュゾウカブシキガイシャ",
      "business_type": "㉑ 酒類製造業",
      "address": "長野県中野市東山３番１号",
      "lat": 36.74488,
      "lng": 138.379366,
      "geocoding_level": null,
      "phone": "0269-22-3322",
      "license_no": "15028138",
      "license_date": "2021-09-30",
      "expire_date": "2026-09-30"
    },
    {
      "name": "(株)三京",
      "name_kana": "カブシキガイシャサンキョウ",
      "business_type": "㉜ 添加物製造業",
      "address": "長野県中野市江部字立畷７７０",
      "lat": 36.738839,
      "lng": 138.358662,
      "geocoding_level": null,
      "phone": "0269-22-3639",
      "license_no": "17170428",
      "license_date": "2021-09-30",
      "expire_date": "2026-09-30"
    },
    {
      "name": "ｃｈａｒｐｅｎｔｉｅｒ　ｄｅｓ　ｃｈｏｕｘ",
      "name_kana": "シャルパンティエ　デ　シュー",
      "business_type": "⑪ 菓子製造業",
      "address": "長野県中野市中央１丁目９－２ ブルータウン１０３",
      "lat": 36.745623,
      "lng": 138.369253,
      "geocoding_level": null,
      "phone": "",
      "license_no": "17178670",
      "license_date": "2021-10-22",
      "expire_date": "2028-09-30"
    },
    {
      "name": "ファミリーマート中野東吉田店",
      "name_kana": "ファミリーマートナカノヒガシヨシダテン",
      "business_type": "⑩ コンビニエンスストア",
      "address": "長野県中野市大字吉田６８４－１",
      "lat": 36.754401,
      "lng": 138.364611,
      "geocoding_level": null,
      "phone": "0269-24-6614",
      "license_no": "",
      "license_date": null,
      "expire_date": null
    },
    {
      "name": "JA長野厚生連　北信総合病院",
      "name_kana": "ジェイエイナガノコウセイレン　ホクシンソウゴウビョウイン",
      "business_type": "㉖ 集団給食施設",
      "address": "長野県中野市西1-5-63",
      "lat": 36.746929,
      "lng": 138.365331,
      "geocoding_level": null,
      "phone": "0269-22-2151",
      "license_no": "",
      "license_date": null,
      "expire_date": null
    },
    {
      "name": "晋平の里間山温泉公園 ぽんぽこの湯",
      "name_kana": "シンペイノサトマヤマオンセンコウエンポンポコノユ",
      "business_type": "㉕ そうざい製造業",
      "address": "長野県中野市間山956",
      "lat": 36.710023,
      "lng": 138.386265,
      "geocoding_level": null,
      "phone": "0269-23-2686",
      "license_no": "17179166",
      "license_date": "2022-04-28",
      "expire_date": "2028-09-30"
    },
    {
      "name": "PLAYCE",
      "name_kana": "プレイス",
      "business_type": "① 飲食店営業",
      "address": "長野県中野市間山956",
      "lat": 36.710023,
      "lng": 138.386265,
      "geocoding_level": null,
      "phone": "0269-23-2686",
      "license_no": "17179173",
      "license_date": "2022-04-28",
      "expire_date": "2028-09-30"
    },
    {
      "name": "晋平の里間山温泉公園　ぽんぽこの湯",
      "name_kana": "シンペイノサトマヤマオンセンコウエンポンポコノユ",
      "business_type": "② 食肉販売業（包装済みの食肉のみの販売）",
      "address": "長野県中野市間山956",
      "lat": 36.710023,
      "lng": 138.386265,
      "geocoding_level": null,
      "phone": "0269-23-2686",
      "license_no": "",
      "license_date": null,
      "expire_date": null
    },
    {
      "name": "信州中野観光センター",
      "name_kana": "シンシュウナカノカンコウセンター",
      "business_type": "① 飲食店営業",
      "address": "長野県中野市草間１５３９番地１",
      "lat": 36.733605,
      "lng": 138.318988,
      "geocoding_level": null,
      "phone": "0269-23-5581",
      "license_no": "17182454",
      "license_date": "2024-04-26",
      "expire_date": "2030-09-30"
    },
    {
      "name": "信州中野観光センター",
      "name_kana": "シンシュウナカノカンコウセンター",
      "business_type": "① 飲食店営業",
      "address": "長野県中野市草間１５３９－１",
      "lat": 36.733605,
      "lng": 138.318988,
      "geocoding_level": null,
      "phone": "0269-23-5581",
      "license_no": "17183022",
      "license_date": "2024-08-01",
      "expire_date": "2029-09-30"
    },
    {
      "name": "信州中野観光センター",
      "name_kana": "シンシュウナカノカンコウセンター",
      "business_type": "① 飲食店営業",
      "address": "長野県中野市草間１５３９－１",
      "lat": 36.733605,
      "lng": 138.318988,
      "geocoding_level": null,
      "phone": "0269-23-5581",
      "license_no": "17183030",
      "license_date": "2024-08-01",
      "expire_date": "2029-09-30"
    },
    {
      "name": "綿半スーパーセンター　中野店",
      "name_kana": "ワタハンスーパーセンター　ナカノテン",
      "business_type": "⑦ 野菜果物販売業",
      "address": "長野県中野市大字三ツ和字樋田87",
      "lat": 36.714583,
      "lng": 138.356415,
      "geocoding_level": null,
      "phone": "0269-24-5454",
      "license_no": "",
      "license_date": null,
      "expire_date": null
    },
    {
      "name": "綿半スーパーセンター　中野店",
      "name_kana": "ワタハンスーパーセンター　ナカノテン",
      "business_type": "⑪ 百貨店、総合スーパー",
      "address": "長野県中野市大字三ツ和字樋田87",
      "lat": 36.714583,
      "lng": 138.356415,
      "geocoding_level": null,
      "phone": "0269-24-5454",
      "license_no": "",
      "license_date": null,
      "expire_date": null
    },
    {
      "name": "（有）信州中野ファーム",
      "name_kana": "ユウゲンガイシャシンシュウナカノファーム",
      "business_type": "⑦ 野菜果物販売業",
      "address": "長野県中野市西条359",
      "lat": 36.733189,
      "lng": 138.353906,
      "geocoding_level": null,
      "phone": "0269232828",
      "license_no": "",
      "license_date": null,
      "expire_date": null
    },
    {
      "name": "Ｃｈｉｌｌ　Ｓｐｏｔ　Ｄｅｌ　Ｂａｒｒｉｏ",
      "name_kana": "チルスポットデルバリオ",
      "business_type": "① 飲食店営業",
      "address": "長野県中野市岩船４５２－３",
      "lat": 36.745194,
      "lng": 138.363408,
      "geocoding_level": null,
      "phone": "090-8553-4978",
      "license_no": "17181772",
      "license_date": "2023-12-20",
      "expire_date": "2029-09-30"
    },
    {
      "name": "ＮＡＫＡＮＯ　ＤＲＯＰ",
      "name_kana": "ナカノドロップ",
      "business_type": "① 飲食店営業",
      "address": "長野県中野市中央２丁目４－１７",
      "lat": 36.745041,
      "lng": 138.373384,
      "geocoding_level": null,
      "phone": "090-8553-4978",
      "license_no": "17181847",
      "license_date": "2023-12-27",
      "expire_date": "2029-09-30"
    },
    {
      "name": "飯山中央市場株式会社　長野青果販売所",
      "name_kana": "イイヤマチュウオウイチバカブシキカイシャ　ナガノセイカハンバイショ",
      "business_type": "⑦ 野菜果物販売業",
      "address": "長野県中野市江部1139",
      "lat": 36.737057,
      "lng": 138.345877,
      "geocoding_level": null,
      "phone": "",
      "license_no": "",
      "license_date": null,
      "expire_date": null
    },
    {
      "name": "信州つけもの美人",
      "name_kana": "シンシュウツケモノビト",
      "business_type": "㉙ 漬物製造業",
      "address": "長野県中野市吉田５１９ アップルシティなかの内",
      "lat": 36.754096,
      "lng": 138.357116,
      "geocoding_level": null,
      "phone": "",
      "license_no": "17178819",
      "license_date": "2021-10-19",
      "expire_date": "2028-09-30"
    },
    {
      "name": "新鮮屋　オタギリ",
      "name_kana": "シンセンヤオタギリ",
      "business_type": "① 飲食店営業",
      "address": "長野県中野市一本木３７５",
      "lat": 36.757346,
      "lng": 138.378832,
      "geocoding_level": null,
      "phone": "0269-22-4075",
      "license_no": "15122063",
      "license_date": "2021-09-30",
      "expire_date": "2026-09-30"
    },
    {
      "name": "日野農産物直売所",
      "name_kana": "ヒノノウサンブツチョクバイジョ",
      "business_type": "⑦ 野菜果物販売業",
      "address": "長野県中野市新野８０３－３",
      "lat": 36.722418,
      "lng": 138.375547,
      "geocoding_level": null,
      "phone": "",
      "license_no": "",
      "license_date": null,
      "expire_date": null
    },
    {
      "name": "牛角信州中野店",
      "name_kana": "ギュウカクシンシュウナカノテン",
      "business_type": "① 飲食店営業",
      "address": "長野県中野市吉田片塩境１２－７",
      "lat": 36.750373,
      "lng": 138.356415,
      "geocoding_level": null,
      "phone": "0269-24-0298",
      "license_no": "17150661",
      "license_date": "2023-09-29",
      "expire_date": "2029-09-30"
    },
    {
      "name": "(有)ナラヤ商店",
      "name_kana": "ユウゲンガイシャナラヤショウテン",
      "business_type": "⑦ 野菜果物販売業",
      "address": "長野県中野市中央１－９－１８",
      "lat": 36.745234,
      "lng": 138.370482,
      "geocoding_level": null,
      "phone": "0269-22-2359",
      "license_no": "",
      "license_date": null,
      "expire_date": null
    },
    {
      "name": "中野市北部学校給食センター",
      "name_kana": "ナカノシホクブガッコウキュウショクセンター",
      "business_type": "㉖ 集団給食施設",
      "address": "長野県中野市大字新井３３２番地１",
      "lat": 36.761212,
      "lng": 138.363973,
      "geocoding_level": null,
      "phone": "0269-34-6353",
      "license_no": "",
      "license_date": null,
      "expire_date": null
    },
    {
      "name": "中野市南部学校給食センター",
      "name_kana": "ナカノシナンブガッコウキュウショクセンター",
      "business_type": "㉖ 集団給食施設",
      "address": "長野県中野市大字西条１３８番地",
      "lat": 36.734865,
      "lng": 138.357583,
      "geocoding_level": null,
      "phone": "0269-22-3555",
      "license_no": "",
      "license_date": null,
      "expire_date": null
    },
    {
      "name": "北信濃ふるさとの森　文化公園",
      "name_kana": "キタシナノフルサトノモリブンカコウエン",
      "business_type": "① 飲食店営業",
      "address": "長野県中野市片塩１２２１",
      "lat": 36.751081,
      "lng": 138.340765,
      "geocoding_level": null,
      "phone": "0269-23-1021",
      "license_no": "17180446",
      "license_date": "2023-04-19",
      "expire_date": "2029-09-30"
    },
    {
      "name": "北信濃ふるさとの森　文化公園　ボブスレー乗り場",
      "name_kana": "キタシナノフルサトノモリブンカコウエンボブスレーノリバ",
      "business_type": "① 飲食店営業",
      "address": "長野県中野市片塩１２２１",
      "lat": 36.751081,
      "lng": 138.340765,
      "geocoding_level": null,
      "phone": "0269-23-1021",
      "license_no": "17180574",
      "license_date": "2023-05-23",
      "expire_date": "2029-09-30"
    },
    {
      "name": "中野市南部学校給食センター",
      "name_kana": "ナンブガッコウキュウショクセンター",
      "business_type": "① 飲食店営業",
      "address": "長野県中野市大字西条１３８番地",
      "lat": 36.734862,
      "lng": 138.357487,
      "geocoding_level": null,
      "phone": "0269223555",
      "license_no": "17174831",
      "license_date": "2025-09-30",
      "expire_date": "2031-09-30"
    },
    {
      "name": "ホームプラザナフコ　信州中野店",
      "name_kana": "ホームプラザナフコ　シンシュウナカノテン",
      "business_type": "⑬ その他の食料・飲料販売業",
      "address": "長野県中野市大字吉田９２２番地１",
      "lat": 36.752301,
      "lng": 138.357804,
      "geocoding_level": null,
      "phone": "0269-24-1181",
      "license_no": "",
      "license_date": null,
      "expire_date": null
    },
    {
      "name": "おおぎやラーメン　中野店",
      "name_kana": "オオギヤラーメンナカノテン",
      "business_type": "① 飲食店営業",
      "address": "長野県中野市大字岩船字道添３００－３",
      "lat": 36.742014,
      "lng": 138.355168,
      "geocoding_level": null,
      "phone": "0269-23-1630",
      "license_no": "17149455",
      "license_date": "2022-09-30",
      "expire_date": "2028-09-30"
    },
    {
      "name": "ママちきん（株式会社クロスロード）",
      "name_kana": "ママチキンカブシキカイシャクロスロード",
      "business_type": "① 飲食店営業",
      "address": "長野県中野市吉田９３－２",
      "lat": 36.753389,
      "lng": 138.353571,
      "geocoding_level": null,
      "phone": "0269-28-9011",
      "license_no": "17179052",
      "license_date": "2022-02-08",
      "expire_date": "2028-09-30"
    },
    {
      "name": "ぼたんこしょうファーム有限責任事業組合",
      "name_kana": "ボタンコショウファームユウゲンセキニンジギョウクミアイ",
      "business_type": "㉔ その他の食料品製造・加工業",
      "address": "長野県中野市永江７７０６番地３",
      "lat": 36.809254,
      "lng": 138.284526,
      "geocoding_level": null,
      "phone": "0269-38-3327",
      "license_no": "",
      "license_date": null,
      "expire_date": null
    },
    {
      "name": "ぼたんこしょうファーム有限責任事業組合",
      "name_kana": "ボタンコショウファームユウゲンセキニンジギョウクミアイ",
      "business_type": "㉙ 漬物製造業",
      "address": "長野県中野市大字永江7706-3",
      "lat": 36.809254,
      "lng": 138.284526,
      "geocoding_level": null,
      "phone": "0269383327",
      "license_no": "17180617",
      "license_date": "2023-06-02",
      "expire_date": "2030-05-31"
    },
    {
      "name": "信州なかの　高梨亭",
      "name_kana": "シンシュウナカノタカナシテイ",
      "business_type": "① 飲食店営業",
      "address": "長野県中野市小田中３９４－１ グランフォーレＴＴＫ１０７",
      "lat": 36.736659,
      "lng": 138.375001,
      "geocoding_level": null,
      "phone": "",
      "license_no": "17172677",
      "license_date": "2023-09-29",
      "expire_date": "2028-09-30"
    },
    {
      "name": "信州なかの高梨亭",
      "name_kana": "シンシュウナカノタカナシテイ",
      "business_type": "① 飲食店営業",
      "address": "長野県中野市小館２－１８",
      "lat": 36.743818,
      "lng": 138.375498,
      "geocoding_level": null,
      "phone": "0269380400",
      "license_no": "17163580",
      "license_date": "2025-09-30",
      "expire_date": "2031-09-30"
    },
    {
      "name": "酒のスーパータカぎ中野店",
      "name_kana": "サケノスーパータカギナカノテン",
      "business_type": "⑬ その他の食料・飲料販売業",
      "address": "長野県中野市大字江部畷上２９３",
      "lat": 36.730576,
      "lng": 138.341457,
      "geocoding_level": null,
      "phone": "0269-22-5959",
      "license_no": "",
      "license_date": null,
      "expire_date": null
    },
    {
      "name": "北信総合病院内セブンイレブン",
      "name_kana": "ホクシンソウゴウビョウインナイセブンイレブン",
      "business_type": "③ 乳類販売業",
      "address": "長野県中野市西1丁目5番63号",
      "lat": 36.746883,
      "lng": 138.36561,
      "geocoding_level": null,
      "phone": "",
      "license_no": "",
      "license_date": null,
      "expire_date": null
    },
    {
      "name": "有限会社小柳農園",
      "name_kana": "ユウゲンガイシャコヤナギノウエン",
      "business_type": "⑧ 米穀類販売業",
      "address": "長野県中野市柳沢1408‐イ",
      "lat": 36.804766,
      "lng": 138.359387,
      "geocoding_level": null,
      "phone": "",
      "license_no": "",
      "license_date": null,
      "expire_date": null
    },
    {
      "name": "(有)高丘フルーツ",
      "name_kana": "ユウゲンガイシャタカオカフルーツ",
      "business_type": "⑦ 野菜果物販売業",
      "address": "長野県中野市草間１６３０",
      "lat": 36.728671,
      "lng": 138.326503,
      "geocoding_level": null,
      "phone": "",
      "license_no": "",
      "license_date": null,
      "expire_date": null
    },
    {
      "name": "小林養蜂園",
      "name_kana": "コバヤシヨウホウエン",
      "business_type": "㉔ その他の食料品製造・加工業",
      "address": "長野県中野市間山1220－2",
      "lat": 36.713453,
      "lng": 138.376882,
      "geocoding_level": null,
      "phone": "0269267613",
      "license_no": "",
      "license_date": null,
      "expire_date": null
    },
    {
      "name": "エニタイムフィットネス 信州中野",
      "name_kana": "エニタイムフィットネスシンシュウナカノ",
      "business_type": "⑤ コップ式自動販売機（自動洗浄・屋内設置）",
      "address": "長野県中野市吉田16-3",
      "lat": 36.747337,
      "lng": 138.350688,
      "geocoding_level": null,
      "phone": "0263511234",
      "license_no": "",
      "license_date": null,
      "expire_date": null
    },
    {
      "name": "中野市豊田温泉公園　もみじ荘",
      "name_kana": "ナカノシトヨダオンセンコウエン　モミジソウ",
      "business_type": "⑦ 野菜果物販売業",
      "address": "長野県中野市上今井3460-1",
      "lat": 36.768423,
      "lng": 138.314431,
      "geocoding_level": null,
      "phone": "0269-38-3030",
      "license_no": "",
      "license_date": null,
      "expire_date": null
    },
    {
      "name": "ARTSQUARE宮前",
      "name_kana": "アートスクウェアミヤマエ",
      "business_type": "① 飲食店営業",
      "address": "長野県中野市大字田上９９５",
      "lat": 36.817273,
      "lng": 138.376916,
      "geocoding_level": null,
      "phone": "090-8328-5656",
      "license_no": "17179141",
      "license_date": "2022-04-25",
      "expire_date": "2028-09-30"
    },
    {
      "name": "新光電気工業株式会社　高岳工場　D棟",
      "name_kana": "シンコウデンキカブシキカイシャ　タカオカコウジョウ　デイトウ",
      "business_type": "⑫ 自動販売機による販売業（コップ式自動販売機（自動洗浄・屋内設置）及び営業許可の対象となる自動販売機を除く）",
      "address": "長野県中野市大字草間1216-9",
      "lat": 36.737963,
      "lng": 138.323927,
      "geocoding_level": null,
      "phone": "0269-24-1629",
      "license_no": "",
      "license_date": null,
      "expire_date": null
    },
    {
      "name": "新光電気工業株式会社　高岳工場　I棟",
      "name_kana": "シンコウデンキカブシキカイシャ　タカオカコウジョウ　アイトウ",
      "business_type": "⑫ 自動販売機による販売業（コップ式自動販売機（自動洗浄・屋内設置）及び営業許可の対象となる自動販売機を除く）",
      "address": "長野県中野市大字草間1216-9",
      "lat": 36.737963,
      "lng": 138.323927,
      "geocoding_level": null,
      "phone": "0269-24-1629",
      "license_no": "",
      "license_date": null,
      "expire_date": null
    },
    {
      "name": "新光電気工業株式会社　高岳工場　F棟",
      "name_kana": "シンコウデンキカブシキカイシャ　タカオカコウジョウ　エフトウ",
      "business_type": "⑫ 自動販売機による販売業（コップ式自動販売機（自動洗浄・屋内設置）及び営業許可の対象となる自動販売機を除く）",
      "address": "長野県中野市大字草間1216-9",
      "lat": 36.737963,
      "lng": 138.323927,
      "geocoding_level": null,
      "phone": "0269-24-1629",
      "license_no": "",
      "license_date": null,
      "expire_date": null
    },
    {
      "name": "新光電気工業株式会社　高岳工場　F棟",
      "name_kana": "シンコウデンキカブシキカイシャ　タカオカコウジョウ　エフトウ",
      "business_type": "⑫ 自動販売機による販売業（コップ式自動販売機（自動洗浄・屋内設置）及び営業許可の対象となる自動販売機を除く）",
      "address": "長野県中野市大字草間1216-9",
      "lat": 36.737963,
      "lng": 138.323927,
      "geocoding_level": null,
      "phone": "0269-24-1629",
      "license_no": "",
      "license_date": null,
      "expire_date": null
    },
    {
      "name": "株式会社　コシナ",
      "name_kana": "カブシキカイシャ　コシナ",
      "business_type": "⑫ 自動販売機による販売業（コップ式自動販売機（自動洗浄・屋内設置）及び営業許可の対象となる自動販売機を除く）",
      "address": "長野県中野市吉田1081",
      "lat": 36.747968,
      "lng": 138.362415,
      "geocoding_level": null,
      "phone": "0269-22-5100",
      "license_no": "",
      "license_date": null,
      "expire_date": null
    },
    {
      "name": "ニチアスセラテック株式会社　中野工場",
      "name_kana": "ニチアスセラテックカブシキカイシャ　ナカノコウジョウ",
      "business_type": "⑫ 自動販売機による販売業（コップ式自動販売機（自動洗浄・屋内設置）及び営業許可の対象となる自動販売機を除く）",
      "address": "長野県中野市草間2034",
      "lat": 36.727449,
      "lng": 138.319851,
      "geocoding_level": null,
      "phone": "0262621913",
      "license_no": "",
      "license_date": null,
      "expire_date": null
    },
    {
      "name": "北信ヤクルト販売(株)中野営業所",
      "name_kana": "ホクシンヤクルトハンバイナカノエイギョウショ",
      "business_type": "⑬ その他の食料・飲料販売業",
      "address": "長野県中野市西条字並柳1296",
      "lat": 37.746995,
      "lng": 140.446949,
      "geocoding_level": null,
      "phone": "",
      "license_no": "",
      "license_date": null,
      "expire_date": null
    },
    {
      "name": "北信ヤクルト販売(株)　中野センター",
      "name_kana": "ホクシンヤクルトハンバイ　ナカノセンター",
      "business_type": "⑬ その他の食料・飲料販売業",
      "address": "長野県中野市西条字並柳1296-2",
      "lat": 37.746995,
      "lng": 140.446949,
      "geocoding_level": null,
      "phone": "",
      "license_no": "",
      "license_date": null,
      "expire_date": null
    },
    {
      "name": "ヤクルト中野センター",
      "name_kana": "ヤクルトナカノセンター",
      "business_type": "③ 乳類販売業",
      "address": "長野県中野市西条並柳１５５５",
      "lat": 36.736953,
      "lng": 138.356415,
      "geocoding_level": null,
      "phone": "0269-22-7202",
      "license_no": "",
      "license_date": null,
      "expire_date": null
    },
    {
      "name": "キビネギ",
      "name_kana": "キビネギ",
      "business_type": "㉔ その他の食料品製造・加工業",
      "address": "長野県中野市江部２３４",
      "lat": 36.734109,
      "lng": 138.345235,
      "geocoding_level": null,
      "phone": "090-5219-7346",
      "license_no": "",
      "license_date": null,
      "expire_date": null
    },
    {
      "name": "キビネギ",
      "name_kana": "キビネギ",
      "business_type": "㉘ 露店、仮設店舗等における飲食の提供のうち、営業とみなされないもの",
      "address": "長野県中野市江部２３４",
      "lat": 36.734109,
      "lng": 138.345235,
      "geocoding_level": null,
      "phone": "090-5219-7346",
      "license_no": "",
      "license_date": null,
      "expire_date": null
    },
    {
      "name": "みかづきや",
      "name_kana": "ミカヅキヤ",
      "business_type": "① 飲食店営業",
      "address": "長野県中野市中野１９５－２",
      "lat": 36.736455,
      "lng": 138.367938,
      "geocoding_level": null,
      "phone": "090-9353-3747",
      "license_no": "17179383",
      "license_date": "2022-07-01",
      "expire_date": "2027-09-30"
    },
    {
      "name": "みかづきや珈琲",
      "name_kana": "ミカヅキヤコーヒー",
      "business_type": "① 飲食店営業",
      "address": "長野県中野市中野195-2 開土荘２号",
      "lat": 36.736455,
      "lng": 138.367938,
      "geocoding_level": null,
      "phone": "09093533747",
      "license_no": "17179593",
      "license_date": "2022-09-12",
      "expire_date": "2027-09-30"
    },
    {
      "name": "TEPPAN CAFE 50’s",
      "name_kana": "テッパン カフェ フィフティーズ",
      "business_type": "① 飲食店営業",
      "address": "長野県中野市西１丁目４ー３４",
      "lat": 36.745327,
      "lng": 138.366212,
      "geocoding_level": null,
      "phone": "090-2246-8973",
      "license_no": "17179223",
      "license_date": "2022-06-03",
      "expire_date": "2028-09-30"
    },
    {
      "name": "（株）ミールケア　ケアハウス聖峰事業所",
      "name_kana": "カブ　ミールケア　ケアハウスセイホウジギョウショ",
      "business_type": "① 飲食店営業",
      "address": "長野県中野市上今井６０１",
      "lat": 36.750866,
      "lng": 138.318787,
      "geocoding_level": null,
      "phone": "0269-24-3313",
      "license_no": "17148225",
      "license_date": "2022-05-31",
      "expire_date": "2028-05-31"
    },
    {
      "name": "（株）ミールケア　佐藤病院",
      "name_kana": "カブ　ミールケア　サトウビョウイン",
      "business_type": "① 飲食店営業",
      "address": "長野県中野市上今井６０１",
      "lat": 36.750866,
      "lng": 138.318787,
      "geocoding_level": null,
      "phone": "0269-24-3313",
      "license_no": "17148218",
      "license_date": "2022-05-31",
      "expire_date": "2028-05-31"
    },
    {
      "name": "あせび",
      "name_kana": "アセビ",
      "business_type": "⑪ 菓子製造業",
      "address": "長野県中野市田上牧の入２４６１－２",
      "lat": 34.562767,
      "lng": 135.716727,
      "geocoding_level": null,
      "phone": "",
      "license_no": "17179344",
      "license_date": "2022-06-17",
      "expire_date": "2029-02-28"
    },
    {
      "name": "屋台",
      "name_kana": "ヤタイ",
      "business_type": "① 飲食店営業",
      "address": "長野県中野市上今井２８７５－３",
      "lat": 36.756215,
      "lng": 138.317545,
      "geocoding_level": null,
      "phone": "",
      "license_no": "17162521",
      "license_date": "2022-05-31",
      "expire_date": "2027-05-31"
    },
    {
      "name": "リヤカー屋台",
      "name_kana": "リヤカーヤタイ",
      "business_type": "① 飲食店営業",
      "address": "長野県中野市上今井６６７",
      "lat": 36.749665,
      "lng": 138.317377,
      "geocoding_level": null,
      "phone": "",
      "license_no": "17162538",
      "license_date": "2022-05-31",
      "expire_date": "2027-05-31"
    },
    {
      "name": "さんかくまるしかく",
      "name_kana": "サンカクマルシカク",
      "business_type": "① 飲食店営業",
      "address": "長野県中野市西二丁目１７１３－１５",
      "lat": 36.748739,
      "lng": 138.367013,
      "geocoding_level": null,
      "phone": "08051448959",
      "license_no": "17179369",
      "license_date": "2022-06-24",
      "expire_date": "2028-09-30"
    },
    {
      "name": "配食サービス我逢人",
      "name_kana": "ハイショクサービスガホウジン",
      "business_type": "① 飲食店営業",
      "address": "長野県中野市立ケ花７２９－１",
      "lat": 36.729981,
      "lng": 138.313402,
      "geocoding_level": null,
      "phone": "0269-38-1233",
      "license_no": "17179391",
      "license_date": "2022-07-04",
      "expire_date": "2028-09-30"
    },
    {
      "name": "有限会社カクアゲ本店",
      "name_kana": "ユウゲンガイシャカクアゲホンテン",
      "business_type": "① 飲食店営業",
      "address": "長野県中野市中央１丁目８番６号",
      "lat": 36.746142,
      "lng": 138.369857,
      "geocoding_level": null,
      "phone": "",
      "license_no": "17179725",
      "license_date": "2022-10-03",
      "expire_date": "2028-09-30"
    },
    {
      "name": "マサノリ園ジェラート店",
      "name_kana": "マサノリエンジェラートテン",
      "business_type": "① 飲食店営業",
      "address": "長野県中野市大字草間字中原１５４９－１",
      "lat": 36.728671,
      "lng": 138.326503,
      "geocoding_level": null,
      "phone": "",
      "license_no": "17179480",
      "license_date": "2022-08-08",
      "expire_date": "2028-09-30"
    },
    {
      "name": "マサノリ園ジェラート店",
      "name_kana": "マサノリエンジェラートテン",
      "business_type": "⑫ アイスクリーム類製造業",
      "address": "長野県中野市大字草間字中原１５４９－１",
      "lat": 36.728671,
      "lng": 138.326503,
      "geocoding_level": null,
      "phone": "",
      "license_no": "17179732",
      "license_date": "2022-10-03",
      "expire_date": "2029-09-30"
    },
    {
      "name": "ごはん処 條屋",
      "name_kana": "ゴハンドコロ ジョウヤ",
      "business_type": "⑬ その他の食料・飲料販売業",
      "address": "長野県中野市若宮５６３－１",
      "lat": 36.758335,
      "lng": 138.368454,
      "geocoding_level": null,
      "phone": "0269-38-0010",
      "license_no": "",
      "license_date": null,
      "expire_date": null
    },
    {
      "name": "ごはん処　條屋（屋台）",
      "name_kana": "ゴハンドコロ　ジョウヤ　ヤタイ",
      "business_type": "① 飲食店営業",
      "address": "長野県中野市小田中１０１７－９",
      "lat": 36.736998,
      "lng": 138.380701,
      "geocoding_level": null,
      "phone": "090-9666-4040",
      "license_no": "17180721",
      "license_date": "2023-06-30",
      "expire_date": "2028-09-30"
    },
    {
      "name": "ごはん処　條屋",
      "name_kana": "ゴハンドコロジョウヤ",
      "business_type": "① 飲食店営業",
      "address": "長野県中野市若宮５６３－１",
      "lat": 36.758335,
      "lng": 138.368454,
      "geocoding_level": null,
      "phone": "0269-38-0010",
      "license_no": "17171714",
      "license_date": "2023-09-29",
      "expire_date": "2029-09-30"
    },
    {
      "name": "株式会社果実企画",
      "name_kana": "カジツキカク",
      "business_type": "⑰ 農産保存食料品製造・加工業",
      "address": "長野県中野市七瀬47-9",
      "lat": 36.752905,
      "lng": 138.347767,
      "geocoding_level": null,
      "phone": "0269-23-1393",
      "license_no": "",
      "license_date": null,
      "expire_date": null
    },
    {
      "name": "有限会社　小泉園",
      "name_kana": "ユウゲンガイシャ　コイズミエン",
      "business_type": "⑬ その他の食料・飲料販売業",
      "address": "長野県中野市中野1583",
      "lat": 36.74689,
      "lng": 138.37391,
      "geocoding_level": null,
      "phone": "",
      "license_no": "",
      "license_date": null,
      "expire_date": null
    },
    {
      "name": "つけめん丸長",
      "name_kana": "ツケメンマルチョウ",
      "business_type": "① 飲食店営業",
      "address": "長野県中野市新保５６－２",
      "lat": 36.730672,
      "lng": 138.359512,
      "geocoding_level": null,
      "phone": "0269-26-7108",
      "license_no": "17179522",
      "license_date": "2022-08-30",
      "expire_date": "2028-09-30"
    },
    {
      "name": "三幸軒",
      "name_kana": "サンコウケン",
      "business_type": "① 飲食店営業",
      "address": "長野県中野市大字中野２６２－５",
      "lat": 36.73861,
      "lng": 138.367889,
      "geocoding_level": null,
      "phone": "0269-26-0292",
      "license_no": "17179554",
      "license_date": "2022-09-02",
      "expire_date": "2028-09-30"
    },
    {
      "name": "BLESS",
      "name_kana": "ブレス",
      "business_type": "① 飲食店営業",
      "address": "長野県中野市",
      "lat": 36.741999,
      "lng": 138.369355,
      "geocoding_level": null,
      "phone": "",
      "license_no": "17179586",
      "license_date": "2022-09-06",
      "expire_date": "2027-09-30"
    },
    {
      "name": "ＢＬＥＳＳ",
      "name_kana": "ブレス",
      "business_type": "① 飲食店営業",
      "address": "長野県中野市西１‐３‐３４ ブラジルビル２Ｆ Ｃ号室",
      "lat": 36.745044,
      "lng": 138.365434,
      "geocoding_level": null,
      "phone": "0269-23-2330",
      "license_no": "17169671",
      "license_date": "2022-09-30",
      "expire_date": "2028-09-30"
    },
    {
      "name": "満留古農場",
      "name_kana": "マルコノウジョウ",
      "business_type": "① 飲食店営業",
      "address": "長野県中野市栗林96",
      "lat": 36.740586,
      "lng": 138.318112,
      "geocoding_level": null,
      "phone": "09090015270",
      "license_no": "17179675",
      "license_date": "2022-09-22",
      "expire_date": "2027-09-30"
    },
    {
      "name": "宅老所あんきな日",
      "name_kana": "タクロウショアンキナヒ",
      "business_type": "㉖ 集団給食施設",
      "address": "長野県中野市大字中野1872-7",
      "lat": 36.751343,
      "lng": 138.373944,
      "geocoding_level": null,
      "phone": "080-9802-3644",
      "license_no": "",
      "license_date": null,
      "expire_date": null
    },
    {
      "name": "龍晴食堂",
      "name_kana": "リュウセイショクドウ",
      "business_type": "① 飲食店営業",
      "address": "長野県中野市一本木696-3",
      "lat": 36.758481,
      "lng": 138.388487,
      "geocoding_level": null,
      "phone": "0269225633",
      "license_no": "17179604",
      "license_date": "2022-09-15",
      "expire_date": "2028-09-30"
    },
    {
      "name": "アイシングクッキー工房LEAP",
      "name_kana": "アイシングクッキーコウボウリープ",
      "business_type": "⑬ その他の食料・飲料販売業",
      "address": "長野県中野市中央3丁目４番3号",
      "lat": 36.747641,
      "lng": 138.371202,
      "geocoding_level": null,
      "phone": "",
      "license_no": "",
      "license_date": null,
      "expire_date": null
    },
    {
      "name": "（有）山崎精肉店",
      "name_kana": "ユウゲンガイシャヤマザキセイニクテン",
      "business_type": "② 食肉販売業（包装済みの食肉のみの販売）",
      "address": "長野県中野市江部３５１",
      "lat": 36.729741,
      "lng": 138.343677,
      "geocoding_level": null,
      "phone": "0269-22-2983",
      "license_no": "",
      "license_date": null,
      "expire_date": null
    },
    {
      "name": "有限会社山崎精肉店",
      "name_kana": "ユウゲンガイシャヤマザキセイニクテン",
      "business_type": "① 飲食店営業",
      "address": "長野県中野市江部351-1",
      "lat": 36.729757,
      "lng": 138.343695,
      "geocoding_level": null,
      "phone": "0269-22-2983",
      "license_no": "17180987",
      "license_date": "2023-08-02",
      "expire_date": "2028-09-30"
    },
    {
      "name": "アゼリア",
      "name_kana": "アゼリア",
      "business_type": "① 飲食店営業",
      "address": "長野県中野市中央３丁目４―１２",
      "lat": 36.74715,
      "lng": 138.371874,
      "geocoding_level": null,
      "phone": "0269-22-3482",
      "license_no": "15008616",
      "license_date": "2022-09-30",
      "expire_date": "2028-09-30"
    },
    {
      "name": "金長食堂",
      "name_kana": "カネチョウショクドウ",
      "business_type": "① 飲食店営業",
      "address": "長野県中野市中央１－１０－３",
      "lat": 36.745786,
      "lng": 138.36898,
      "geocoding_level": null,
      "phone": "0269-22-3550",
      "license_no": "15009084",
      "license_date": "2022-09-30",
      "expire_date": "2028-09-30"
    },
    {
      "name": "さつき",
      "name_kana": "サツキ",
      "business_type": "① 飲食店営業",
      "address": "長野県中野市中央１丁目２―６",
      "lat": 36.74518,
      "lng": 138.368522,
      "geocoding_level": null,
      "phone": "0269-22-4361",
      "license_no": "15009547",
      "license_date": "2022-09-30",
      "expire_date": "2028-09-30"
    },
    {
      "name": "新川三",
      "name_kana": "シンカワサン",
      "business_type": "① 飲食店営業",
      "address": "長野県中野市中央１丁目２―７",
      "lat": 36.74534,
      "lng": 138.368591,
      "geocoding_level": null,
      "phone": "0269-22-2344",
      "license_no": "15009771",
      "license_date": "2022-09-30",
      "expire_date": "2028-09-30"
    },
    {
      "name": "とんかつ都美多",
      "name_kana": "トンカツトミオ",
      "business_type": "① 飲食店営業",
      "address": "長野県中野市大字吉田４４―７",
      "lat": 36.749887,
      "lng": 138.350766,
      "geocoding_level": null,
      "phone": "0269-22-6848",
      "license_no": "15103006",
      "license_date": "2022-09-30",
      "expire_date": "2028-09-30"
    },
    {
      "name": "多恋人",
      "name_kana": "タレント",
      "business_type": "① 飲食店営業",
      "address": "長野県中野市小田中１０１７―３７",
      "lat": 36.737118,
      "lng": 138.381373,
      "geocoding_level": null,
      "phone": "",
      "license_no": "15101351",
      "license_date": "2022-09-30",
      "expire_date": "2028-09-30"
    },
    {
      "name": "坂本屋",
      "name_kana": "サカモトヤ",
      "business_type": "④ 魚介類販売業",
      "address": "長野県中野市中央１丁目１―１０",
      "lat": 36.745316,
      "lng": 138.368123,
      "geocoding_level": null,
      "phone": "0269-26-5656",
      "license_no": "15114052",
      "license_date": "2022-09-30",
      "expire_date": "2028-09-30"
    },
    {
      "name": "坂本屋",
      "name_kana": "サカモトヤ",
      "business_type": "① 飲食店営業",
      "address": "長野県中野市中央１丁目１―１０",
      "lat": 36.745316,
      "lng": 138.368123,
      "geocoding_level": null,
      "phone": "0269-26-5656",
      "license_no": "15114045",
      "license_date": "2022-09-30",
      "expire_date": "2028-09-30"
    },
    {
      "name": "くまごろう食堂",
      "name_kana": "クマゴロウショクドウ",
      "business_type": "① 飲食店営業",
      "address": "長野県中野市草間１５１１―６",
      "lat": 36.733916,
      "lng": 138.321967,
      "geocoding_level": null,
      "phone": "0269-26-2763",
      "license_no": "15119919",
      "license_date": "2022-09-30",
      "expire_date": "2028-09-30"
    },
    {
      "name": "ピューピル",
      "name_kana": "ピューピル",
      "business_type": "① 飲食店営業",
      "address": "長野県中野市中央１－１２－１３ 湯町ビル１Ｆ",
      "lat": 36.745438,
      "lng": 138.368436,
      "geocoding_level": null,
      "phone": "0269-26-1132",
      "license_no": "15124567",
      "license_date": "2022-09-30",
      "expire_date": "2028-09-30"
    },
    {
      "name": "喜楽亭",
      "name_kana": "キラクテイ",
      "business_type": "① 飲食店営業",
      "address": "長野県中野市吉田片塩３５－１ Ｋ－１ビル１階",
      "lat": 36.750373,
      "lng": 138.356415,
      "geocoding_level": null,
      "phone": "0269-26-6135",
      "license_no": "15125256",
      "license_date": "2022-09-30",
      "expire_date": "2028-09-30"
    },
    {
      "name": "カマリ",
      "name_kana": "カマリ",
      "business_type": "① 飲食店営業",
      "address": "長野県中野市中央１－４－３",
      "lat": 36.744492,
      "lng": 138.368834,
      "geocoding_level": null,
      "phone": "0269-22-6403",
      "license_no": "17136632",
      "license_date": "2022-09-30",
      "expire_date": "2028-09-30"
    },
    {
      "name": "ピザハウス　カラコルム",
      "name_kana": "ピザハウスカラコルム",
      "business_type": "① 飲食店営業",
      "address": "長野県中野市大字西条１００１",
      "lat": 36.742746,
      "lng": 138.366418,
      "geocoding_level": null,
      "phone": "0269-22-8273",
      "license_no": "17136917",
      "license_date": "2022-09-30",
      "expire_date": "2028-09-30"
    },
    {
      "name": "ティールーム",
      "name_kana": "ティールーム",
      "business_type": "① 飲食店営業",
      "address": "長野県中野市三好町２－４－２２",
      "lat": 36.739827,
      "lng": 138.372877,
      "geocoding_level": null,
      "phone": "0269-22-6167",
      "license_no": "17137022",
      "license_date": "2022-09-30",
      "expire_date": "2028-09-30"
    },
    {
      "name": "旬彩房",
      "name_kana": "シュンサイボウ",
      "business_type": "① 飲食店営業",
      "address": "長野県中野市大字新井４３５ー３",
      "lat": 36.756199,
      "lng": 138.369058,
      "geocoding_level": null,
      "phone": "0269-26-7072",
      "license_no": "17137571",
      "license_date": "2022-09-30",
      "expire_date": "2028-09-30"
    },
    {
      "name": "スナック　うらら",
      "name_kana": "スナックウララ",
      "business_type": "① 飲食店営業",
      "address": "長野県中野市西１丁目４－３４ ブラジルビル２Ｆ",
      "lat": 36.745341,
      "lng": 138.366214,
      "geocoding_level": null,
      "phone": "0269-26-0845",
      "license_no": "17149163",
      "license_date": "2022-09-30",
      "expire_date": "2028-09-30"
    },
    {
      "name": "有限会社　たかやしろファーム",
      "name_kana": "ユウゲンガイシャタカヤシロファーム",
      "business_type": "① 飲食店営業",
      "address": "長野県中野市大字竹原１６０９－７",
      "lat": 36.770031,
      "lng": 138.381471,
      "geocoding_level": null,
      "phone": "0269-24-7650",
      "license_no": "17149851",
      "license_date": "2022-09-30",
      "expire_date": "2028-09-30"
    },
    {
      "name": "有限会社　たかやしろファーム",
      "name_kana": "ユウゲンガイシャタカヤシロファーム",
      "business_type": "㉑ 酒類製造業",
      "address": "長野県中野市大字竹原１６０９－７",
      "lat": 36.770031,
      "lng": 138.381471,
      "geocoding_level": null,
      "phone": "0269-27-7650",
      "license_no": "17149875",
      "license_date": "2022-09-30",
      "expire_date": "2028-09-30"
    },