{
  "meta": {
    "updated": 1783568789,
    "sources": [
      {
        "source": "厚生労働省 食品衛生申請等システム（オープンデータ）",
        "license": "公共データ利用規約（第1.0版, PDL1.0）"
      }
    ]
  },
  "data": [
    {
      "name": "株式会社第一物産",
      "name_kana": "カブシキカイシャダイイチブッサン",
      "business_type": "㉙ 漬物製造業",
      "address": "千葉県野田市野田市中里862-1",
      "lat": 35.994851,
      "lng": 139.847209,
      "geocoding_level": null,
      "phone": "04-7129-6133",
      "license_no": "20240002",
      "license_date": "2024-04-30",
      "expire_date": "2031-04-30"
    },
    {
      "name": "株式会社第一物産",
      "name_kana": "カブシキカイシャダイイチブッサン",
      "business_type": "⑱ 調味料製造・加工業",
      "address": "千葉県野田市野田市中里862-1",
      "lat": 35.994854,
      "lng": 139.847188,
      "geocoding_level": null,
      "phone": "04-7129-6133",
      "license_no": "",
      "license_date": null,
      "expire_date": null
    },
    {
      "name": "株式会社第一物産　野田センター",
      "name_kana": "カブシキカイシャダイイチブッサンノダセンター",
      "business_type": "⑯ 水産製品製造業",
      "address": "千葉県野田市中里862-1",
      "lat": 35.994854,
      "lng": 139.847188,
      "geocoding_level": null,
      "phone": "0471296133",
      "license_no": "20240002",
      "license_date": "2025-03-14",
      "expire_date": "2032-03-31"
    },
    {
      "name": "株式会社第一物産野田センター",
      "name_kana": "カブシキカイシャダイイチブッサンノダセンター",
      "business_type": "㉕ そうざい製造業",
      "address": "千葉県野田市中里862-1",
      "lat": 35.994854,
      "lng": 139.847188,
      "geocoding_level": null,
      "phone": "04-7129-6133",
      "license_no": "20250002",
      "license_date": "2025-09-29",
      "expire_date": "2032-10-31"
    },
    {
      "name": "ルネサンス野田",
      "name_kana": "ルネサンスノダ",
      "business_type": "⑤ コップ式自動販売機（自動洗浄・屋内設置）",
      "address": "千葉県野田市野田３９４－２",
      "lat": 35.944829,
      "lng": 139.867569,
      "geocoding_level": null,
      "phone": "047-122-9000",
      "license_no": "",
      "license_date": null,
      "expire_date": null
    },
    {
      "name": "ANYTIMEFITNESS東京理科大学野田キャンパス",
      "name_kana": "エニタイムフィットネストウキョウリカダイノダキャンパス",
      "business_type": "⑤ コップ式自動販売機（自動洗浄・屋内設置）",
      "address": "千葉県野田市山崎2641 東京理科大学野田キャンパス 1F",
      "lat": 35.920355,
      "lng": 139.911704,
      "geocoding_level": null,
      "phone": "",
      "license_no": "",
      "license_date": null,
      "expire_date": null
    },
    {
      "name": "株式会社 神宮製作所",
      "name_kana": "カブシキガイシャ ジングウセイサクショ",
      "business_type": "㉗ 器具、容器包装の製造・加工業（合成樹脂が使用された器具又は容器包装の製造、加工に限る。）",
      "address": "千葉県野田市上三ヶ尾261",
      "lat": 35.929389,
      "lng": 139.906621,
      "geocoding_level": null,
      "phone": "04-7125-1261",
      "license_no": "",
      "license_date": null,
      "expire_date": null
    },
    {
      "name": "中央紙工株式会社",
      "name_kana": "チュウオウシコウカブシキカイシャ",
      "business_type": "㉗ 器具、容器包装の製造・加工業（合成樹脂が使用された器具又は容器包装の製造、加工に限る。）",
      "address": "千葉県野田市関宿江戸町56",
      "lat": 36.090859,
      "lng": 139.7835,
      "geocoding_level": null,
      "phone": "0471965122",
      "license_no": "",
      "license_date": null,
      "expire_date": null
    },
    {
      "name": "ダイソー　野田パルノア店",
      "name_kana": "ダイソー　ノダパルノアテン",
      "business_type": "⑬ その他の食料・飲料販売業",
      "address": "千葉県野田市中根新田字鹿島原５７－１",
      "lat": 35.945483,
      "lng": 139.878105,
      "geocoding_level": null,
      "phone": "",
      "license_no": "",
      "license_date": null,
      "expire_date": null
    },
    {
      "name": "ダイソー　イオンタウン野田七光台店",
      "name_kana": "ダイソー　イオンタウンノダナナコウダイテンテン",
      "business_type": "⑬ その他の食料・飲料販売業",
      "address": "千葉県野田市七光台４－２イオンタウン野田七光台店内",
      "lat": 35.982305,
      "lng": 139.851339,
      "geocoding_level": null,
      "phone": "",
      "license_no": "",
      "license_date": null,
      "expire_date": null
    },
    {
      "name": "株式会社秋本製作所",
      "name_kana": "アキモトセイサクショ",
      "business_type": "㉗ 器具、容器包装の製造・加工業（合成樹脂が使用された器具又は容器包装の製造、加工に限る。）",
      "address": "千葉県野田市岡田588-4",
      "lat": 36.015159,
      "lng": 139.826977,
      "geocoding_level": null,
      "phone": "0471970880",
      "license_no": "",
      "license_date": null,
      "expire_date": null
    },
    {
      "name": "金宝堂　野田直送センター",
      "name_kana": "キンポウドウ　ノダチョクソウセンター",
      "business_type": "⑤ コップ式自動販売機（自動洗浄・屋内設置）",
      "address": "千葉県野田市中野台鹿島町11-25",
      "lat": 35.947478,
      "lng": 139.853164,
      "geocoding_level": null,
      "phone": "0120-250-449",
      "license_no": "",
      "license_date": null,
      "expire_date": null
    },
    {
      "name": "ベルク　野田山崎店",
      "name_kana": "ベルク　ノダヤマザキテン",
      "business_type": "⑤ コップ式自動販売機（自動洗浄・屋内設置）",
      "address": "千葉県野田市山崎2237-1",
      "lat": 35.925356,
      "lng": 139.892112,
      "geocoding_level": null,
      "phone": "0471225711",
      "license_no": "",
      "license_date": null,
      "expire_date": null
    },
    {
      "name": "名鉄運輸　野田支店",
      "name_kana": "メイテツウンユ　ノダシテン",
      "business_type": "⑤ コップ式自動販売機（自動洗浄・屋内設置）",
      "address": "千葉県野田市木野崎1671-1",
      "lat": 35.951106,
      "lng": 139.905828,
      "geocoding_level": null,
      "phone": "04-7138-3700",
      "license_no": "",
      "license_date": null,
      "expire_date": null
    },
    {
      "name": "USS新東京会場　3F",
      "name_kana": "ユーエスエスシントウキョウカイジョウ　サンエフ",
      "business_type": "⑤ コップ式自動販売機（自動洗浄・屋内設置）",
      "address": "千葉県野田市木間ケ瀬5653",
      "lat": 36.004425,
      "lng": 139.851247,
      "geocoding_level": null,
      "phone": "04-7120-8000",
      "license_no": "",
      "license_date": null,
      "expire_date": null
    },
    {
      "name": "USS新東京会場　2F",
      "name_kana": "ユーエスエスシントウキョウカイジョウ　ニエフ",
      "business_type": "⑤ コップ式自動販売機（自動洗浄・屋内設置）",
      "address": "千葉県野田市木間ケ瀬5653",
      "lat": 36.004425,
      "lng": 139.851247,
      "geocoding_level": null,
      "phone": "04-7120-8000",
      "license_no": "",
      "license_date": null,
      "expire_date": null
    },
    {
      "name": "ECFフィットネス",
      "name_kana": "イーシーエフフィットネス",
      "business_type": "⑫ 自動販売機による販売業（コップ式自動販売機（自動洗浄・屋内設置）及び営業許可の対象となる自動販売機を除く）",
      "address": "千葉県野田市七光台230-1",
      "lat": 35.985591,
      "lng": 139.847632,
      "geocoding_level": null,
      "phone": "",
      "license_no": "",
      "license_date": null,
      "expire_date": null
    },
    {
      "name": "アクトスWill_G　野田",
      "name_kana": "アクトスウィルジーノダ",
      "business_type": "⑫ 自動販売機による販売業（コップ式自動販売機（自動洗浄・屋内設置）及び営業許可の対象となる自動販売機を除く）",
      "address": "千葉県野田市柳沢新田字甲子前59-4",
      "lat": 35.962279,
      "lng": 139.877769,
      "geocoding_level": null,
      "phone": "047-197-1905",
      "license_no": "",
      "license_date": null,
      "expire_date": null
    },
    {
      "name": "スポーツクラブルネサンス野田",
      "name_kana": "スポーツクラブルネサンスノダ",
      "business_type": "⑫ 自動販売機による販売業（コップ式自動販売機（自動洗浄・屋内設置）及び営業許可の対象となる自動販売機を除く）",
      "address": "千葉県野田市野田394-2",
      "lat": 35.944829,
      "lng": 139.867569,
      "geocoding_level": null,
      "phone": "",
      "license_no": "",
      "license_date": null,
      "expire_date": null
    },
    {
      "name": "オリジンデリカ　マックスバリュ野田七光台店",
      "name_kana": "オリジンデリカマックスバリュノダナナコウダイ",
      "business_type": "⑬ その他の食料・飲料販売業",
      "address": "千葉県野田市七光台4番地2",
      "lat": 35.981087,
      "lng": 139.850307,
      "geocoding_level": null,
      "phone": "04-7127-3911",
      "license_no": "",
      "license_date": null,
      "expire_date": null
    },
    {
      "name": "スターバックスコーヒー野田桜の里店",
      "name_kana": "スターバックスコーヒーノダサクラノサトテン",
      "business_type": "⑬ その他の食料・飲料販売業",
      "address": "千葉県野田市桜の里2-6-5",
      "lat": 35.953605,
      "lng": 139.845388,
      "geocoding_level": null,
      "phone": "04-7126-5080",
      "license_no": "",
      "license_date": null,
      "expire_date": null
    },
    {
      "name": "ヤオコー　野田つつみ野店",
      "name_kana": "ヤオコー　ノダツツミノテン",
      "business_type": "⑪ 百貨店、総合スーパー",
      "address": "千葉県野田市つつみ野１丁目1-3",
      "lat": 35.944223,
      "lng": 139.849741,
      "geocoding_level": null,
      "phone": "04-7126-1511",
      "license_no": "",
      "license_date": null,
      "expire_date": null
    },
    {
      "name": "ヤオコー　野田つつみ野店",
      "name_kana": "ヤオコー　ノダツツミノテン",
      "business_type": "⑫ 自動販売機による販売業（コップ式自動販売機（自動洗浄・屋内設置）及び営業許可の対象となる自動販売機を除く）",
      "address": "千葉県野田市つつみ野１丁目1-3",
      "lat": 35.944223,
      "lng": 139.849741,
      "geocoding_level": null,
      "phone": "04-7126-1511",
      "license_no": "",
      "license_date": null,
      "expire_date": null
    },
    {
      "name": "ヤオコー　野田つつみ野店　（惣菜）",
      "name_kana": "ヤオコー　ノダツツミノテン　ソウザイ",
      "business_type": "① 飲食店営業",
      "address": "千葉県野田市つつみ野1-1-3",
      "lat": 35.944103,
      "lng": 139.849772,
      "geocoding_level": null,
      "phone": "04-7126-1511",
      "license_no": "2021-117",
      "license_date": "2021-10-29",
      "expire_date": "2028-11-30"
    },
    {
      "name": "ヤオコー　野田つつみ野店　(精肉)",
      "name_kana": "ヤオコー　ノダツツミノテン　セイニク",
      "business_type": "① 飲食店営業",
      "address": "千葉県野田市つつみ野１丁目1-3",
      "lat": 35.944103,
      "lng": 139.849772,
      "geocoding_level": null,
      "phone": "04-7126-1511",
      "license_no": "20250111",
      "license_date": "2025-08-15",
      "expire_date": "2032-09-30"
    },
    {
      "name": "ヤオコー　野田つつみ野店　(精肉)",
      "name_kana": "ヤオコー　ノダツツミノテン　セイニク",
      "business_type": "③ 食肉販売業",
      "address": "千葉県野田市つつみ野１丁目1-3",
      "lat": 35.944103,
      "lng": 139.849772,
      "geocoding_level": null,
      "phone": "04-7126-1511",
      "license_no": "20250001",
      "license_date": "2025-08-15",
      "expire_date": "2032-09-30"
    },
    {
      "name": "ヤオコー　野田つつみ野店　(鮮魚)",
      "name_kana": "ヤオコー　ノダツツミノテン　センギョ",
      "business_type": "④ 魚介類販売業",
      "address": "千葉県野田市つつみ野１丁目1-3",
      "lat": 35.944103,
      "lng": 139.849772,
      "geocoding_level": null,
      "phone": "04-7126-1511",
      "license_no": "２０２５０００２",
      "license_date": "2025-08-15",
      "expire_date": "2032-09-30"
    },
    {
      "name": "ヤオコー　野田つつみ野店　(寿司)",
      "name_kana": "ヤオコー　ノダツツミノテン　スシ",
      "business_type": "① 飲食店営業",
      "address": "千葉県野田市つつみ野１丁目1-3",
      "lat": 35.944103,
      "lng": 139.849772,
      "geocoding_level": null,
      "phone": "04-7126-1511",
      "license_no": "20250110",
      "license_date": "2025-08-15",
      "expire_date": "2032-09-30"
    },
    {
      "name": "ヤオコー　野田つつみ野店　(ベーカリー)",
      "name_kana": "ヤオコー　ノダツツミノテン　ベーカリー",
      "business_type": "⑪ 菓子製造業",
      "address": "千葉県野田市つつみ野１丁目1-3",
      "lat": 35.944103,
      "lng": 139.849772,
      "geocoding_level": null,
      "phone": "04-7126-1511",
      "license_no": "20250012",
      "license_date": "2025-08-15",
      "expire_date": "2031-09-30"
    },
    {
      "name": "野田工場",
      "name_kana": "ノダコウジョウ",
      "business_type": "㉗ 器具、容器包装の製造・加工業（合成樹脂が使用された器具又は容器包装の製造、加工に限る。）",
      "address": "千葉県野田市七光台135番地",
      "lat": 35.979924,
      "lng": 139.849088,
      "geocoding_level": null,
      "phone": "05038216879",
      "license_no": "",
      "license_date": null,
      "expire_date": null
    },
    {
      "name": "ベルクス野田七光台店",
      "name_kana": "ベルクスノダナナコウダイテン",
      "business_type": "① 飲食店営業",
      "address": "千葉県野田市光葉町1-6",
      "lat": 35.9706,
      "lng": 139.851767,
      "geocoding_level": null,
      "phone": "047-495-8719",
      "license_no": "20230265",
      "license_date": "2024-02-22",
      "expire_date": "2031-02-28"
    },
    {
      "name": "ベルクス　野田七光台店",
      "name_kana": "ベルクス　ノダナナコウダイテン",
      "business_type": "⑪ 百貨店、総合スーパー",
      "address": "千葉県野田市光葉町1-6",
      "lat": 35.9706,
      "lng": 139.851767,
      "geocoding_level": null,
      "phone": "047-495-8719",
      "license_no": "",
      "license_date": null,
      "expire_date": null
    },
    {
      "name": "ベルクス野田七光台店",
      "name_kana": "ベルクスノダナナコウダイテン",
      "business_type": "㉙ 漬物製造業",
      "address": "千葉県野田市光葉町1−６",
      "lat": 35.9706,
      "lng": 139.851767,
      "geocoding_level": null,
      "phone": "04-7126-8719",
      "license_no": "20220001",
      "license_date": "2023-03-17",
      "expire_date": "2029-03-31"
    },
    {
      "name": "野田工場",
      "name_kana": "ノダコウジョウ",
      "business_type": "㉗ 器具、容器包装の製造・加工業（合成樹脂が使用された器具又は容器包装の製造、加工に限る。）",
      "address": "千葉県野田市七光台135",
      "lat": 35.979924,
      "lng": 139.849088,
      "geocoding_level": null,
      "phone": "05038216882",
      "license_no": "",
      "license_date": null,
      "expire_date": null
    },
    {
      "name": "ベイシア野田さくらの里店",
      "name_kana": "ベイシアノダサクラノサトテン",
      "business_type": "③ 乳類販売業",
      "address": "千葉県野田市桜の里2-1",
      "lat": 35.954413,
      "lng": 139.845128,
      "geocoding_level": null,
      "phone": "04-7126-1000",
      "license_no": "",
      "license_date": null,
      "expire_date": null
    },
    {
      "name": "ベイシア野田さくらの里店",
      "name_kana": "ベイシアノダサクラノサトテン",
      "business_type": "⑪ 百貨店、総合スーパー",
      "address": "千葉県野田市桜の里2-1",
      "lat": 35.954413,
      "lng": 139.845128,
      "geocoding_level": null,
      "phone": "04-7126-1000",
      "license_no": "",
      "license_date": null,
      "expire_date": null
    },
    {
      "name": "千葉県立野田特別支援学校",
      "name_kana": "チバケンリツノダトクベツシエンガッコウ",
      "business_type": "㉖ 集団給食施設",
      "address": "千葉県野田市鶴奉",
      "lat": 35.957913,
      "lng": 139.88673,
      "geocoding_level": null,
      "phone": "",
      "license_no": "",
      "license_date": null,
      "expire_date": null
    },
    {
      "name": "窪田味噌醤油株式会社",
      "name_kana": "クボタミソショウユ",
      "business_type": "⑳ みそ又はしょうゆ製造業",
      "address": "千葉県野田市山崎691番地",
      "lat": 35.915356,
      "lng": 139.894597,
      "geocoding_level": null,
      "phone": "0471256111",
      "license_no": "2021-1",
      "license_date": "2021-06-30",
      "expire_date": "2028-07-31"
    },
    {
      "name": "窪田味噌醤油株式会社",
      "name_kana": "クボタミソショウユ",
      "business_type": "㉚ 密封包装食品製造業",
      "address": "千葉県野田市山崎６９１番地",
      "lat": 35.915356,
      "lng": 139.894597,
      "geocoding_level": null,
      "phone": "0471256111",
      "license_no": "20220002",
      "license_date": "2022-11-30",
      "expire_date": "2028-12-31"
    },
    {
      "name": "コモディイイダ野田店",
      "name_kana": "コモディイイダノダシエキマエテン",
      "business_type": "⑫ 自動販売機による販売業（コップ式自動販売機（自動洗浄・屋内設置）及び営業許可の対象となる自動販売機を除く）",
      "address": "千葉県野田市野田404",
      "lat": 35.945547,
      "lng": 139.867609,
      "geocoding_level": null,
      "phone": "",
      "license_no": "",
      "license_date": null,
      "expire_date": null
    },
    {
      "name": "コモディイイダ野田市駅前店",
      "name_kana": "コモディイイダノダシエキマエテン",
      "business_type": "⑫ 自動販売機による販売業（コップ式自動販売機（自動洗浄・屋内設置）及び営業許可の対象となる自動販売機を除く）",
      "address": "千葉県野田市野田404",
      "lat": 35.945521,
      "lng": 139.867766,
      "geocoding_level": null,
      "phone": "04-7126-3221",
      "license_no": "",
      "license_date": null,
      "expire_date": null
    },
    {
      "name": "Thuc pham noda chiba",
      "name_kana": "ツック  ファム  ノダチバ",
      "business_type": "⑪ 百貨店、総合スーパー",
      "address": "千葉県野田市岩名2023-7",
      "lat": 35.978186,
      "lng": 139.83377,
      "geocoding_level": null,
      "phone": "",
      "license_no": "",
      "license_date": null,
      "expire_date": null
    },
    {
      "name": "スーパーベルクス野田七光台店",
      "name_kana": "スーパーベルクスノダナナコウダイテン",
      "business_type": "⑫ 自動販売機による販売業（コップ式自動販売機（自動洗浄・屋内設置）及び営業許可の対象となる自動販売機を除く）",
      "address": "千葉県野田市光葉町1丁目6 ベルクスステーションモール七光台",
      "lat": 35.966139,
      "lng": 139.851527,
      "geocoding_level": null,
      "phone": "041268719",
      "license_no": "",
      "license_date": null,
      "expire_date": null
    },
    {
      "name": "ヤックスドラッグ野田店",
      "name_kana": "ヤックスドラッグノダテン",
      "business_type": "⑪ 百貨店、総合スーパー",
      "address": "千葉県野田市清水117-3",
      "lat": 35.951228,
      "lng": 139.858617,
      "geocoding_level": null,
      "phone": "0471211786",
      "license_no": "",
      "license_date": null,
      "expire_date": null
    },
    {
      "name": "ヤックスドラッグ関宿店",
      "name_kana": "ヤックスドラッグセキヤドテン",
      "business_type": "⑪ 百貨店、総合スーパー",
      "address": "千葉県野田市木間ケ瀬4934-1",
      "lat": 36.019034,
      "lng": 139.826657,
      "geocoding_level": null,
      "phone": "0471204620",
      "license_no": "",
      "license_date": null,
      "expire_date": null
    },
    {
      "name": "スギドラッグ  野田つつみ野店",
      "name_kana": "スギドラッグ  ノダツツミノテン",
      "business_type": "⑬ その他の食料・飲料販売業",
      "address": "千葉県野田市つつみ野一丁目1番2 ウニクス野田店内",
      "lat": 35.945132,
      "lng": 139.850007,
      "geocoding_level": null,
      "phone": "04-7126-1560",
      "license_no": "",
      "license_date": null,
      "expire_date": null
    },
    {
      "name": "スギ薬局  野田七光台店",
      "name_kana": "スギヤッキョク  ノダナナコウダイテン",
      "business_type": "⑬ その他の食料・飲料販売業",
      "address": "千葉県野田市光葉町一丁目6番地 ベルクスステーションモール七光台1階",
      "lat": 35.9706,
      "lng": 139.851767,
      "geocoding_level": null,
      "phone": "04-7197-3186",
      "license_no": "",
      "license_date": null,
      "expire_date": null
    },
    {
      "name": "スギドラッグ  野田下町店",
      "name_kana": "スギドラッグ  ノダシモチョウテン",
      "business_type": "⑬ その他の食料・飲料販売業",
      "address": "千葉県野田市野田49番地の30",
      "lat": 35.940058,
      "lng": 139.865401,
      "geocoding_level": null,
      "phone": "04-7186-7300",
      "license_no": "",
      "license_date": null,
      "expire_date": null
    },
    {
      "name": "スギ薬局  野田愛宕店",
      "name_kana": "スギヤッキョク  ノダアタゴテン",
      "business_type": "⑪ 百貨店、総合スーパー",
      "address": "千葉県野田市野田836番地",
      "lat": 35.952448,
      "lng": 139.868323,
      "geocoding_level": null,
      "phone": "04-7125-2121",
      "license_no": "",
      "license_date": null,
      "expire_date": null
    },
    {
      "name": "株式会社G-7ミートテラバヤシ野田店",
      "name_kana": "ジーセブンミートテラバヤシノダテン",
      "business_type": "③ 食肉販売業",
      "address": "千葉県野田市山崎１３２６番地２ 業務スーパー野田店内",
      "lat": 35.933318,
      "lng": 139.879127,
      "geocoding_level": null,
      "phone": "04-7136-1173",
      "license_no": "20220004",
      "license_date": "2022-07-01",
      "expire_date": "2028-07-31"
    },
    {
      "name": "株式会社長堀商店",
      "name_kana": "カブシキカイシャナガホリショウテン",
      "business_type": "⑰ 農産保存食料品製造・加工業",
      "address": "千葉県野田市清水268",
      "lat": 35.952288,
      "lng": 139.861386,
      "geocoding_level": null,
      "phone": "0471233101",
      "license_no": "",
      "license_date": null,
      "expire_date": null
    },
    {
      "name": "株式会社長堀商店",
      "name_kana": "カブシキカイシャナガホリショウテン",
      "business_type": "㉙ 漬物製造業",
      "address": "千葉県野田市清水268",
      "lat": 35.952288,
      "lng": 139.861386,
      "geocoding_level": null,
      "phone": "",
      "license_no": "20230003",
      "license_date": "2024-02-29",
      "expire_date": "2029-02-28"
    },
    {
      "name": "万星食品株式会社　野田工場",
      "name_kana": "マンセイショクヒンカブシキガイシャ　ノダコウジョウ",
      "business_type": "㉛ 食品の小分け業",
      "address": "千葉県野田市西三ケ尾87-10",
      "lat": 35.92811,
      "lng": 139.913999,
      "geocoding_level": null,
      "phone": "",
      "license_no": "20230002",
      "license_date": "2023-11-07",
      "expire_date": "2030-11-30"
    },
    {
      "name": "有限会社　ヨコヤマパッケージ",
      "name_kana": "ユウゲンガイシャ　ヨコヤマパッケージ",
      "business_type": "㉗ 器具、容器包装の製造・加工業（合成樹脂が使用された器具又は容器包装の製造、加工に限る。）",
      "address": "千葉県野田市木間ケ瀬2422番地",
      "lat": 36.019296,
      "lng": 139.831494,
      "geocoding_level": null,
      "phone": "04-7198-2872",
      "license_no": "",
      "license_date": null,
      "expire_date": null
    },
    {
      "name": "食事処　いとう",
      "name_kana": "ショクジドコロ　イトウ",
      "business_type": "① 飲食店営業",
      "address": "千葉県野田市野田７５１－１",
      "lat": 35.952282,
      "lng": 139.863425,
      "geocoding_level": null,
      "phone": "04-7124-3848",
      "license_no": "2021-38",
      "license_date": "2021-06-30",
      "expire_date": "2027-07-31"
    },
    {
      "name": "ジェーソン　野田店",
      "name_kana": "ジェーソン　ノダテン",
      "business_type": "⑬ その他の食料・飲料販売業",
      "address": "千葉県野田市山崎1330-1",
      "lat": 35.933647,
      "lng": 139.876727,
      "geocoding_level": null,
      "phone": "04-7125-8388",
      "license_no": "",
      "license_date": null,
      "expire_date": null
    },
    {
      "name": "野田食菌工業株式会社",
      "name_kana": "ノダショクキンコウギョウカブシキガイシャ",
      "business_type": "⑭ 清涼飲料水製造業",
      "address": "千葉県野田市七光台295",
      "lat": 35.98051,
      "lng": 139.846695,
      "geocoding_level": null,
      "phone": "0471273811",
      "license_no": "2021-2",
      "license_date": "2021-06-30",
      "expire_date": "2027-07-31"
    },
    {
      "name": "野田食菌工業株式会社",
      "name_kana": "ノダショクキンコウギョウカブシキガイシャ",
      "business_type": "⑮ いわゆる健康食品の製造・加工業",
      "address": "千葉県野田市七光台295",
      "lat": 35.98051,
      "lng": 139.846695,
      "geocoding_level": null,
      "phone": "0471273811",
      "license_no": "",
      "license_date": null,
      "expire_date": null
    },
    {
      "name": "壱角家 野田蕃昌店",
      "name_kana": "イチカクヤ　ノダバンショウテン",
      "business_type": "① 飲食店営業",
      "address": "千葉県野田市蕃昌257番地10",
      "lat": 35.97953,
      "lng": 139.861726,
      "geocoding_level": null,
      "phone": "04-7127-1101",
      "license_no": "20220121",
      "license_date": "2022-11-30",
      "expire_date": "2028-12-31"
    },
    {
      "name": "野田家",
      "name_kana": "ノダヤ",
      "business_type": "① 飲食店営業",
      "address": "千葉県野田市山崎貝塚町6番地4",
      "lat": 35.923115,
      "lng": 139.895135,
      "geocoding_level": null,
      "phone": "04-7197-1841",
      "license_no": "20240169",
      "license_date": "2024-12-18",
      "expire_date": "2031-01-31"
    },
    {
      "name": "ウィズパートナー",
      "name_kana": "ウィズパートナー",
      "business_type": "⑦ 野菜果物販売業",
      "address": "千葉県野田市東宝珠花247-2 鶴岡ビル1F",
      "lat": 36.024947,
      "lng": 139.820461,
      "geocoding_level": null,
      "phone": "080-4662-3110",
      "license_no": "",
      "license_date": null,
      "expire_date": null
    },
    {
      "name": "株式会社アクティー",
      "name_kana": "カブシキガイシャアクティー",
      "business_type": "㉜ 添加物製造業",
      "address": "千葉県野田市木間ケ瀬4981",
      "lat": 36.017391,
      "lng": 139.828097,
      "geocoding_level": null,
      "phone": "",
      "license_no": "2021-2",
      "license_date": "2021-06-21",
      "expire_date": "2027-06-30"
    },
    {
      "name": "関食品",
      "name_kana": "セキショクヒン",
      "business_type": "⑪ 菓子製造業",
      "address": "千葉県野田市東高野６7",
      "lat": 36.06836,
      "lng": 139.797773,
      "geocoding_level": null,
      "phone": "0471961266",
      "license_no": "2021-4",
      "license_date": "2021-07-19",
      "expire_date": "2028-07-31"
    },
    {
      "name": "関食品",
      "name_kana": "セキショクヒン",
      "business_type": "㉒ 豆腐製造業",
      "address": "千葉県野田市東高野６7",
      "lat": 36.06836,
      "lng": 139.797773,
      "geocoding_level": null,
      "phone": "0471961266",
      "license_no": "2021-2",
      "license_date": "2021-07-19",
      "expire_date": "2028-07-31"
    },
    {
      "name": "関食品",
      "name_kana": "セキショクヒン",
      "business_type": "⑪ 百貨店、総合スーパー",
      "address": "千葉県野田市野田市東高野62",
      "lat": 36.068554,
      "lng": 139.797782,
      "geocoding_level": null,
      "phone": "09034501249",
      "license_no": "",
      "license_date": null,
      "expire_date": null
    },
    {
      "name": "関食品",
      "name_kana": "セキショクヒン",
      "business_type": "① 飲食店営業",
      "address": "千葉県野田市東高野62 (県内一円)",
      "lat": 35.955175,
      "lng": 139.87419,
      "geocoding_level": null,
      "phone": "04-7196-1266",
      "license_no": "20230176",
      "license_date": "2023-10-19",
      "expire_date": "2028-10-31"
    },
    {
      "name": "関食品",
      "name_kana": "セキショクヒン",
      "business_type": "⑫ アイスクリーム類製造業",
      "address": "千葉県野田市東高野６７",
      "lat": 35.955175,
      "lng": 139.87419,
      "geocoding_level": null,
      "phone": "04-7196-1266",
      "license_no": "20240001",
      "license_date": "2024-07-01",
      "expire_date": "2030-07-31"
    },
    {
      "name": "癒しのデイサービス野田",
      "name_kana": "イヤシノデイサービスノダ",
      "business_type": "㉖ 集団給食施設",
      "address": "千葉県野田市山崎1313-1",
      "lat": 35.932879,
      "lng": 139.879386,
      "geocoding_level": null,
      "phone": "04-7126-2441",
      "license_no": "",
      "license_date": null,
      "expire_date": null
    },
    {
      "name": "癒しのデイサービス野田",
      "name_kana": "イヤシノデイサービスノダ",
      "business_type": "① 飲食店営業",
      "address": "千葉県野田市山崎1313-1",
      "lat": 35.932879,
      "lng": 139.879386,
      "geocoding_level": null,
      "phone": "0471262441",
      "license_no": "20230016",
      "license_date": "2023-04-24",
      "expire_date": "2030-04-30"
    },
    {
      "name": "クリアビューゴルフクラブ＆ホテル",
      "name_kana": "クリアビューゴルフクラブアンドホテル",
      "business_type": "① 魚介類販売業（包装済みの魚介類のみの販売）",
      "address": "千葉県野田市瀬戸548",
      "lat": 35.939198,
      "lng": 139.935265,
      "geocoding_level": null,
      "phone": "",
      "license_no": "",
      "license_date": null,
      "expire_date": null
    },
    {
      "name": "クリアビューゴルフクラブ＆ホテル",
      "name_kana": "クリアビューゴルフクラブアンドホテル",
      "business_type": "② 食肉販売業（包装済みの食肉のみの販売）",
      "address": "千葉県野田市瀬戸548",
      "lat": 35.939198,
      "lng": 139.935265,
      "geocoding_level": null,
      "phone": "",
      "license_no": "",
      "license_date": null,
      "expire_date": null
    },
    {
      "name": "クリアビューゴルフクラブ＆ホテル",
      "name_kana": "クリアビューゴルフクラブアンドホテル",
      "business_type": "⑦ 野菜果物販売業",
      "address": "千葉県野田市瀬戸548",
      "lat": 35.939198,
      "lng": 139.935265,
      "geocoding_level": null,
      "phone": "",
      "license_no": "",
      "license_date": null,
      "expire_date": null
    },
    {
      "name": "クリアビューゴルフクラブ＆ホテル",
      "name_kana": "クリアビューゴルフクラブアンドホテル",
      "business_type": "⑧ 米穀類販売業",
      "address": "千葉県野田市瀬戸548",
      "lat": 35.939198,
      "lng": 139.935265,
      "geocoding_level": null,
      "phone": "",
      "license_no": "",
      "license_date": null,
      "expire_date": null
    },
    {
      "name": "クリアビューゴルフクラブ＆ホテル",
      "name_kana": "クリアビューゴルフクラブアンドホテル",
      "business_type": "⑬ その他の食料・飲料販売業",
      "address": "千葉県野田市瀬戸548",
      "lat": 35.939198,
      "lng": 139.935265,
      "geocoding_level": null,
      "phone": "",
      "license_no": "",
      "license_date": null,
      "expire_date": null
    },
    {
      "name": "らーめん佐山",
      "name_kana": "ラーメンサヤマ",
      "business_type": "① 飲食店営業",
      "address": "千葉県野田市光葉町1-7-1 AKBLD.XXVⅡ Station Square 1-B号室",
      "lat": 35.969803,
      "lng": 139.85308,
      "geocoding_level": null,
      "phone": "",
      "license_no": "20230254",
      "license_date": "2024-02-22",
      "expire_date": "2031-02-28"
    },
    {
      "name": "らーめん佐山",
      "name_kana": "ラーメンサヤマ",
      "business_type": "㉕ そうざい製造業",
      "address": "千葉県野田市光葉町1-7-1 AKBLD.XXVⅡ Station Square 1-B号室",
      "lat": 35.969803,
      "lng": 139.85308,
      "geocoding_level": null,
      "phone": "",
      "license_no": "20230008",
      "license_date": "2024-02-22",
      "expire_date": "2031-02-28"
    },
    {
      "name": "ＩＮＤＩＡ　ＰＡＫＩＳＴＡＮ　ＲＥＳＴＡＵＲＡＮＴ　ＴＡＪ",
      "name_kana": "インディア　パキスタン　レストラン　タージ",
      "business_type": "① 飲食店営業",
      "address": "千葉県野田市木間ケ瀬４２２８－１",
      "lat": 36.015125,
      "lng": 139.839371,
      "geocoding_level": null,
      "phone": "04-7120-4882",
      "license_no": "2021-31",
      "license_date": "2021-06-07",
      "expire_date": "2027-06-30"
    },
    {
      "name": "ステーキのあさくま　野田店",
      "name_kana": "ステーキノアサクマ　ノダテン",
      "business_type": "② 食肉販売業（包装済みの食肉のみの販売）",
      "address": "千葉県野田市鶴奉2-11",
      "lat": 35.957442,
      "lng": 139.872634,
      "geocoding_level": null,
      "phone": "0472167360",
      "license_no": "",
      "license_date": null,
      "expire_date": null
    },
    {
      "name": "障害者支援施設くすのき苑",
      "name_kana": "ショウガイシャシエンシセツ　クスノキエン",
      "business_type": "① 飲食店営業",
      "address": "千葉県野田市木間ケ瀬3121",
      "lat": 36.020091,
      "lng": 139.842775,
      "geocoding_level": null,
      "phone": "",
      "license_no": "20230119",
      "license_date": "2023-07-24",
      "expire_date": "2030-07-31"
    },
    {
      "name": "ローソン下三ヶ尾店",
      "name_kana": "ローソンダノシモサンガオテン",
      "business_type": "⑩ コンビニエンスストア",
      "address": "千葉県野田市下三ケ尾218-1",
      "lat": 35.919587,
      "lng": 139.925062,
      "geocoding_level": null,
      "phone": "047-138-7601",
      "license_no": "",
      "license_date": null,
      "expire_date": null
    },
    {
      "name": "ローソン野田山崎店",
      "name_kana": "ローソンノダヤマザキテン",
      "business_type": "⑩ コンビニエンスストア",
      "address": "千葉県野田市山崎89-1",
      "lat": 35.930456,
      "lng": 139.87713,
      "geocoding_level": null,
      "phone": "047-197-4646",
      "license_no": "",
      "license_date": null,
      "expire_date": null
    },
    {
      "name": "ローソン野田柳沢店",
      "name_kana": "ローソンノダヤナギサワテン",
      "business_type": "⑩ コンビニエンスストア",
      "address": "千葉県野田市柳沢新田122－1",
      "lat": 35.962279,
      "lng": 139.877769,
      "geocoding_level": null,
      "phone": "04-7199-7088",
      "license_no": "",
      "license_date": null,
      "expire_date": null
    },
    {
      "name": "バーミヤン　野田七光台店",
      "name_kana": "バーミヤンノダナナコウダイテン",
      "business_type": "① 飲食店営業",
      "address": "千葉県野田市七光台４番ー２",
      "lat": 35.981095,
      "lng": 139.850294,
      "geocoding_level": null,
      "phone": "04-7128-0600",
      "license_no": "20250007",
      "license_date": "2025-04-21",
      "expire_date": "2032-05-31"
    },
    {
      "name": "バーミヤン　野田七光台店",
      "name_kana": "バーミヤンノダナナコウダイテン",
      "business_type": "⑬ その他の食料・飲料販売業",
      "address": "千葉県野田市七光台４番ー２",
      "lat": 35.981486,
      "lng": 139.852852,
      "geocoding_level": null,
      "phone": "04-7128-0600",
      "license_no": "",
      "license_date": null,
      "expire_date": null
    },
    {
      "name": "ガスト 野田七光台店",
      "name_kana": "ガストノダナナコウダイテン",
      "business_type": "⑬ その他の食料・飲料販売業",
      "address": "千葉県野田市七光台４２４－２８",
      "lat": 35.981301,
      "lng": 139.841058,
      "geocoding_level": null,
      "phone": "04-7120-8056",
      "license_no": "",
      "license_date": null,
      "expire_date": null
    },
    {
      "name": "ガスト　野田市役所前店",
      "name_kana": "ガストノダシヤクショマエテン",
      "business_type": "① 飲食店営業",
      "address": "千葉県野田市鶴奉１－１",
      "lat": 35.957071,
      "lng": 139.872206,
      "geocoding_level": null,
      "phone": "04-7120-1066",
      "license_no": "20250030",
      "license_date": "2025-06-25",
      "expire_date": "2032-07-31"
    },
    {
      "name": "ガスト　野田市役所前店",
      "name_kana": "ガストノダシヤクショマエテン",
      "business_type": "⑬ その他の食料・飲料販売業",
      "address": "千葉県野田市鶴奉１－１",
      "lat": 35.957071,
      "lng": 139.872206,
      "geocoding_level": null,
      "phone": "04-7120-1066",
      "license_no": "",
      "license_date": null,
      "expire_date": null
    },
    {
      "name": "ガスト 野田七光台店",
      "name_kana": "ガストノダナナコウダイテン",
      "business_type": "① 飲食店営業",
      "address": "千葉県野田市七光台４２４－２８",
      "lat": 35.981301,
      "lng": 139.841058,
      "geocoding_level": null,
      "phone": "04-7120-8056",
      "license_no": "20220092",
      "license_date": "2022-09-30",
      "expire_date": "2028-10-31"
    },
    {
      "name": "しゃぶ葉  野田梅郷店",
      "name_kana": "シャブヨウ  ノダウメサトテン",
      "business_type": "⑬ その他の食料・飲料販売業",
      "address": "千葉県野田市山崎貝塚町11-5",
      "lat": 35.92233,
      "lng": 139.896938,
      "geocoding_level": null,
      "phone": "04-7120-1067",
      "license_no": "",
      "license_date": null,
      "expire_date": null
    },
    {
      "name": "しゃぶ葉  野田梅郷店",
      "name_kana": "シャブヨウ  ノダウメサトテン",
      "business_type": "① 飲食店営業",
      "address": "千葉県野田市山崎貝塚町11-5",
      "lat": 35.92233,
      "lng": 139.896938,
      "geocoding_level": null,
      "phone": "04-7120-1067",
      "license_no": "20240093",
      "license_date": "2024-09-20",
      "expire_date": "2031-09-30"
    },
    {
      "name": "居酒屋　幸",
      "name_kana": "イザカヤ　サチ",
      "business_type": "① 飲食店営業",
      "address": "千葉県野田市上花輪新町31番地1",
      "lat": 35.937059,
      "lng": 139.863665,
      "geocoding_level": null,
      "phone": "08012589083",
      "license_no": "2021-44",
      "license_date": "2021-06-30",
      "expire_date": "2026-07-31"
    },
    {
      "name": "くすりの福太郎　野田山崎店",
      "name_kana": "クスリノフクタロウ　ノダヤマザキテン",
      "business_type": "⑪ 百貨店、総合スーパー",
      "address": "千葉県野田市山崎新町1-12",
      "lat": 35.925967,
      "lng": 139.89227,
      "geocoding_level": null,
      "phone": "04-7121-3929",
      "license_no": "",
      "license_date": null,
      "expire_date": null
    },
    {
      "name": "江戸川病院事業所",
      "name_kana": "エドガワビョウインジギョウショ",
      "business_type": "① 飲食店営業",
      "address": "千葉県野田市山崎2702番地",
      "lat": 35.92072,
      "lng": 139.900588,
      "geocoding_level": null,
      "phone": "0471232920",
      "license_no": "20220194",
      "license_date": "2023-03-01",
      "expire_date": "2030-03-31"
    },
    {
      "name": "SHINKOSTORECBREIM野田",
      "name_kana": "シンコウストアシービーアールイーアイエムノダ",
      "business_type": "⑩ コンビニエンスストア",
      "address": "千葉県野田市桐ケ作210 ５F 休憩室内",
      "lat": 36.049267,
      "lng": 139.812827,
      "geocoding_level": null,
      "phone": "080-8021-9269",
      "license_no": "",
      "license_date": null,
      "expire_date": null
    },
    {
      "name": "ドラッグストアマツモトキヨシグリーンパーク店",
      "name_kana": "ドラッグストアマツモトキヨシグリーンパークテン",
      "business_type": "⑬ その他の食料・飲料販売業",
      "address": "千葉県野田市西三ケ尾字孝心424-46",
      "lat": 35.932281,
      "lng": 139.920032,
      "geocoding_level": null,
      "phone": "04-7138-2888",
      "license_no": "",
      "license_date": null,
      "expire_date": null
    },
    {
      "name": "ドラッグストアマツモトキヨシ　川間南口店",
      "name_kana": "ドラッグストアマツモトキヨシ　カワマミナミグチテン",
      "business_type": "③ 乳類販売業",
      "address": "千葉県野田市岩名1-26-5",
      "lat": 35.97637,
      "lng": 139.834215,
      "geocoding_level": null,
      "phone": "04-7127-2225",
      "license_no": "",
      "license_date": null,
      "expire_date": null
    },
    {
      "name": "ドラッグストアマツモトキヨシ野田花井店",
      "name_kana": "ドラッグストアマツモトキヨシノダハナイテン",
      "business_type": "③ 乳類販売業",
      "address": "千葉県野田市花井197",
      "lat": 35.940898,
      "lng": 139.882768,
      "geocoding_level": null,
      "phone": "04-7126-2600",
      "license_no": "",
      "license_date": null,
      "expire_date": null
    },
    {
      "name": "ドラッグストアマツモトキヨシ野田花井店",
      "name_kana": "ドラッグストアマツモトキヨシノダハナイテン",
      "business_type": "⑫ 自動販売機による販売業（コップ式自動販売機（自動洗浄・屋内設置）及び営業許可の対象となる自動販売機を除く）",
      "address": "千葉県野田市花井197",
      "lat": 35.940898,
      "lng": 139.882768,
      "geocoding_level": null,
      "phone": "04-7126-2600",
      "license_no": "",
      "license_date": null,
      "expire_date": null
    },
    {
      "name": "ドラッグストアマツモトキヨシ　野田宮崎店",
      "name_kana": "ドラッグストアマツモトキヨシ　ノダミヤザキテン",
      "business_type": "③ 乳類販売業",
      "address": "千葉県野田市宮崎56-36",
      "lat": 35.951089,
      "lng": 139.875247,
      "geocoding_level": null,
      "phone": "04-7126-5585",
      "license_no": "",
      "license_date": null,
      "expire_date": null
    },
    {
      "name": "petit madoca野田みずき店",
      "name_kana": "プチマドカノダミズキテン",
      "business_type": "③ 乳類販売業",
      "address": "千葉県野田市みずき1-13-7",
      "lat": 35.925388,
      "lng": 139.883289,
      "geocoding_level": null,
      "phone": "04-7123-8231",
      "license_no": "",
      "license_date": null,
      "expire_date": null
    },
    {
      "name": "敷島製パン株式会社　パスコ利根第二工場",
      "name_kana": "シキシマセイパンカブシキガイシャ　パスコトネダイニコウジョウ",
      "business_type": "⑪ 菓子製造業",
      "address": "千葉県野田市中里2766番地",
      "lat": 36.001021,
      "lng": 139.839648,
      "geocoding_level": null,
      "phone": "04-7127-1191",
      "license_no": "2021-3",
      "license_date": "2021-06-18",
      "expire_date": "2028-06-30"
    },
    {
      "name": "セブンイレブン東京理科大学野田キャンパス店",
      "name_kana": "セブンイレブントウキョウリカダイガクノダキャンパステン",
      "business_type": "① 飲食店営業",
      "address": "千葉県野田市山崎2641 7号館",
      "lat": 35.91794,
      "lng": 139.907136,
      "geocoding_level": null,
      "phone": "0471252701",
      "license_no": "20220085",
      "license_date": "2022-09-28",
      "expire_date": "2029-09-30"
    },
    {
      "name": "セブンイレブン東京理科大学野田キャンパス店",
      "name_kana": "セブンイレブントウキョウリカダイガクノダキャンパステン",
      "business_type": "⑩ コンビニエンスストア",
      "address": "千葉県野田市山崎2641　7号館",
      "lat": 35.91876,
      "lng": 139.9082,
      "geocoding_level": null,
      "phone": "0471252701",
      "license_no": "",
      "license_date": null,
      "expire_date": null
    },
    {
      "name": "百香亭",
      "name_kana": "ヒャッコウテイ",
      "business_type": "① 飲食店営業",
      "address": "千葉県野田市山﨑２６３８番地６８",
      "lat": 35.919488,
      "lng": 139.90441,
      "geocoding_level": null,
      "phone": "04-7125-0566",
      "license_no": "2021-40",
      "license_date": "2021-06-30",
      "expire_date": "2028-07-31"
    },
    {
      "name": "Banking∞",
      "name_kana": "バンキングエイト",
      "business_type": "① 飲食店営業",
      "address": "千葉県野田市柳沢24(県内一円)",
      "lat": 35.954048,
      "lng": 139.866516,
      "geocoding_level": null,
      "phone": "090-9818-9696",
      "license_no": "2021-47",
      "license_date": "2021-07-01",
      "expire_date": "2026-07-31"
    },
    {
      "name": "HOW江戸川病院店",
      "name_kana": "ハウエドガワビョウインテン",
      "business_type": "③ 乳類販売業",
      "address": "千葉県野田市山崎2702",
      "lat": 35.920729,
      "lng": 139.900597,
      "geocoding_level": null,
      "phone": "",
      "license_no": "",
      "license_date": null,
      "expire_date": null
    },
    {
      "name": "HOW江戸川病院店",
      "name_kana": "ハウエドガワビョウインテン",
      "business_type": "⑬ その他の食料・飲料販売業",
      "address": "千葉県野田市山崎2702",
      "lat": 35.920729,
      "lng": 139.900597,
      "geocoding_level": null,
      "phone": "",
      "license_no": "",
      "license_date": null,
      "expire_date": null
    },
    {
      "name": "（有）大成機械工業",
      "name_kana": "タイセイキカイコウギョウ",
      "business_type": "㉔ 麺類製造業",
      "address": "千葉県野田市関宿元町１１０番地",
      "lat": 36.071029,
      "lng": 139.791067,
      "geocoding_level": null,
      "phone": "04-7196-1657",
      "license_no": "2021-2",
      "license_date": "2021-06-01",
      "expire_date": "2027-06-30"
    },
    {
      "name": "懐石料理　かんざ",
      "name_kana": "カイセキリョウリ　カンザ",
      "business_type": "① 飲食店営業",
      "address": "千葉県野田市目吹６５８番地",
      "lat": 35.965217,
      "lng": 139.889551,
      "geocoding_level": null,
      "phone": "04-7121-0131",
      "license_no": "2021-32",
      "license_date": "2021-06-01",
      "expire_date": "2027-06-30"
    },
    {
      "name": "懐石料理かんざ",
      "name_kana": "カイセキリョウリカンザ",
      "business_type": "⑬ その他の食料・飲料販売業",
      "address": "千葉県野田市野田市 目吹658",
      "lat": 35.965217,
      "lng": 139.889551,
      "geocoding_level": null,
      "phone": "04-7121-0131",
      "license_no": "",
      "license_date": null,
      "expire_date": null
    },
    {
      "name": "懐石料理かんざ",
      "name_kana": "カイセキリョウリカンザ",
      "business_type": "① 飲食店営業",
      "address": "千葉県野田市目吹658（県内一円）",
      "lat": 35.965217,
      "lng": 139.889551,
      "geocoding_level": null,
      "phone": "04-7121-0131",
      "license_no": "20240139",
      "license_date": "2024-11-07",
      "expire_date": "2029-11-30"
    },
    {
      "name": "寿",
      "name_kana": "コトブキ",
      "business_type": "① 飲食店営業",
      "address": "千葉県野田市古布内９９０番地１１",
      "lat": 36.044752,
      "lng": 139.816604,
      "geocoding_level": null,
      "phone": "04-7196-8068",
      "license_no": "2021-33",
      "license_date": "2021-06-01",
      "expire_date": "2026-06-30"
    },
    {
      "name": "ホスフェクス　アイレディースクリニック",
      "name_kana": "ホスフェクス　アイレディースクリニック",
      "business_type": "① 飲食店営業",
      "address": "千葉県野田市尾崎１４６４番地",
      "lat": 35.989735,
      "lng": 139.831394,
      "geocoding_level": null,
      "phone": "04-7127-8820",
      "license_no": "2021-35",
      "license_date": "2021-06-01",
      "expire_date": "2027-06-30"
    },
    {
      "name": "くつろぎ処　おもや、",
      "name_kana": "クツロギドコロ　オモヤ",
      "business_type": "① 飲食店営業",
      "address": "千葉県野田市木間ケ瀬７２７番地７",
      "lat": 36.031188,
      "lng": 139.827046,
      "geocoding_level": null,
      "phone": "04-7198-3788",
      "license_no": "2021-36",
      "license_date": "2021-06-01",
      "expire_date": "2027-06-30"
    },
    {
      "name": "ミニストップ野田堤台店",
      "name_kana": "ミニストップノダツツミダイテン",
      "business_type": "① 魚介類販売業（包装済みの魚介類のみの販売）",
      "address": "千葉県野田市堤台１３２番地１",
      "lat": 35.949472,
      "lng": 139.848694,
      "geocoding_level": null,
      "phone": "04-7125-8041",
      "license_no": "",
      "license_date": null,
      "expire_date": null
    },
    {
      "name": "ミニストップ野田堤台店",
      "name_kana": "ミニストップノダツツミダイテン",
      "business_type": "② 食肉販売業（包装済みの食肉のみの販売）",
      "address": "千葉県野田市堤台１３２番地１",
      "lat": 35.949472,
      "lng": 139.848694,
      "geocoding_level": null,
      "phone": "04-7125-8041",
      "license_no": "",
      "license_date": null,
      "expire_date": null
    },
    {
      "name": "ミニストップ野田堤台店",
      "name_kana": "ミニストップノダツツミダイテン",
      "business_type": "③ 乳類販売業",
      "address": "千葉県野田市堤台１３２番地１",
      "lat": 35.949472,
      "lng": 139.848694,
      "geocoding_level": null,
      "phone": "04-7125-8041",
      "license_no": "",
      "license_date": null,
      "expire_date": null
    },
    {
      "name": "甘糟化学産業株式会社　千葉工場　食添アルコール第三工場",
      "name_kana": "アマカスカガクサンギョウカブシキガイシャ　チバコウジョウ　ショクテンアルコールダイサンコウジョウ",
      "business_type": "㉜ 添加物製造業",
      "address": "千葉県野田市関宿元町４２３番地",
      "lat": 36.070696,
      "lng": 139.789212,
      "geocoding_level": null,
      "phone": "04-7196-1945",
      "license_no": "2021-1",
      "license_date": "2021-06-01",
      "expire_date": "2028-06-30"
    },
    {
      "name": "甘糟化学産業株式会社　千葉工場　食添アルコール第二工場",
      "name_kana": "アマカスカガクサンギョウカブシキガイシャ　チバコウジョウ　ショクテンアルコールダイニコウジョウ",
      "business_type": "㉜ 添加物製造業",
      "address": "千葉県野田市関宿元町４２３番地",
      "lat": 36.070696,
      "lng": 139.789212,
      "geocoding_level": null,
      "phone": "04-7196-1945",
      "license_no": "2021-3",
      "license_date": "2021-06-30",
      "expire_date": "2028-07-31"
    },
    {
      "name": "甘糟化学産業株式会社　千葉工場　試薬工場",
      "name_kana": "アマカスカガクサンギョウカブシキガイシャ　チバコウジョウ　シヤクコウジョウ",
      "business_type": "⑭ 添加物製造・加工業（法第13 条第１項の規定により規格が定められた添加物の製造を除く。）",
      "address": "千葉県野田市関宿元町４２３番地",
      "lat": 36.070696,
      "lng": 139.789212,
      "geocoding_level": null,
      "phone": "04-7196-1945",
      "license_no": "",
      "license_date": null,
      "expire_date": null
    },
    {
      "name": "みーつ",
      "name_kana": "ミーツ",
      "business_type": "⑪ 菓子製造業",
      "address": "千葉県野田市下三ケ尾７０５番地１",
      "lat": 35.920819,
      "lng": 139.920032,
      "geocoding_level": null,
      "phone": "04-7138-0730",
      "license_no": "2021-2",
      "license_date": "2021-06-01",
      "expire_date": "2027-06-30"
    },
    {
      "name": "宝産業株式会社　関東工場",
      "name_kana": "タカラサンギョウカブシキガイシャ　カントウコウジョウ",
      "business_type": "㉔ 麺類製造業",
      "address": "千葉県野田市七光台３９１番地",
      "lat": 35.983476,
      "lng": 139.843278,
      "geocoding_level": null,
      "phone": "04-7129-1400",
      "license_no": "2021-3",
      "license_date": "2021-06-01",
      "expire_date": "2028-06-30"
    },
    {
      "name": "SBSロジコム株式会社　野田瀬戸支店",
      "name_kana": "エスビーエスロジコムカブシキガイシャノダセトシテン",
      "business_type": "⑩ コンビニエンスストア",
      "address": "千葉県野田市瀬戸1452-4 A棟4階",
      "lat": 35.933361,
      "lng": 139.941703,
      "geocoding_level": null,
      "phone": "04-7137-9771",
      "license_no": "",
      "license_date": null,
      "expire_date": null
    },
    {
      "name": "いなげや野田みずき店",
      "name_kana": "イナゲヤノダミズキテン",
      "business_type": "① 飲食店営業",
      "address": "千葉県野田市みずき2-12",
      "lat": 35.923345,
      "lng": 139.885491,
      "geocoding_level": null,
      "phone": "04-7121-2101",
      "license_no": "2021-45",
      "license_date": "2021-06-30",
      "expire_date": "2026-07-31"
    },
    {
      "name": "いなげや野田みずき店",
      "name_kana": "イナゲヤノダミズキテン",
      "business_type": "⑪ 百貨店、総合スーパー",
      "address": "千葉県野田市みずき2-12",
      "lat": 35.923345,
      "lng": 139.885491,
      "geocoding_level": null,
      "phone": "04-7121-2101",
      "license_no": "",
      "license_date": null,
      "expire_date": null
    },
    {
      "name": "いなげや野田みずき店　デリカ",
      "name_kana": "イナゲヤノダミズキテン　デリカ",
      "business_type": "① 飲食店営業",
      "address": "千葉県野田市みずき2-12",
      "lat": 35.923345,
      "lng": 139.885491,
      "geocoding_level": null,
      "phone": "04-7121-2101",
      "license_no": "2021-105",
      "license_date": "2021-10-01",
      "expire_date": "2028-10-31"
    },
    {
      "name": "いなげや野田みずき店　鮮魚鮨",
      "name_kana": "イナゲヤノダミズキテン　センギョスシ",
      "business_type": "① 飲食店営業",
      "address": "千葉県野田市みずき２－１２",
      "lat": 35.923345,
      "lng": 139.885491,
      "geocoding_level": null,
      "phone": "04-7121-2101",
      "license_no": "20240049",
      "license_date": "2024-06-26",
      "expire_date": "2031-06-30"
    },
    {
      "name": "いなげや野田みずき店",
      "name_kana": "イナゲヤノダミズキテン",
      "business_type": "⑪ 菓子製造業",
      "address": "千葉県野田市みずき2-12",
      "lat": 35.923345,
      "lng": 139.885491,
      "geocoding_level": null,
      "phone": "04-7121-2101",
      "license_no": "20250013",
      "license_date": "2025-09-29",
      "expire_date": "2031-10-31"
    },
    {
      "name": "いなげや野田みずき店　寿司",
      "name_kana": "イナゲヤノダミズキテンスシ",
      "business_type": "① 飲食店営業",
      "address": "千葉県野田市みずき2-12",
      "lat": 35.923345,
      "lng": 139.885491,
      "geocoding_level": null,
      "phone": "04-7121-2101",
      "license_no": "20250198",
      "license_date": "2025-11-26",
      "expire_date": "2031-12-31"
    },
    {
      "name": "いなげや野田みずき店",
      "name_kana": "イナゲヤノダミズギテン",
      "business_type": "④ 魚介類販売業",
      "address": "千葉県野田市みずき2-12",
      "lat": 35.923345,
      "lng": 139.885491,
      "geocoding_level": null,
      "phone": "04-7121-2101",
      "license_no": "20260001",
      "license_date": "2026-05-01",
      "expire_date": "2032-05-31"
    },
    {
      "name": "いなげや野田みずき店",
      "name_kana": "イナゲヤノダミズギテン",
      "business_type": "③ 食肉販売業",
      "address": "千葉県野田市みずき2-12",
      "lat": 35.923345,
      "lng": 139.885491,
      "geocoding_level": null,
      "phone": "04-7121-2101",
      "license_no": "20260001",
      "license_date": "2026-05-01",
      "expire_date": "2032-05-31"
    },
    {
      "name": "ココファン尾崎台",
      "name_kana": "ココファンオザキダイ",
      "business_type": "① 飲食店営業",
      "address": "千葉県野田市尾崎台14番地",
      "lat": 35.984533,
      "lng": 139.837451,
      "geocoding_level": null,
      "phone": "0471277888",
      "license_no": "2021-64",
      "license_date": "2021-07-30",
      "expire_date": "2028-08-31"
    },
    {
      "name": "Ｆａｒｍ　Ｓｔａｎｄ　ＣＡＦＥ",
      "name_kana": "ファームスタンドカフェ",
      "business_type": "① 飲食店営業",
      "address": "千葉県野田市中根18番地50",
      "lat": 35.945488,
      "lng": 139.879347,
      "geocoding_level": null,
      "phone": "0471976626",
      "license_no": "2021-51",
      "license_date": "2021-09-03",
      "expire_date": "2026-09-30"
    },
    {
      "name": "Farm Stand CAFE ROUTE162",
      "name_kana": "ファームスタンドカフェルートイチロクニ",
      "business_type": "① 飲食店営業",
      "address": "千葉県野田市木間ケ瀬1626-1",
      "lat": 36.028539,
      "lng": 139.836945,
      "geocoding_level": null,
      "phone": "",
      "license_no": "20220091",
      "license_date": "2022-09-30",
      "expire_date": "2028-09-30"
    },
    {
      "name": "Farm Stand CAFE ROUTE162",
      "name_kana": "ファームスタンドカフェルートイチロクニ",
      "business_type": "⑦ 野菜果物販売業",
      "address": "千葉県野田市木間ケ瀬1626-1",
      "lat": 36.028539,
      "lng": 139.836945,
      "geocoding_level": null,
      "phone": "",
      "license_no": "",
      "license_date": null,
      "expire_date": null
    },
    {
      "name": "BLOCKVILLAGE",
      "name_kana": "ブロックビレッジ",
      "business_type": "① 飲食店営業",
      "address": "千葉県野田市木間ケ瀬1626-1 県内一円",
      "lat": 36.028539,
      "lng": 139.836945,
      "geocoding_level": null,
      "phone": "047-138-6113",
      "license_no": "20230116",
      "license_date": "2023-07-18",
      "expire_date": "2028-07-31"
    },
    {
      "name": "野天風呂　湯の郷",
      "name_kana": "ノテンブロ　ユノサト",
      "business_type": "③ 乳類販売業",
      "address": "千葉県野田市山崎貝塚町5-2",
      "lat": 35.923311,
      "lng": 139.894796,
      "geocoding_level": null,
      "phone": "",
      "license_no": "",
      "license_date": null,
      "expire_date": null
    },
    {
      "name": "ファミリーマート野田宮崎店",
      "name_kana": "ファミリーマートノダミヤザキテン",
      "business_type": "⑩ コンビニエンスストア",
      "address": "千葉県野田市宮崎123ー10",
      "lat": 35.95517,
      "lng": 139.870279,
      "geocoding_level": null,
      "phone": "0471264880",
      "license_no": "",
      "license_date": null,
      "expire_date": null
    },
    {
      "name": "天馬㈱ 工場 1F",
      "name_kana": "テンマ コウジョウ",
      "business_type": "③ 乳類販売業",
      "address": "千葉県野田市尾崎2345",
      "lat": 35.995265,
      "lng": 139.834473,
      "geocoding_level": null,
      "phone": "",
      "license_no": "",
      "license_date": null,
      "expire_date": null
    },
    {
      "name": "天馬㈱ 守衛所 1F",
      "name_kana": "テンマ シュエイジョ",
      "business_type": "② 調理機能を有する自動販売機（要許可）",
      "address": "千葉県野田市尾崎2345",
      "lat": 35.995278,
      "lng": 139.83448,
      "geocoding_level": null,
      "phone": "",
      "license_no": "20230002",
      "license_date": "2023-11-29",
      "expire_date": "2028-12-31"
    },
    {
      "name": "明治野田宅配センター",
      "name_kana": "メイジノダタクハイセンター",
      "business_type": "③ 乳類販売業",
      "address": "千葉県野田市谷津1275-7",
      "lat": 35.989308,
      "lng": 139.847348,
      "geocoding_level": null,
      "phone": "04-7129-5519",
      "license_no": "",
      "license_date": null,
      "expire_date": null
    },
    {
      "name": "明治野田宅配センター",
      "name_kana": "メイジノダタクハイセンター",
      "business_type": "⑬ その他の食料・飲料販売業",
      "address": "千葉県野田市谷津1275-7",
      "lat": 35.989308,
      "lng": 139.847348,
      "geocoding_level": null,
      "phone": "04-7129-5519",
      "license_no": "",
      "license_date": null,
      "expire_date": null
    },
    {
      "name": "生活協同組合パルシステム千葉　野田センター",
      "name_kana": "セイカツキョウドウクミアイパルシステムチバ　ノダセンター",
      "business_type": "⑪ 百貨店、総合スーパー",
      "address": "千葉県野田市中根193",
      "lat": 35.940827,
      "lng": 139.878557,
      "geocoding_level": null,
      "phone": "050-3784-6705",
      "license_no": "",
      "license_date": null,
      "expire_date": null
    },
    {
      "name": "焼肉きんぐ野田つつみ野店",
      "name_kana": "ヤキニクキングノダツツミノテン",
      "business_type": "① 飲食店営業",
      "address": "千葉県野田市つつみ野1-2-14",
      "lat": 35.94673,
      "lng": 139.849611,
      "geocoding_level": null,
      "phone": "04-7136-7491",
      "license_no": "2025-0275",
      "license_date": "2026-05-01",
      "expire_date": "2032-05-31"
    },
    {
      "name": "イオンノア店",
      "name_kana": "イオンノアテン",
      "business_type": "⑪ 百貨店、総合スーパー",
      "address": "千葉県野田市中根36-1",
      "lat": 35.947823,
      "lng": 139.876977,
      "geocoding_level": null,
      "phone": "04-7122-8100",
      "license_no": "",
      "license_date": null,
      "expire_date": null
    },
    {
      "name": "イオンノア店(フジパン)",
      "name_kana": "イオンノアテン　フジパン",
      "business_type": "⑪ 菓子製造業",
      "address": "千葉県野田市中根36番地1",
      "lat": 35.94794,
      "lng": 139.877174,
      "geocoding_level": null,
      "phone": "0471228100",
      "license_no": "2021-8",
      "license_date": "2021-12-28",
      "expire_date": "2029-01-31"
    },
    {
      "name": "イオンノア店(フジパン)",
      "name_kana": "イオンノアテン　フジパン",
      "business_type": "① 飲食店営業",
      "address": "千葉県野田市中根36番地1",
      "lat": 35.94794,
      "lng": 139.877174,
      "geocoding_level": null,
      "phone": "0471228100",
      "license_no": "2021-178",
      "license_date": "2022-03-01",
      "expire_date": "2029-03-31"
    },
    {
      "name": "イオンノア店　デリカ寿司",
      "name_kana": "イオンノアテン　デリカスシ",
      "business_type": "① 飲食店営業",
      "address": "千葉県野田市中根36番地1",
      "lat": 35.94794,
      "lng": 139.877174,
      "geocoding_level": null,
      "phone": "0471228100",
      "license_no": "20220227",
      "license_date": "2023-03-30",
      "expire_date": "2029-04-30"
    },
    {
      "name": "イオンノア店　水産焼魚",
      "name_kana": "イオンノアテン　スイサンヤキザカナ",
      "business_type": "① 飲食店営業",
      "address": "千葉県野田市中根36-1",
      "lat": 35.94794,
      "lng": 139.877174,
      "geocoding_level": null,
      "phone": "0471228100",
      "license_no": "20230229",
      "license_date": "2024-02-19",
      "expire_date": "2031-02-28"
    },
    {
      "name": "イオンノア店 恵方巻",
      "name_kana": "イオンノアテン　エホウマキ",
      "business_type": "① 飲食店営業",
      "address": "千葉県野田市中根36-1",
      "lat": 35.94794,
      "lng": 139.877174,
      "geocoding_level": null,
      "phone": "0471228100",
      "license_no": "20240177",
      "license_date": "2025-01-21",
      "expire_date": "2032-01-31"
    },
    {
      "name": "イオンノア店　水産寿司",
      "name_kana": "イオンノアテン　スイサンスシ",
      "business_type": "① 飲食店営業",
      "address": "千葉県野田市中根36番地1",
      "lat": 35.947823,
      "lng": 139.876977,
      "geocoding_level": null,
      "phone": "0471228100",
      "license_no": "20240221",
      "license_date": "2025-03-26",
      "expire_date": "2032-04-30"
    },
    {
      "name": "イオンノア店　水産",
      "name_kana": "イオンノアテン　スイサン",
      "business_type": "④ 魚介類販売業",
      "address": "千葉県野田市中根36番地1",
      "lat": 35.947823,
      "lng": 139.876977,
      "geocoding_level": null,
      "phone": "0471228100",
      "license_no": "20240005",
      "license_date": "2025-03-26",
      "expire_date": "2032-04-30"
    },
    {
      "name": "イオン　ノア店（ピザ）",
      "name_kana": "イオンノアテン　ピザ",
      "business_type": "① 飲食店営業",
      "address": "千葉県野田市中根３６番地１",
      "lat": 35.94794,
      "lng": 139.877174,
      "geocoding_level": null,
      "phone": "",
      "license_no": "2021-30",
      "license_date": "2021-06-01",
      "expire_date": "2027-06-30"
    },
    {
      "name": "Taj　Restaurant",
      "name_kana": "タージ　レストラン",
      "business_type": "① 飲食店営業",
      "address": "千葉県野田市平井２３７－６",
      "lat": 36.022677,
      "lng": 139.821441,
      "geocoding_level": null,
      "phone": "090-6038-1970",
      "license_no": "2021-61",
      "license_date": "2021-07-19",
      "expire_date": "2027-07-31"
    },
    {
      "name": "株式会社サンデリカ野田事業所",
      "name_kana": "カブシキガイシャサンデリカノダジギョウショ",
      "business_type": "㉖ 複合型そうざい製造業",
      "address": "千葉県野田市七光台400番地",
      "lat": 35.98057,
      "lng": 139.842402,
      "geocoding_level": null,
      "phone": "04-7127-3751",
      "license_no": "2021-1",
      "license_date": "2021-10-01",
      "expire_date": "2028-10-31"
    },
    {
      "name": "株式会社サンデリカ野田事業所",
      "name_kana": "カブシキガイシャサンデリカノダジギョウショ",
      "business_type": "㉖ 集団給食施設",
      "address": "千葉県野田市七光台400",
      "lat": 35.98057,
      "lng": 139.842399,
      "geocoding_level": null,
      "phone": "04-7127-3751",
      "license_no": "",
      "license_date": null,
      "expire_date": null
    },
    {
      "name": "松風苑",
      "name_kana": "ショウフウエン",
      "business_type": "① 飲食店営業",
      "address": "千葉県野田市清水９９３番地",
      "lat": 35.961284,
      "lng": 139.848388,
      "geocoding_level": null,
      "phone": "0471242717",
      "license_no": "2021-58",
      "license_date": "2021-07-30",
      "expire_date": "2027-08-31"
    },
    {
      "name": "パークテラス",
      "name_kana": "パークテラス",
      "business_type": "① 飲食店営業",
      "address": "千葉県野田市清水９０６番地（県内一円）",
      "lat": 35.961211,
      "lng": 139.848607,
      "geocoding_level": null,
      "phone": "0471242717",
      "license_no": "2021-59",
      "license_date": "2021-07-16",
      "expire_date": "2026-07-31"
    },
    {
      "name": "Café　るぴなす",
      "name_kana": "カフェ　ルピナス",
      "business_type": "① 飲食店営業",
      "address": "千葉県野田市清水１０５０番地１",
      "lat": 35.954134,
      "lng": 139.857286,
      "geocoding_level": null,
      "phone": "0471242717",
      "license_no": "2021-175",
      "license_date": "2022-02-24",
      "expire_date": "2028-02-29"
    },
    {
      "name": "キッチンカー　ミモザ",
      "name_kana": "キッチンカー　ミモザ",
      "business_type": "① 飲食店営業",
      "address": "千葉県野田市清水９０６番地（県内一円）",
      "lat": 35.961211,
      "lng": 139.848607,
      "geocoding_level": null,
      "phone": "0471242717",
      "license_no": "2021-197",
      "license_date": "2022-03-15",
      "expire_date": "2027-03-31"
    },
    {
      "name": "松風苑",
      "name_kana": "ショウフウエン",
      "business_type": "③ 食肉販売業",
      "address": "千葉県野田市清水９９３番地",
      "lat": 35.961284,
      "lng": 139.848388,
      "geocoding_level": null,
      "phone": "0471242717",
      "license_no": "2021-7",
      "license_date": "2022-03-30",
      "expire_date": "2028-04-30"
    },
    {
      "name": "フードショップさくら",
      "name_kana": "フードショップサクラ",
      "business_type": "① 飲食店営業",
      "address": "千葉県野田市清水１００５番地",
      "lat": 35.959285,
      "lng": 139.851857,
      "geocoding_level": null,
      "phone": "0471242717",
      "license_no": "20220195",
      "license_date": "2023-03-30",
      "expire_date": "2030-04-30"
    },
    {
      "name": "ローズマリー",
      "name_kana": "ローズマリー",
      "business_type": "① 飲食店営業",
      "address": "千葉県野田市清水９９３番地",
      "lat": 35.961284,
      "lng": 139.848388,
      "geocoding_level": null,
      "phone": "0471242717",
      "license_no": "20230044",
      "license_date": "2023-06-07",
      "expire_date": "2029-06-30"
    },
    {
      "name": "実のる屋",
      "name_kana": "ミノルヤ",
      "business_type": "① 飲食店営業",
      "address": "千葉県野田市柳沢40－6",
      "lat": 35.956069,
      "lng": 139.868946,
      "geocoding_level": null,
      "phone": "09040072317",
      "license_no": "2021-69",
      "license_date": "2021-08-11",
      "expire_date": "2026-08-31"
    },
    {
      "name": "実のる屋",
      "name_kana": "ミノルヤ",
      "business_type": "① 飲食店営業",
      "address": "千葉県野田市柳沢40－6（県内一円）",
      "lat": 35.956069,
      "lng": 139.868946,
      "geocoding_level": null,
      "phone": "0471140306",
      "license_no": "20220146",
      "license_date": "2022-12-09",
      "expire_date": "2027-12-31"
    },
    {
      "name": "クスリのアオキ尾崎店",
      "name_kana": "クスリノアオキオサキテン",
      "business_type": "⑪ 百貨店、総合スーパー",
      "address": "千葉県野田市尾崎66番地の1",
      "lat": 35.98121,
      "lng": 139.835471,
      "geocoding_level": null,
      "phone": "04-7199-3151",
      "license_no": "",
      "license_date": null,
      "expire_date": null
    },
    {
      "name": "クスリのアオキ岩名店",
      "name_kana": "クスリノアオキイワナテン",
      "business_type": "⑪ 百貨店、総合スーパー",
      "address": "千葉県野田市岩名二丁目27番地の2",
      "lat": 35.97403,
      "lng": 139.840611,
      "geocoding_level": null,
      "phone": "04-7170-0281",
      "license_no": "",
      "license_date": null,
      "expire_date": null
    },
    {
      "name": "三代目茂蔵　野田店",
      "name_kana": "サンダイメシゲゾウ　ノダテン",
      "business_type": "⑬ その他の食料・飲料販売業",
      "address": "千葉県野田市金杉2326-1",
      "lat": 35.96294,
      "lng": 139.878989,
      "geocoding_level": null,
      "phone": "04-7170-1626",
      "license_no": "",
      "license_date": null,
      "expire_date": null
    },
    {
      "name": "黒タイタン号",
      "name_kana": "クロタイタンゴウ",
      "business_type": "① 飲食店営業",
      "address": "千葉県野田市柳沢２４（県内一円）",
      "lat": 35.953245,
      "lng": 139.867859,
      "geocoding_level": null,
      "phone": "",
      "license_no": "20240033",
      "license_date": "2024-06-10",
      "expire_date": "2029-06-30"
    },
    {
      "name": "ベンツ９号",
      "name_kana": "ベンツ",
      "business_type": "① 飲食店営業",
      "address": "千葉県野田市柳沢２４（県内一円）",
      "lat": 35.953245,
      "lng": 139.867859,
      "geocoding_level": null,
      "phone": "",
      "license_no": "20240085",
      "license_date": "2024-08-16",
      "expire_date": "2029-08-31"
    },
    {
      "name": "ギルドハウス野田",
      "name_kana": "ギルドハウスノダ",
      "business_type": "① 飲食店営業",
      "address": "千葉県野田市野田279-10",
      "lat": 35.943325,
      "lng": 139.862865,
      "geocoding_level": null,
      "phone": "08013052972",
      "license_no": "2021-62",
      "license_date": "2021-07-21",
      "expire_date": "2027-07-31"
    },
    {
      "name": "竈ダイニング　たまのや",
      "name_kana": "カマドダイニング　タマノヤ",
      "business_type": "① 飲食店営業",
      "address": "千葉県野田市尾崎815番地93 1階",
      "lat": 35.978711,
      "lng": 139.833017,
      "geocoding_level": null,
      "phone": "0471293036",
      "license_no": "2021-50",
      "license_date": "2021-07-30",
      "expire_date": "2028-08-31"
    },
    {
      "name": "中国家庭料理　菜工房",
      "name_kana": "チュウゴクカテイリョウリサイコウボウ",
      "business_type": "① 飲食店営業",
      "address": "千葉県野田市中根248-2",
      "lat": 35.944782,
      "lng": 139.881421,
      "geocoding_level": null,
      "phone": "04-7123-0477",
      "license_no": "2021-82",
      "license_date": "2021-08-31",
      "expire_date": "2027-08-31"
    },
    {
      "name": "ピザーラケータリングカー16号車",
      "name_kana": "ピザーラケータリングカージュウロクゴウシャ",
      "business_type": "① 飲食店営業",
      "address": "千葉県野田市柳沢24　県内一円",
      "lat": 35.953984,
      "lng": 139.867051,
      "geocoding_level": null,
      "phone": "0439-57-2800",
      "license_no": "20240054",
      "license_date": "2024-06-26",
      "expire_date": "2029-06-30"
    },
    {
      "name": "ピザーラケータリングカー12号車",
      "name_kana": "ピザーラケータリングカージュウニゴウシャ",
      "business_type": "① 飲食店営業",
      "address": "千葉県野田市柳沢24　県内一円",
      "lat": 35.953984,
      "lng": 139.867051,
      "geocoding_level": null,
      "phone": "0439-57-2800",
      "license_no": "20240072",
      "license_date": "2024-07-19",
      "expire_date": "2029-07-31"
    },
    {
      "name": "磯のがってん寿司　野田店",
      "name_kana": "イソノガッテンズシ　ノダテン",
      "business_type": "① 飲食店営業",
      "address": "千葉県野田市中根6-7",
      "lat": 35.949052,
      "lng": 139.877384,
      "geocoding_level": null,
      "phone": "0471261080",
      "license_no": "20240229",
      "license_date": "2025-03-26",
      "expire_date": "2032-04-30"
    },
    {
      "name": "居酒屋　ちよこ",
      "name_kana": "イザカヤ　チヨコ",
      "business_type": "① 飲食店営業",
      "address": "千葉県野田市野田５６２番地 サンシャインコーポ１０２号",
      "lat": 35.94916,
      "lng": 139.864303,
      "geocoding_level": null,
      "phone": "",
      "license_no": "2021-53",
      "license_date": "2021-07-14",
      "expire_date": "2027-08-31"
    },
    {
      "name": "チョアチョアチキン野田店",
      "name_kana": "チョアチョアチキンノダテン",
      "business_type": "① 飲食店営業",
      "address": "千葉県野田市山崎1968-5",
      "lat": 35.930693,
      "lng": 139.894283,
      "geocoding_level": null,
      "phone": "04-7199-9533",
      "license_no": "2021-66",
      "license_date": "2021-07-30",
      "expire_date": "2027-07-31"
    },
    {
      "name": "鳥金",
      "name_kana": "トリキン",
      "business_type": "④ 魚介類販売業",
      "address": "千葉県野田市野田２７６番地",
      "lat": 35.942517,
      "lng": 139.862905,
      "geocoding_level": null,
      "phone": "0471222297",
      "license_no": "2021-2",
      "license_date": "2021-07-30",
      "expire_date": "2027-08-31"
    },
    {
      "name": "本気のやきとり　Red K",
      "name_kana": "ホンキノヤキトリレッドケイ",
      "business_type": "① 飲食店営業",
      "address": "千葉県野田市古布内1541-5-102",
      "lat": 36.044941,
      "lng": 139.815349,
      "geocoding_level": null,
      "phone": "08058773266",
      "license_no": "2021-70",
      "license_date": "2021-07-30",
      "expire_date": "2026-08-31"
    },
    {
      "name": "餃子の王将 野田店",
      "name_kana": "ギョウザノオウショウ　ノダテン",
      "business_type": "① 飲食店営業",
      "address": "千葉県野田市花井364番地2",
      "lat": 35.938336,
      "lng": 139.889295,
      "geocoding_level": null,
      "phone": "04-7125-9222",
      "license_no": "2021-128",
      "license_date": "2021-11-30",
      "expire_date": "2028-12-31"
    },
    {
      "name": "餃子の王将 野田店",
      "name_kana": "ギョウザノオウショウ　ノダテン",
      "business_type": "⑬ その他の食料・飲料販売業",
      "address": "千葉県野田市花井364番2",
      "lat": 35.938336,
      "lng": 139.889295,
      "geocoding_level": null,
      "phone": "04-7125-9222",
      "license_no": "",
      "license_date": null,
      "expire_date": null
    },
    {
      "name": "株式会社日本一",
      "name_kana": "カブシキガイシャニホンイチ",
      "business_type": "④ 魚介類販売業",
      "address": "千葉県野田市目吹1965番地",
      "lat": 35.972402,
      "lng": 139.878627,
      "geocoding_level": null,
      "phone": "04-7124-2616",
      "license_no": "20220002",
      "license_date": "2022-07-01",
      "expire_date": "2028-07-31"
    },
    {
      "name": "株式会社日本一",
      "name_kana": "カブシキガイシャニホンイチ",
      "business_type": "㉕ そうざい製造業",
      "address": "千葉県野田市目吹1965番地",
      "lat": 35.972402,
      "lng": 139.878627,
      "geocoding_level": null,
      "phone": "04-7124-2616",
      "license_no": "20220002",
      "license_date": "2022-07-01",
      "expire_date": "2029-07-31"
    },
    {
      "name": "葵の園・野田",
      "name_kana": "アオイノソノノダ",
      "business_type": "① 飲食店営業",
      "address": "千葉県野田市中里１３８９番地",
      "lat": 35.996849,
      "lng": 139.851182,
      "geocoding_level": null,
      "phone": "04-7197-7830",
      "license_no": "2021-57",
      "license_date": "2021-07-30",
      "expire_date": "2028-08-31"
    },
    {
      "name": "株式会社関根ファーム",
      "name_kana": "カブシキガイシャセキネファーム",
      "business_type": "⑧ 米穀類販売業",
      "address": "千葉県野田市目吹１７０１番地",
      "lat": 35.971267,
      "lng": 139.883389,
      "geocoding_level": null,
      "phone": "04-7121-7500",
      "license_no": "",
      "license_date": null,
      "expire_date": null
    },
    {
      "name": "株式会社関根ファーム",
      "name_kana": "カブシキガイシャセキネファーム",
      "business_type": "⑳ 精穀・製粉業",
      "address": "千葉県野田市目吹１７０１番地",
      "lat": 35.971267,
      "lng": 139.883389,
      "geocoding_level": null,
      "phone": "04-7121-7500",
      "license_no": "",
      "license_date": null,
      "expire_date": null
    },
    {
      "name": "とき和",
      "name_kana": "トキワ",
      "business_type": "① 飲食店営業",
      "address": "千葉県野田市野田767ｰ21",
      "lat": 35.951369,
      "lng": 139.865345,
      "geocoding_level": null,
      "phone": "04-7124-6702",
      "license_no": "2021-60",
      "license_date": "2021-07-30",
      "expire_date": "2027-08-31"
    },
    {
      "name": "みち草",
      "name_kana": "ミチクサ",
      "business_type": "① 飲食店営業",
      "address": "千葉県野田市上花輪618-9",
      "lat": 35.941864,
      "lng": 139.858796,
      "geocoding_level": null,
      "phone": "04-7122-9933",
      "license_no": "2021-76",
      "license_date": "2021-08-31",
      "expire_date": "2027-09-30"
    },
    {
      "name": "西村物産株式会社",
      "name_kana": "ニシムラブッサンカブシキガイシャ",
      "business_type": "⑧ 米穀類販売業",
      "address": "千葉県野田市吉春1180",
      "lat": 35.989499,
      "lng": 139.849905,
      "geocoding_level": null,
      "phone": "0471291313",
      "license_no": "",
      "license_date": null,
      "expire_date": null
    },
    {
      "name": "野田　たい吉",
      "name_kana": "ノダタイキチ",
      "business_type": "① 飲食店営業",
      "address": "千葉県野田市中根193-20",
      "lat": 35.940447,
      "lng": 139.877705,
      "geocoding_level": null,
      "phone": "08042901079",
      "license_no": "20220220",
      "license_date": "2023-03-28",
      "expire_date": "2029-03-31"
    },
    {
      "name": "マックスバリュ野田七光台店",
      "name_kana": "マックスバリュノダナナコウダイテン",
      "business_type": "⑪ 百貨店、総合スーパー",
      "address": "千葉県野田市七光台4-2",
      "lat": 35.981227,
      "lng": 139.853339,
      "geocoding_level": null,
      "phone": "04-7128-1122",
      "license_no": "",
      "license_date": null,
      "expire_date": null
    },
    {
      "name": "マックスバリュ野田七光台店　寿司",
      "name_kana": "マツクスバリュノダナナコウダイテン　スシ",
      "business_type": "① 飲食店営業",
      "address": "千葉県野田市七光台4-2",
      "lat": 35.981227,
      "lng": 139.853339,
      "geocoding_level": null,
      "phone": "04-7128-1122",
      "license_no": "20220011",
      "license_date": "2022-05-01",
      "expire_date": "2028-05-31"
    },
    {
      "name": "マックスバリュ野田七光台店　総菜",
      "name_kana": "マツクスバリュノダナナコウダイテン　ソウザイ",
      "business_type": "① 飲食店営業",
      "address": "千葉県野田市七光台4-2",
      "lat": 35.981227,
      "lng": 139.853339,
      "geocoding_level": null,
      "phone": "04-7128-1122",
      "license_no": "20220010",
      "license_date": "2022-05-01",
      "expire_date": "2028-05-31"
    },
    {
      "name": "マックスバリュ野田七光台店",
      "name_kana": "マツクスバリュノダナナコウダイテン",
      "business_type": "⑪ 菓子製造業",
      "address": "千葉県野田市七光台4-2",
      "lat": 35.981227,
      "lng": 139.853339,
      "geocoding_level": null,
      "phone": "04-7128-1122",
      "license_no": "20220001",
      "license_date": "2022-05-01",
      "expire_date": "2028-05-31"
    },
    {
      "name": "マックスバリュ野田七光台店",
      "name_kana": "マツクスバリュノダナナコウダイテン",
      "business_type": "④ 魚介類販売業",
      "address": "千葉県野田市七光台4-2",
      "lat": 35.981227,
      "lng": 139.853339,
      "geocoding_level": null,
      "phone": "04-7128-1122",
      "license_no": "20220001",
      "license_date": "2022-05-01",
      "expire_date": "2028-05-31"
    },
    {
      "name": "マックスバリュ野田七光台店",
      "name_kana": "マックスバリュノダナナコウダイテン",
      "business_type": "① 飲食店営業",
      "address": "千葉県野田市七光台4-2",
      "lat": 35.981227,
      "lng": 139.853339,
      "geocoding_level": null,
      "phone": "04-7128-1122",
      "license_no": "20230107",
      "license_date": "2023-08-14",
      "expire_date": "2029-08-31"
    },
    {
      "name": "鉄板焼十八番",
      "name_kana": "テッパンヤキジュウハチバン",
      "business_type": "① 飲食店営業",
      "address": "千葉県野田市岩名1-27-16-2F",
      "lat": 35.975436,
      "lng": 139.834793,
      "geocoding_level": null,
      "phone": "",
      "license_no": "2021-63",
      "license_date": "2021-07-28",
      "expire_date": "2027-07-31"
    },
    {
      "name": "居酒屋おばあちゃんち",
      "name_kana": "イザカヤオバアチャンチ",
      "business_type": "① 飲食店営業",
      "address": "千葉県野田市岩名1-27-29",
      "lat": 35.975296,
      "lng": 139.832974,
      "geocoding_level": null,
      "phone": "090-2233-7572",
      "license_no": "2021-123",
      "license_date": "2021-11-30",
      "expire_date": "2026-12-31"
    },
    {
      "name": "ラーメン山岡家　野田店",
      "name_kana": "ラーメンヤマオカヤ　ノダテン",
      "business_type": "① 飲食店営業",
      "address": "千葉県野田市堤根7番地1",
      "lat": 35.93755,
      "lng": 139.890191,
      "geocoding_level": null,
      "phone": "04-7125-1109",
      "license_no": "20250085",
      "license_date": "2025-07-29",
      "expire_date": "2031-08-31"
    },
    {
      "name": "寺畑畜産株式会社",
      "name_kana": "テラハタチクサンカブシキカイシャ",
      "business_type": "⑨ 食肉処理業",
      "address": "千葉県野田市野田２８７",
      "lat": 35.943612,
      "lng": 139.861942,
      "geocoding_level": null,
      "phone": "",
      "license_no": "2021-4",
      "license_date": "2021-07-30",
      "expire_date": "2027-08-31"
    },
    {
      "name": "株式会社トリヤマ",
      "name_kana": "カブシキガイシャトリヤマ",
      "business_type": "㉗ 器具、容器包装の製造・加工業（合成樹脂が使用された器具又は容器包装の製造、加工に限る。）",
      "address": "千葉県野田市上三ケ尾261-4",
      "lat": 35.929486,
      "lng": 139.9057,
      "geocoding_level": null,
      "phone": "0471255599",
      "license_no": "",
      "license_date": null,
      "expire_date": null
    },
    {
      "name": "821",
      "name_kana": "ハチニイチ",
      "business_type": "① 飲食店営業",
      "address": "千葉県野田市柳沢55-1 ヒロコート　1F",
      "lat": 35.957222,
      "lng": 139.871713,
      "geocoding_level": null,
      "phone": "0471976746",
      "license_no": "2021-72",
      "license_date": "2021-08-13",
      "expire_date": "2027-08-31"
    },
    {
      "name": "野田市関宿学校給食センター",
      "name_kana": "ノダシセキヤドガッコウキュウショクセンター",
      "business_type": "① 飲食店営業",
      "address": "千葉県野田市柏寺４８０番地１",
      "lat": 36.046561,
      "lng": 139.810089,
      "geocoding_level": null,
      "phone": "047-196-2141",
      "license_no": "2021-68",
      "license_date": "2021-07-30",
      "expire_date": "2027-08-31"
    },
    {
      "name": "割烹旅館　水明荘",
      "name_kana": "カッポウリョカンスイメイソウ",
      "business_type": "① 飲食店営業",
      "address": "千葉県野田市瀬戸835番地",
      "lat": 35.939964,
      "lng": 139.934547,
      "geocoding_level": null,
      "phone": "0471380234",
      "license_no": "2021-73",
      "license_date": "2021-08-31",
      "expire_date": "2027-09-30"
    },
    {
      "name": "５２０３　ヤマト サカナ 野田店",
      "name_kana": "ヤマトサカナノダテン",
      "business_type": "① 飲食店営業",
      "address": "千葉県野田市花井２６３－４",
      "lat": 35.945814,
      "lng": 139.879871,
      "geocoding_level": null,
      "phone": "04-7197-7020",
      "license_no": "20240066",
      "license_date": "2024-08-02",
      "expire_date": "2031-08-31"
    },
    {
      "name": "５２０３　ヤマト サカナ 野田店",
      "name_kana": "ヤマトサカナノダテン",
      "business_type": "④ 魚介類販売業",
      "address": "千葉県野田市花井２６３－４",
      "lat": 35.945814,
      "lng": 139.879871,
      "geocoding_level": null,
      "phone": "04-7197-7020",
      "license_no": "20240001",
      "license_date": "2024-08-02",
      "expire_date": "2031-08-31"
    },
    {
      "name": "あずみ苑 グランデ柳沢",
      "name_kana": "アズミエン　グランデヤナギサワ",
      "business_type": "① 飲食店営業",
      "address": "千葉県野田市柳沢52-1",
      "lat": 35.959255,
      "lng": 139.870036,
      "geocoding_level": null,
      "phone": "",
      "license_no": "2021-160",
      "license_date": "2022-02-01",
      "expire_date": "2029-02-28"
    },
    {
      "name": "あずみ苑　清水公園",
      "name_kana": "アズミエン　シミズコウエン",
      "business_type": "① 飲食店営業",
      "address": "千葉県野田市柳沢新田字庚申塚49-11",
      "lat": 35.954638,
      "lng": 139.867519,
      "geocoding_level": null,
      "phone": "",
      "license_no": "2021-161",
      "license_date": "2022-02-01",
      "expire_date": "2029-02-28"
    },
    {
      "name": "岩木小学校老人デイサービスセンター",
      "name_kana": "イワキショウガッコウロウジンデイサービスセンター",
      "business_type": "① 飲食店営業",
      "address": "千葉県野田市岩名2-12-1",
      "lat": 35.97541,
      "lng": 139.838724,
      "geocoding_level": null,
      "phone": "080-9898-6279",
      "license_no": "20240236",
      "license_date": "2025-03-26",
      "expire_date": "2031-04-30"
    },
    {
      "name": "野田総合病院",
      "name_kana": "ノダソウゴウビョウイン",
      "business_type": "① 飲食店営業",
      "address": "千葉県野田市横内29-1",
      "lat": 35.952054,
      "lng": 139.879404,
      "geocoding_level": null,
      "phone": "04-7124-6666",
      "license_no": "20250079",
      "license_date": "2025-07-18",
      "expire_date": "2031-07-31"
    },
    {
      "name": "青果の八百心　野田店",
      "name_kana": "セイカノヤオシン　ノダテン",
      "business_type": "⑦ 野菜果物販売業",
      "address": "千葉県野田市山崎1326-2 業務スーパー野田店内",
      "lat": 35.933318,
      "lng": 139.879127,
      "geocoding_level": null,
      "phone": "0471221188",
      "license_no": "",
      "license_date": null,
      "expire_date": null
    },
    {
      "name": "ASD　日立物流首都圏 野田営業所",
      "name_kana": "エイエスディ　ヒタチブツリュウシュトケン　ノダエイギョウショ",
      "business_type": "⑫ 自動販売機による販売業（コップ式自動販売機（自動洗浄・屋内設置）及び営業許可の対象となる自動販売機を除く）",
      "address": "千葉県野田市西三ヶ尾355-15 日立物流首都圏　野田営業所 4階",
      "lat": 35.933997,
      "lng": 139.9084,
      "geocoding_level": null,
      "phone": "",
      "license_no": "",
      "license_date": null,
      "expire_date": null
    },
    {
      "name": "ASDコープネット船形物流センター",
      "name_kana": "エーエスディーコープネットフナガタブツリュウセンター",
      "business_type": "③ 乳類販売業",
      "address": "千葉県野田市船形１６４２－１",
      "lat": 35.989351,
      "lng": 139.852338,
      "geocoding_level": null,
      "phone": "",
      "license_no": "",
      "license_date": null,
      "expire_date": null
    },
    {
      "name": "ASD（株）東日本宇佐美１６号柏インター店",
      "name_kana": "ヒガシニホンウサミジュウロクゴウカシワインターテン",
      "business_type": "③ 乳類販売業",
      "address": "千葉県野田市下三ケ尾３５３番地１",
      "lat": 35.923096,
      "lng": 139.917762,
      "geocoding_level": null,
      "phone": "",
      "license_no": "",
      "license_date": null,
      "expire_date": null
    },
    {
      "name": "ミュージック・クラブ　ファイン",
      "name_kana": "ミュージッククラブファイン",
      "business_type": "① 飲食店営業",
      "address": "千葉県野田市尾崎８１５番地９３　２Ｆ",
      "lat": 35.978711,
      "lng": 139.833017,
      "geocoding_level": null,
      "phone": "04-7127-4141",
      "license_no": "2021-52",
      "license_date": "2021-07-30",
      "expire_date": "2028-08-31"
    },
    {
      "name": "株式会社蒲鉾の八木橋",
      "name_kana": "カブシキガイシャカマボコノヤギハシ",
      "business_type": "⑯ 水産製品製造業",
      "address": "千葉県野田市野田241",
      "lat": 35.941902,
      "lng": 139.864585,
      "geocoding_level": null,
      "phone": "0471228712",
      "license_no": "2021-1",
      "license_date": "2021-08-31",
      "expire_date": "2027-09-30"
    },
    {
      "name": "株式会社蒲鉾の八木橋",
      "name_kana": "カブシキガイシャカマボコノヤギハシ",
      "business_type": "① 飲食店営業",
      "address": "千葉県野田市野田241",
      "lat": 35.941902,
      "lng": 139.864585,
      "geocoding_level": null,
      "phone": "0471228712",
      "license_no": "2021-103",
      "license_date": "2021-10-01",
      "expire_date": "2027-10-31"
    },
    {
      "name": "新角",
      "name_kana": "シンカク",
      "business_type": "① 飲食店営業",
      "address": "千葉県野田市日の出町19-2",
      "lat": 35.986007,
      "lng": 139.840941,
      "geocoding_level": null,
      "phone": "0471296260",
      "license_no": "2021-71",
      "license_date": "2021-08-31",
      "expire_date": "2027-09-30"
    },
    {
      "name": "居酒や　め組",
      "name_kana": "イザカヤ　メグミ",
      "business_type": "① 飲食店営業",
      "address": "千葉県野田市山崎2638-10",
      "lat": 35.918007,
      "lng": 139.903999,
      "geocoding_level": null,
      "phone": "",
      "license_no": "2021-78",
      "license_date": "2021-08-31",
      "expire_date": "2026-09-30"
    },
    {
      "name": "リエゾン",
      "name_kana": "リエゾン",
      "business_type": "① 飲食店営業",
      "address": "千葉県野田市堤台438-126",
      "lat": 35.953169,
      "lng": 139.847068,
      "geocoding_level": null,
      "phone": "0471250773",
      "license_no": "2021-81",
      "license_date": "2021-08-31",
      "expire_date": "2027-09-30"
    },
    {
      "name": "懐石・割烹　泉亭",
      "name_kana": "カイセキ・カッポウ　イズミテイ",
      "business_type": "① 飲食店営業",
      "address": "千葉県野田市中野台265",
      "lat": 35.944683,
      "lng": 139.857232,
      "geocoding_level": null,
      "phone": "0471241231",
      "license_no": "20230100",
      "license_date": "2023-07-28",
      "expire_date": "2029-08-31"
    },
    {
      "name": "有限会社寿司虎",
      "name_kana": "ユウゲンガイシャスシトラ",
      "business_type": "① 飲食店営業",
      "address": "千葉県野田市清水266",
      "lat": 35.953036,
      "lng": 139.861466,
      "geocoding_level": null,
      "phone": "0471224617",
      "license_no": "2021-77",
      "license_date": "2021-08-30",
      "expire_date": "2027-08-31"
    },
    {
      "name": "圭英薬品株式会社",
      "name_kana": "ケイエイヤクヒンカブシキガイシャ",
      "business_type": "㉜ 添加物製造業",
      "address": "千葉県野田市船形１１０９－３",
      "lat": 35.985712,
      "lng": 139.860146,
      "geocoding_level": null,
      "phone": "04-7127-2771",
      "license_no": "2021-4",
      "license_date": "2021-10-01",
      "expire_date": "2026-10-31"
    },
    {
      "name": "有限会社たか寿司",
      "name_kana": "ユウゲンガイシャタカズシ",
      "business_type": "① 飲食店営業",
      "address": "千葉県野田市五木新町8番地33",
      "lat": 35.973877,
      "lng": 139.845128,
      "geocoding_level": null,
      "phone": "0471272191",
      "license_no": "2021-75",
      "license_date": "2021-08-17",
      "expire_date": "2027-08-31"
    },
    {
      "name": "イタリアン・トマト　カフェイオンノア店",
      "name_kana": "イタリアントマトカフェイオンノアテン",
      "business_type": "⑬ その他の食料・飲料販売業",
      "address": "千葉県野田市中根36-1 イオンノア店1F",
      "lat": 35.947823,
      "lng": 139.876977,
      "geocoding_level": null,
      "phone": "0471258208",
      "license_no": "",
      "license_date": null,
      "expire_date": null
    },
    {
      "name": "社会福祉法人すくすくどろんこの会　やまざき杜の保育園",
      "name_kana": "シャカイフクシホウジンスクスクドロンコノカイ　ヤマザキモリノホイクエン",
      "business_type": "㉖ 集団給食施設",
      "address": "千葉県野田市山崎1134-1",
      "lat": 35.928238,
      "lng": 139.886159,
      "geocoding_level": null,
      "phone": "04-7126-5720",
      "license_no": "",
      "license_date": null,
      "expire_date": null
    },
    {
      "name": "中華料理　元祥",
      "name_kana": "チュウカリョウリ　ゲンショウ",
      "business_type": "① 飲食店営業",
      "address": "千葉県野田市山崎１３７２－１",
      "lat": 35.933347,
      "lng": 139.882911,
      "geocoding_level": null,
      "phone": "0471253887",
      "license_no": "2021-89",
      "license_date": "2021-08-31",
      "expire_date": "2027-09-30"
    },
    {
      "name": "中華料理　元祥",
      "name_kana": "チュウカリョウリ　ゲンショウ",
      "business_type": "① 魚介類販売業（包装済みの魚介類のみの販売）",
      "address": "千葉県野田市山崎１３７２－１",
      "lat": 35.933347,
      "lng": 139.882911,
      "geocoding_level": null,
      "phone": "0471253887",
      "license_no": "",
      "license_date": null,
      "expire_date": null
    },
    {
      "name": "中華料理　元祥",
      "name_kana": "チュウカリョウリ　ゲンショウ",
      "business_type": "② 食肉販売業（包装済みの食肉のみの販売）",
      "address": "千葉県野田市山崎１３７２－１",
      "lat": 35.933347,
      "lng": 139.882911,
      "geocoding_level": null,
      "phone": "0471253887",
      "license_no": "",
      "license_date": null,
      "expire_date": null
    },
    {
      "name": "中華料理　元祥",
      "name_kana": "チュウカリョウリ　ゲンショウ",
      "business_type": "⑦ 野菜果物販売業",
      "address": "千葉県野田市山崎１３７２－１",
      "lat": 35.933347,
      "lng": 139.882911,
      "geocoding_level": null,
      "phone": "0471253887",
      "license_no": "",
      "license_date": null,
      "expire_date": null
    },
    {
      "name": "中華料理　元祥",
      "name_kana": "チュウカリョウリ　ゲンショウ",
      "business_type": "⑬ その他の食料・飲料販売業",
      "address": "千葉県野田市山崎１３７２－１",
      "lat": 35.933347,
      "lng": 139.882911,
      "geocoding_level": null,
      "phone": "0471253887",
      "license_no": "",
      "license_date": null,
      "expire_date": null
    },
    {
      "name": "中華料理　元祥",
      "name_kana": "チュウカリョウリ　ゲンショウ",
      "business_type": "㉕ そうざい製造業",
      "address": "千葉県野田市山崎１３７２－１",
      "lat": 35.933347,
      "lng": 139.882911,
      "geocoding_level": null,
      "phone": "0471253887",
      "license_no": "2021-2",
      "license_date": "2021-10-19",
      "expire_date": "2027-10-31"
    },
    {
      "name": "元祥",
      "name_kana": "ゲンショウ",
      "business_type": "① 飲食店営業",
      "address": "千葉県野田市中野台１２５－１",
      "lat": 35.948516,
      "lng": 139.857415,
      "geocoding_level": null,
      "phone": "04-7154-1028",
      "license_no": "20230178",
      "license_date": "2023-10-31",
      "expire_date": "2029-10-31"
    },
    {
      "name": "医療法人社団　真療会　野田病院",
      "name_kana": "イリョウホウジンシャダン　シンリョウカイ　ノダビョウイン",
      "business_type": "① 飲食店営業",
      "address": "千葉県野田市中里1554-1",
      "lat": 36.000755,
      "lng": 139.847778,
      "geocoding_level": null,
      "phone": "04-7127-3200",
      "license_no": "20240102",
      "license_date": "2024-09-20",
      "expire_date": "2031-09-30"
    },
    {
      "name": "酒処 髙橋",
      "name_kana": "サケドコロタカハシ",
      "business_type": "① 飲食店営業",
      "address": "千葉県野田市中野台346",
      "lat": 35.944536,
      "lng": 139.855706,
      "geocoding_level": null,
      "phone": "04-7124-5838",
      "license_no": "2021-83",
      "license_date": "2021-08-31",
      "expire_date": "2026-09-30"
    },
    {
      "name": "あそかの食卓",
      "name_kana": "アソカノショクタク",
      "business_type": "① 飲食店営業",
      "address": "千葉県野田市中野台143-1",
      "lat": 35.949497,
      "lng": 139.857906,
      "geocoding_level": null,
      "phone": "09027651620",
      "license_no": "2021-80",
      "license_date": "2021-08-31",
      "expire_date": "2026-09-30"
    },
    {
      "name": "椎紗伊土",
      "name_kana": "シーサイド",
      "business_type": "① 飲食店営業",
      "address": "千葉県野田市東宝珠花４４６－１",
      "lat": 36.022939,
      "lng": 139.821561,
      "geocoding_level": null,
      "phone": "04-7198-3926",
      "license_no": "2021-99",
      "license_date": "2021-10-01",
      "expire_date": "2027-10-31"
    },
    {
      "name": "FEARLESS",
      "name_kana": "フェアレス",
      "business_type": "① 飲食店営業",
      "address": "千葉県野田市柳沢24　（県内一円）",
      "lat": 35.953372,
      "lng": 139.867596,
      "geocoding_level": null,
      "phone": "08034463288",
      "license_no": "2021-79",
      "license_date": "2021-08-24",
      "expire_date": "2026-08-31"
    },
    {
      "name": "セブンイレブン野田日の出町店",
      "name_kana": "セブンイレブンノダヒノデチョウテン",
      "business_type": "① 飲食店営業",
      "address": "千葉県野田市谷吉2-3",
      "lat": 35.985845,
      "lng": 139.843903,
      "geocoding_level": null,
      "phone": "0471277027",
      "license_no": "2021-84",
      "license_date": "2021-08-31",
      "expire_date": "2027-09-30"
    },
    {
      "name": "セブンイレブン野田谷津店",
      "name_kana": "セブンイレブンノダヤツテン",
      "business_type": "⑩ コンビニエンスストア",
      "address": "千葉県野田市谷津木戸口1345-2",
      "lat": 35.989138,
      "lng": 139.849388,
      "geocoding_level": null,
      "phone": "0471208180",
      "license_no": "",
      "license_date": null,
      "expire_date": null
    },
    {
      "name": "セブンイレブン野田尾崎店",
      "name_kana": "セブンイレブンノダオサキテン",
      "business_type": "⑩ コンビニエンスストア",
      "address": "千葉県野田市尾崎８５７－９",
      "lat": 35.980727,
      "lng": 139.836559,
      "geocoding_level": null,
      "phone": "0471290807",
      "license_no": "",
      "license_date": null,
      "expire_date": null
    },
    {
      "name": "セブンイレブン野田日の出町店",
      "name_kana": "セブンイレブンノダヒノデチョウテン",
      "business_type": "⑩ コンビニエンスストア",
      "address": "千葉県野田市谷吉2-3",
      "lat": 35.985845,
      "lng": 139.843903,
      "geocoding_level": null,
      "phone": "0471277027",
      "license_no": "",
      "license_date": null,
      "expire_date": null
    },
    {
      "name": "セブンイレブン野田大和田団地店",
      "name_kana": "セブンイレブンノダオオワダダンチテン",
      "business_type": "⑩ コンビニエンスストア",
      "address": "千葉県野田市山崎1291-5",
      "lat": 35.932886,
      "lng": 139.878492,
      "geocoding_level": null,
      "phone": "0471223338",
      "license_no": "",
      "license_date": null,
      "expire_date": null
    },
    {
      "name": "株式会社東部給食センターアマダウェルドテック内食堂",
      "name_kana": "カブシキカイシャトウブキュウショクセンターアマダウェルドテックナイショクドウ",
      "business_type": "① 飲食店営業",
      "address": "千葉県野田市二ツ塚95-3 アマダウェルドテック内食堂",
      "lat": 35.932349,
      "lng": 139.903098,
      "geocoding_level": null,
      "phone": "04-7180-9923",
      "license_no": "2021-98",
      "license_date": "2021-10-01",
      "expire_date": "2027-10-31"
    },
    {
      "name": "ばんどう太郎関宿店",
      "name_kana": "バンドウタロウセキヤドテン",
      "business_type": "① 飲食店営業",
      "address": "千葉県野田市柏寺476-1",
      "lat": 36.047074,
      "lng": 139.80949,
      "geocoding_level": null,
      "phone": "04-7120-7481",
      "license_no": "2021-90",
      "license_date": "2021-08-31",
      "expire_date": "2027-09-30"
    },
    {
      "name": "弁当のあんどう",
      "name_kana": "ベントウノアンドウ",
      "business_type": "① 飲食店営業",
      "address": "千葉県野田市東宝珠花115",
      "lat": 36.029056,
      "lng": 139.820791,
      "geocoding_level": null,
      "phone": "0471982634",
      "license_no": "2021-87",
      "license_date": "2021-08-31",
      "expire_date": "2027-09-30"
    },
    {
      "name": "ブーランジェリー　シュシュ",
      "name_kana": "ブーランジェリー　シュシュ",
      "business_type": "① 飲食店営業",
      "address": "千葉県野田市岩名2-6-5",
      "lat": 35.976124,
      "lng": 139.834993,
      "geocoding_level": null,
      "phone": "0471004180",
      "license_no": "2021-85",
      "license_date": "2021-08-31",
      "expire_date": "2027-09-30"
    },
    {
      "name": "ブーランジェリー　シュシュ",
      "name_kana": "ブーランジェリー　シュシュ",
      "business_type": "⑪ 菓子製造業",
      "address": "千葉県野田市岩名2-6-5",
      "lat": 35.976124,
      "lng": 139.834993,
      "geocoding_level": null,
      "phone": "0471004180",
      "license_no": "2021-5",
      "license_date": "2021-08-31",
      "expire_date": "2027-09-30"
    },
    {
      "name": "ブーランジェリー　シュシュ",
      "name_kana": "ブーランジェリー　シュシュ",
      "business_type": "③ 乳類販売業",
      "address": "千葉県野田市岩名2-6-5",
      "lat": 35.976119,
      "lng": 139.834997,
      "geocoding_level": null,
      "phone": "04-7100-4180",
      "license_no": "",
      "license_date": null,
      "expire_date": null
    },
    {
      "name": "ジョイフーズ野田山崎店",
      "name_kana": "ジョイフーズノダヤマザキテン",
      "business_type": "① 飲食店営業",
      "address": "千葉県野田市山崎2370-1",
      "lat": 35.922295,
      "lng": 139.897857,
      "geocoding_level": null,
      "phone": "0471804027",
      "license_no": "20250078",
      "license_date": "2025-07-29",
      "expire_date": "2031-08-31"
    },
    {
      "name": "ジョイフーズ野田山崎店",
      "name_kana": "ジョイフーズノダヤマザキテン",
      "business_type": "④ 魚介類販売業",
      "address": "千葉県野田市山崎2370-1",
      "lat": 35.922295,
      "lng": 139.897857,
      "geocoding_level": null,
      "phone": "0471804027",
      "license_no": "20250001",
      "license_date": "2025-07-29",
      "expire_date": "2031-08-31"
    },
    {
      "name": "ジョイフーズ野田山崎店",
      "name_kana": "ジョイフーズノダヤマザキテン",
      "business_type": "⑪ 百貨店、総合スーパー",
      "address": "千葉県野田市山崎2370-1",
      "lat": 35.922295,
      "lng": 139.897857,
      "geocoding_level": null,
      "phone": "0471804027",
      "license_no": "",
      "license_date": null,
      "expire_date": null
    },
    {
      "name": "ジョイフーズ関宿次木店",
      "name_kana": "ジョイフーズセキヤドナミキテン",
      "business_type": "① 飲食店営業",
      "address": "千葉県野田市なみき2-1-5",
      "lat": 36.036281,
      "lng": 139.819292,
      "geocoding_level": null,
      "phone": "04-7198-1131",
      "license_no": "20220154",
      "license_date": "2022-12-28",
      "expire_date": "2029-01-31"
    },
    {
      "name": "ジョイフーズ野田山崎店",
      "name_kana": "ジョイフーズノダヤマザキテン",
      "business_type": "③ 食肉販売業",
      "address": "千葉県野田市山崎2370-1",
      "lat": 35.922295,
      "lng": 139.897857,
      "geocoding_level": null,
      "phone": "0471804027",
      "license_no": "20250002",
      "license_date": "2026-03-26",
      "expire_date": "2032-04-30"
    },
    {
      "name": "ジョイフーズ野田山崎店",
      "name_kana": "ジョイフーズノダヤマザキテン",
      "business_type": "① 飲食店営業",
      "address": "千葉県野田市山崎2370-1",
      "lat": 35.922295,
      "lng": 139.897857,
      "geocoding_level": null,
      "phone": "0471804027",
      "license_no": "20250077",
      "license_date": "2025-07-29",
      "expire_date": "2031-08-31"
    },
    {
      "name": "ジョイフーズ関宿次木店",
      "name_kana": "ジョイフーズセキヤドナミキテン",
      "business_type": "⑪ 百貨店、総合スーパー",
      "address": "千葉県野田市なみき2-1-5",
      "lat": 36.036285,
      "lng": 139.819292,
      "geocoding_level": null,
      "phone": "0471981131",
      "license_no": "",
      "license_date": null,
      "expire_date": null
    },
    {
      "name": "ジョイフーズ関宿次木店",
      "name_kana": "ジョイフーズセキヤドナミキテン",
      "business_type": "① 飲食店営業",
      "address": "千葉県野田市なみき2-1-5",
      "lat": 36.036285,
      "lng": 139.819292,
      "geocoding_level": null,
      "phone": "0471981131",
      "license_no": "2021-144",
      "license_date": "2021-12-28",
      "expire_date": "2029-01-31"
    },
    {
      "name": "ジョイフーズ関宿次木店",
      "name_kana": "ジョイフーズセキヤドナミキテン",
      "business_type": "③ 食肉販売業",
      "address": "千葉県野田市なみき2-1-5",
      "lat": 36.036285,
      "lng": 139.819292,
      "geocoding_level": null,
      "phone": "0471981131",
      "license_no": "2021-6",
      "license_date": "2021-12-28",
      "expire_date": "2029-01-31"
    },
    {
      "name": "ジョイフーズ関宿次木店",
      "name_kana": "ジョイフーズセキヤドナミキテン",
      "business_type": "④ 魚介類販売業",
      "address": "千葉県野田市なみき2-1-5",
      "lat": 36.036285,
      "lng": 139.819292,
      "geocoding_level": null,
      "phone": "0471981131",
      "license_no": "2021-5",
      "license_date": "2021-12-28",
      "expire_date": "2029-01-31"
    },
    {
      "name": "大花堂製菓株式会社",
      "name_kana": "タイカドウセイカカブシキガイシャ",
      "business_type": "⑪ 菓子製造業",
      "address": "千葉県野田市木間ケ瀬3535",
      "lat": 36.022553,
      "lng": 139.845708,
      "geocoding_level": null,
      "phone": "0471981188",
      "license_no": "2021-6",
      "license_date": "2021-08-31",
      "expire_date": "2026-09-30"
    },
    {
      "name": "アートチャイルドケア野田東部みどり保育園",
      "name_kana": "アートチャイルドケアノダトウブミドリホイクエン",
      "business_type": "㉖ 集団給食施設",
      "address": "千葉県野田市鶴奉228",
      "lat": 35.960478,
      "lng": 139.885937,
      "geocoding_level": null,
      "phone": "04-7122-0425",
      "license_no": "",
      "license_date": null,
      "expire_date": null
    },
    {
      "name": "セミナトーレ",
      "name_kana": "セミナトーレ",
      "business_type": "① 飲食店営業",
      "address": "千葉県野田市岩名2-7-30 コーポ倉持101",
      "lat": 35.975907,
      "lng": 139.835432,
      "geocoding_level": null,
      "phone": "0471701257",
      "license_no": "2021-88",
      "license_date": "2021-08-31",
      "expire_date": "2028-09-30"
    },
    {
      "name": "セミナトーレ",
      "name_kana": "セミナトーレ",
      "business_type": "㉔ その他の食料品製造・加工業",
      "address": "千葉県野田市岩名2-7-30 コーポ倉持101",
      "lat": 35.975907,
      "lng": 139.835432,
      "geocoding_level": null,
      "phone": "0471701257",
      "license_no": "",
      "license_date": null,
      "expire_date": null
    },
    {
      "name": "やきとり竜鳳　S500P-0140798",
      "name_kana": "リュホウ",
      "business_type": "① 飲食店営業",
      "address": "千葉県野田市柳沢24 (県内一円)",
      "lat": 35.953372,
      "lng": 139.867596,
      "geocoding_level": null,
      "phone": "0480934442",
      "license_no": "2021-91",
      "license_date": "2021-09-06",
      "expire_date": "2026-09-30"
    },
    {
      "name": "野田市立川間小学校",
      "name_kana": "ノダシリツカワマショウガッコウ",
      "business_type": "① 飲食店営業",
      "address": "千葉県野田市中里　934",
      "lat": 35.996611,
      "lng": 139.844765,
      "geocoding_level": null,
      "phone": "04-7129-4003",
      "license_no": "2021-203",
      "license_date": "2022-03-31",
      "expire_date": "2028-04-30"
    },
    {
      "name": "野田市学校給食センター",
      "name_kana": "ノダシガッコウキュウショクセンター",
      "business_type": "① 飲食店営業",
      "address": "千葉県野田市宮崎210-5",
      "lat": 35.955784,
      "lng": 139.883906,
      "geocoding_level": null,
      "phone": "04-7192-8008",
      "license_no": "2021-202",
      "license_date": "2022-03-31",
      "expire_date": "2029-04-30"
    },
    {
      "name": "野田市福田保育所",
      "name_kana": "ノダシフクダホウクショ",
      "business_type": "① 飲食店営業",
      "address": "千葉県野田市木野崎　1648-6",
      "lat": 35.949305,
      "lng": 139.908945,
      "geocoding_level": null,
      "phone": "04-7138-0577",
      "license_no": "20220222",
      "license_date": "2023-03-24",
      "expire_date": "2030-03-31"
    },
    {
      "name": "野田市立南部小学校",
      "name_kana": "ノダシリツナンブショウガッコウ",
      "business_type": "① 飲食店営業",
      "address": "千葉県野田市山﨑1503",
      "lat": 35.930631,
      "lng": 139.884959,
      "geocoding_level": null,
      "phone": "04-7122-2509",
      "license_no": "20230137",
      "license_date": "2023-08-31",
      "expire_date": "2029-09-30"
    },
    {
      "name": "野田市立岩木小学校",
      "name_kana": "ノダシリツイワキショウガッコウ",
      "business_type": "① 飲食店営業",
      "address": "千葉県野田市岩名2-12-1",
      "lat": 35.975411,
      "lng": 139.838721,
      "geocoding_level": null,
      "phone": "04-7129-5989",
      "license_no": "20230131",
      "license_date": "2023-08-31",
      "expire_date": "2030-09-30"
    },
    {
      "name": "野田市立福田第一小学校",
      "name_kana": "ノダシリツフクダダイイチショウガッコウ",
      "business_type": "① 飲食店営業",
      "address": "千葉県野田市三ツ堀1372",
      "lat": 35.948652,
      "lng": 139.919964,
      "geocoding_level": null,
      "phone": "04-7138-2109",
      "license_no": "20230139",
      "license_date": "2023-08-31",
      "expire_date": "2030-09-30"
    },
    {
      "name": "野田市立山崎小学校",
      "name_kana": "ノダシリツナンブショウガッコウ",
      "business_type": "① 飲食店営業",
      "address": "千葉県野田市山崎2733",
      "lat": 35.9286,
      "lng": 139.900973,
      "geocoding_level": null,
      "phone": "04-7125-2938",
      "license_no": "20230143",
      "license_date": "2023-08-31",
      "expire_date": "2030-09-30"
    },
    {
      "name": "野田市立尾崎小学校",
      "name_kana": "ノダシリツオサキショウガッコウ",
      "business_type": "① 飲食店営業",
      "address": "千葉県野田市尾﨑1415",
      "lat": 35.955175,
      "lng": 139.87419,
      "geocoding_level": null,
      "phone": "04-7129-8166",
      "license_no": "20230133",
      "license_date": "2023-08-31",
      "expire_date": "2030-09-30"
    },
    {
      "name": "野田市立七光台小学校",
      "name_kana": "ノダシリツナナコウダイショウガッコウ",
      "business_type": "① 飲食店営業",
      "address": "千葉県野田市七光台20-1",
      "lat": 35.98006,
      "lng": 139.853561,
      "geocoding_level": null,
      "phone": "04-7127-1712",
      "license_no": "20230136",
      "license_date": "2023-08-31",
      "expire_date": "2030-09-30"
    },
    {
      "name": "野田市立二ツ塚小学校",
      "name_kana": "ノダシリツフタツカショウガッコウ",
      "business_type": "① 飲食店営業",
      "address": "千葉県野田市二ツ塚485-2",
      "lat": 35.939463,
      "lng": 139.910774,
      "geocoding_level": null,
      "phone": "04-7138-1677",
      "license_no": "20230141",
      "license_date": "2023-08-31",
      "expire_date": "2030-09-30"
    },
    {
      "name": "野田市立南部中学校",
      "name_kana": "ノダシリツナンブチュウガッコウ",
      "business_type": "① 飲食店営業",
      "address": "千葉県野田市花井67",
      "lat": 35.935987,
      "lng": 139.885169,
      "geocoding_level": null,
      "phone": "04-7138-1677",
      "license_no": "20230138",
      "license_date": "2023-08-31",
      "expire_date": "2029-09-30"
    },
    {
      "name": "東武商事㈱川間駅",
      "name_kana": "トウブショウジカブシキカイシャカワマエキ",
      "business_type": "③ 乳類販売業",
      "address": "千葉県野田市尾崎８３２",
      "lat": 35.979172,
      "lng": 139.833792,
      "geocoding_level": null,
      "phone": "",
      "license_no": "",
      "license_date": null,
      "expire_date": null
    },
    {
      "name": "野田市立東部中学校",
      "name_kana": "ノダシリツトウブチュウガッコウ",
      "business_type": "① 飲食店営業",
      "address": "千葉県野田市目吹1500",
      "lat": 35.963659,
      "lng": 139.884561,
      "geocoding_level": null,
      "phone": "04-7122-3004",
      "license_no": "20230135",
      "license_date": "2023-08-31",
      "expire_date": "2030-09-30"
    },
    {
      "name": "野田市立北部中学校",
      "name_kana": "ノダシリツホクブチュウガッコウ",
      "business_type": "① 飲食店営業",
      "address": "千葉県野田市谷津673",
      "lat": 35.976168,
      "lng": 139.854417,
      "geocoding_level": null,
      "phone": "04-7122-2866",
      "license_no": "20230142",
      "license_date": "2023-08-31",
      "expire_date": "2030-09-30"
    },
    {
      "name": "野田市立川間中学校",
      "name_kana": "ノダシリツカワマチュウガッコウ",
      "business_type": "① 飲食店営業",
      "address": "千葉県野田市中里136-1",
      "lat": 35.992782,
      "lng": 139.838131,
      "geocoding_level": null,
      "phone": "04-7129-4025",
      "license_no": "20230134",
      "license_date": "2023-08-31",
      "expire_date": "2030-09-30"
    },
    {
      "name": "野田市立福田中学校",
      "name_kana": "ノダシリツフクダチュウガッコウ",
      "business_type": "① 飲食店営業",
      "address": "千葉県野田市三ツ堀782",
      "lat": 35.945636,
      "lng": 139.923044,
      "geocoding_level": null,
      "phone": "04-7138-1452",
      "license_no": "20230140",
      "license_date": "2023-08-31",
      "expire_date": "2030-09-30"
    },