{
  "meta": {
    "updated": 1783568789,
    "sources": [
      {
        "source": "厚生労働省 食品衛生申請等システム（オープンデータ）",
        "license": "公共データ利用規約（第1.0版, PDL1.0）"
      }
    ]
  },
  "data": [
    {
      "name": "山形県立新庄神室産業高等学校真室川校",
      "name_kana": "ヤマガタケンリツシンジョウカムロサンギョウコウトウガッコウマムロガワコウ",
      "business_type": "③ 乳類販売業",
      "address": "山形県最上郡真室川町新町947",
      "lat": 38.854109,
      "lng": 140.266752,
      "geocoding_level": null,
      "phone": "",
      "license_no": "",
      "license_date": null,
      "expire_date": null
    },
    {
      "name": "まむろ川福祉会",
      "name_kana": "マムロガワフクシカイ",
      "business_type": "③ 乳類販売業",
      "address": "山形県最上郡真室川町新町４６９番地５",
      "lat": 38.850772,
      "lng": 140.247868,
      "geocoding_level": null,
      "phone": "",
      "license_no": "",
      "license_date": null,
      "expire_date": null
    },
    {
      "name": "まむろ川福祉会",
      "name_kana": "マムロガワフクシカイ",
      "business_type": "③ 乳類販売業",
      "address": "山形県最上郡真室川町新町４６９番地５",
      "lat": 38.850772,
      "lng": 140.247868,
      "geocoding_level": null,
      "phone": "",
      "license_no": "",
      "license_date": null,
      "expire_date": null
    },
    {
      "name": "薬王堂　山形真室川店",
      "name_kana": "ヤクオウドウ　ヤマガタマムロガワテン",
      "business_type": "⑬ その他の食料・飲料販売業",
      "address": "山形県最上郡真室川町大字新町408番1",
      "lat": 38.852533,
      "lng": 140.249353,
      "geocoding_level": null,
      "phone": "0233622099",
      "license_no": "",
      "license_date": null,
      "expire_date": null
    },
    {
      "name": "マックスバリュ真室川店",
      "name_kana": "マックスバリュマムロガワテン",
      "business_type": "⑪ 百貨店、総合スーパー",
      "address": "山形県最上郡真室川町新町字下荒川279",
      "lat": 38.854234,
      "lng": 140.251556,
      "geocoding_level": null,
      "phone": "0233623111",
      "license_no": "",
      "license_date": null,
      "expire_date": null
    },
    {
      "name": "イオン東北（株）マックスバリュ真室川店",
      "name_kana": "イオントウホクカブシキガイシャマックスバリュマムロガワマチテン",
      "business_type": "① 飲食店営業",
      "address": "山形県最上郡真室川町大字新町字下荒川２７９",
      "lat": 38.854234,
      "lng": 140.251556,
      "geocoding_level": null,
      "phone": "0233623111",
      "license_no": "1116",
      "license_date": "2022-10-24",
      "expire_date": "2028-10-31"
    },
    {
      "name": "イオン東北（株）マックスバリュ真室川店",
      "name_kana": "イオントウホクカブシキガイシャマックスバリュマムロガワテン",
      "business_type": "③ 乳類販売業",
      "address": "山形県最上郡真室川町大字新町字下荒川２７９",
      "lat": 38.854234,
      "lng": 140.251556,
      "geocoding_level": null,
      "phone": "0233623111",
      "license_no": "",
      "license_date": null,
      "expire_date": null
    },
    {
      "name": "春夏秋冬真室川",
      "name_kana": "シキマムロカワ",
      "business_type": "㉑ 製茶業",
      "address": "山形県最上郡真室川町大沢２０５３",
      "lat": 38.90734,
      "lng": 140.227589,
      "geocoding_level": null,
      "phone": "0233632640",
      "license_no": "",
      "license_date": null,
      "expire_date": null
    },
    {
      "name": "春夏秋冬真室川",
      "name_kana": "シキマムロカワ",
      "business_type": "㉑ 製茶業",
      "address": "山形県最上郡真室川町大字大沢２０５３",
      "lat": 38.90734,
      "lng": 140.227589,
      "geocoding_level": null,
      "phone": "0233632640",
      "license_no": "",
      "license_date": null,
      "expire_date": null
    },
    {
      "name": "森の停車場　売店",
      "name_kana": "モリノテイシャバ　バイテン",
      "business_type": "② 食肉販売業（包装済みの食肉のみの販売）",
      "address": "山形県最上郡真室川町新町131-31",
      "lat": 38.85826,
      "lng": 140.254564,
      "geocoding_level": null,
      "phone": "0233623099",
      "license_no": "",
      "license_date": null,
      "expire_date": null
    },
    {
      "name": "森の停車場　売店",
      "name_kana": "モリノテイシャバ　バイテン",
      "business_type": "⑥ 弁当販売業",
      "address": "山形県最上郡真室川町新町131-31",
      "lat": 38.85826,
      "lng": 140.254564,
      "geocoding_level": null,
      "phone": "0233623099",
      "license_no": "",
      "license_date": null,
      "expire_date": null
    },
    {
      "name": "森の停車場　売店",
      "name_kana": "モリノテイシャバ　バイテン",
      "business_type": "⑦ 野菜果物販売業",
      "address": "山形県最上郡真室川町新町131-31",
      "lat": 38.85826,
      "lng": 140.254564,
      "geocoding_level": null,
      "phone": "0233623099",
      "license_no": "",
      "license_date": null,
      "expire_date": null
    },
    {
      "name": "森の停車場　売店",
      "name_kana": "モリノテイシャバ　バイテン",
      "business_type": "① 魚介類販売業（包装済みの魚介類のみの販売）",
      "address": "山形県最上郡真室川町新町１３１ー３１",
      "lat": 38.85826,
      "lng": 140.254564,
      "geocoding_level": null,
      "phone": "0233623099",
      "license_no": "",
      "license_date": null,
      "expire_date": null
    },
    {
      "name": "森の停車場　沓澤",
      "name_kana": "モリノテイシャバ　クツザワ",
      "business_type": "⑰ 農産保存食料品製造・加工業",
      "address": "山形県最上郡真室川町大字川ノ内2022-3",
      "lat": 38.866202,
      "lng": 140.260172,
      "geocoding_level": null,
      "phone": "0233623099",
      "license_no": "",
      "license_date": null,
      "expire_date": null
    },
    {
      "name": "特別養護老人ホーム福寿荘",
      "name_kana": "トクベツヨウゴロウジンホームフクジュソウ",
      "business_type": "㉖ 集団給食施設",
      "address": "山形県最上郡真室川町大字木ノ下１１０１番地１",
      "lat": 38.864272,
      "lng": 140.241011,
      "geocoding_level": null,
      "phone": "0233622396",
      "license_no": "",
      "license_date": null,
      "expire_date": null
    },
    {
      "name": "Yショップ安楽城店",
      "name_kana": "ワイショップアラキテン",
      "business_type": "① 魚介類販売業（包装済みの魚介類のみの販売）",
      "address": "山形県最上郡真室川町大沢895-4",
      "lat": 38.887546,
      "lng": 140.214772,
      "geocoding_level": null,
      "phone": "0233-63-2083",
      "license_no": "",
      "license_date": null,
      "expire_date": null
    },
    {
      "name": "Yショップ安楽城店",
      "name_kana": "ワイショップアラキテン",
      "business_type": "② 食肉販売業（包装済みの食肉のみの販売）",
      "address": "山形県最上郡真室川町大沢895-4",
      "lat": 38.887546,
      "lng": 140.214772,
      "geocoding_level": null,
      "phone": "0233-63-2083",
      "license_no": "",
      "license_date": null,
      "expire_date": null
    },
    {
      "name": "Yショップ安楽城店",
      "name_kana": "ワイショップアラキテン",
      "business_type": "③ 乳類販売業",
      "address": "山形県最上郡真室川町大沢895-4",
      "lat": 38.887546,
      "lng": 140.214772,
      "geocoding_level": null,
      "phone": "0233-63-2083",
      "license_no": "",
      "license_date": null,
      "expire_date": null
    },
    {
      "name": "真室川営農センター",
      "name_kana": "マムロガワエイノウセンター",
      "business_type": "① 魚介類販売業（包装済みの魚介類のみの販売）",
      "address": "山形県最上郡真室川町川ノ内2008-1",
      "lat": 38.895554,
      "lng": 140.266615,
      "geocoding_level": null,
      "phone": "0233-62-3675",
      "license_no": "",
      "license_date": null,
      "expire_date": null
    },
    {
      "name": "真室川営農センター",
      "name_kana": "マムロガワエイノウセンター",
      "business_type": "② 食肉販売業（包装済みの食肉のみの販売）",
      "address": "山形県最上郡真室川町川ノ内2008-1",
      "lat": 38.895554,
      "lng": 140.266615,
      "geocoding_level": null,
      "phone": "0233-62-3675",
      "license_no": "",
      "license_date": null,
      "expire_date": null
    },
    {
      "name": "真室川営農センター",
      "name_kana": "マムロガワエイノウセンター",
      "business_type": "③ 乳類販売業",
      "address": "山形県最上郡真室川町川ノ内2008-1",
      "lat": 38.895554,
      "lng": 140.266615,
      "geocoding_level": null,
      "phone": "0233-62-3675",
      "license_no": "",
      "license_date": null,
      "expire_date": null
    },
    {
      "name": "大沼養蜂",
      "name_kana": "オオヌマヨウホウ",
      "business_type": "⑬ その他の食料・飲料販売業",
      "address": "山形県最上郡真室川町大字大沢５５９９－２",
      "lat": 38.886669,
      "lng": 140.213558,
      "geocoding_level": null,
      "phone": "0233632708",
      "license_no": "",
      "license_date": null,
      "expire_date": null
    },
    {
      "name": "大沼養蜂",
      "name_kana": "オオヌマヨウホウ",
      "business_type": "㉚ 密封包装食品製造業",
      "address": "山形県最上郡真室川町大字大沢５５９９－２",
      "lat": 38.886636369,
      "lng": 140.213630577,
      "geocoding_level": 8,
      "phone": "0233632708",
      "license_no": "1151",
      "license_date": "2021-10-20",
      "expire_date": "2026-10-31"
    },
    {
      "name": "農家民宿はちみつ屋",
      "name_kana": "ノウカミンシュクハチミツヤ",
      "business_type": "① 飲食店営業",
      "address": "山形県最上郡真室川町大字大沢５５９９－２",
      "lat": 38.886636369,
      "lng": 140.213630577,
      "geocoding_level": 8,
      "phone": "0233632708",
      "license_no": "1149",
      "license_date": "2023-10-16",
      "expire_date": "2028-10-31"
    },
    {
      "name": "大沼養蜂",
      "name_kana": "オオヌマヨウホウ",
      "business_type": "① 飲食店営業",
      "address": "山形県最上郡真室川町ほか山形県一円",
      "lat": 38.857747,
      "lng": 140.252441,
      "geocoding_level": null,
      "phone": "",
      "license_no": "1118",
      "license_date": "2024-10-04",
      "expire_date": "2029-10-31"
    },
    {
      "name": "メフォス北日本52182号店",
      "name_kana": "メフォスキタニホンゴーニーイチハチニゴウテン",
      "business_type": "① 飲食店営業",
      "address": "山形県最上郡真室川町新町469-1",
      "lat": 38.85158619,
      "lng": 140.248019874,
      "geocoding_level": 8,
      "phone": "",
      "license_no": "1129",
      "license_date": "2022-10-26",
      "expire_date": "2028-10-31"
    },
    {
      "name": "株式会社近岡商店",
      "name_kana": "カブシキガイシヤチカオカシヨウテン",
      "business_type": "⑧ 米穀類販売業",
      "address": "山形県最上郡真室川町最上郡真室川町新町823",
      "lat": 38.860354,
      "lng": 140.255739,
      "geocoding_level": null,
      "phone": "0233622348",
      "license_no": "",
      "license_date": null,
      "expire_date": null
    },
    {
      "name": "200580",
      "name_kana": "ニーゼロゼロゴーハチゼロ",
      "business_type": "① 飲食店営業",
      "address": "山形県最上郡真室川町及位693-1",
      "lat": 38.976287,
      "lng": 140.358916,
      "geocoding_level": null,
      "phone": "",
      "license_no": "1168",
      "license_date": "2023-11-10",
      "expire_date": "2029-10-31"
    },
    {
      "name": "神室少年自然の家",
      "name_kana": "カムロショウネンシゼンノイエ",
      "business_type": "① 飲食店営業",
      "address": "山形県最上郡真室川町大字川ノ内水上山３４１４－５",
      "lat": 38.879044,
      "lng": 140.257095,
      "geocoding_level": 3,
      "phone": "0233622611",
      "license_no": "1152",
      "license_date": "2021-10-20",
      "expire_date": "2027-10-31"
    },
    {
      "name": "織田吉昭",
      "name_kana": "オダヨシアキ",
      "business_type": "⑬ その他の食料・飲料販売業",
      "address": "山形県最上郡真室川町新町１２９－１",
      "lat": 38.858293,
      "lng": 140.253743,
      "geocoding_level": null,
      "phone": "0233623195",
      "license_no": "",
      "license_date": null,
      "expire_date": null
    },
    {
      "name": "佐藤義昭商店",
      "name_kana": "サトウヨシアキショウテン",
      "business_type": "① 魚介類販売業（包装済みの魚介類のみの販売）",
      "address": "山形県最上郡真室川町大字釜渕４４３",
      "lat": 38.959613,
      "lng": 140.284051,
      "geocoding_level": null,
      "phone": "0233652336",
      "license_no": "",
      "license_date": null,
      "expire_date": null
    },
    {
      "name": "コーヒーハウス　セラード",
      "name_kana": "コーヒーハウス　セラード",
      "business_type": "① 飲食店営業",
      "address": "山形県最上郡真室川町大字新町１３９－１１",
      "lat": 38.860400659,
      "lng": 140.254579968,
      "geocoding_level": 8,
      "phone": "0233622295",
      "license_no": "1146",
      "license_date": "2021-10-19",
      "expire_date": "2026-10-31"
    },
    {
      "name": "一楽",
      "name_kana": "イチラク",
      "business_type": "① 飲食店営業",
      "address": "山形県最上郡真室川町大字新町１２５－６",
      "lat": 38.856966348,
      "lng": 140.252372335,
      "geocoding_level": 8,
      "phone": "0233622161",
      "license_no": "1147",
      "license_date": "2021-10-19",
      "expire_date": "2026-10-31"
    },
    {
      "name": "マルシメ食堂",
      "name_kana": "マルシメショクドウ",
      "business_type": "① 飲食店営業",
      "address": "山形県最上郡真室川町大字新町１２８－２５",
      "lat": 38.858376024,
      "lng": 140.25351888,
      "geocoding_level": 8,
      "phone": "0233622341",
      "license_no": "1148",
      "license_date": "2021-10-19",
      "expire_date": "2026-10-31"
    },
    {
      "name": "マルシメ精肉店",
      "name_kana": "マルシメセイニクテン",
      "business_type": "③ 食肉販売業",
      "address": "山形県最上郡真室川町大字新町１２８－２５",
      "lat": 38.858376024,
      "lng": 140.25351888,
      "geocoding_level": 8,
      "phone": "0233622341",
      "license_no": "1149",
      "license_date": "2021-10-19",
      "expire_date": "2026-10-31"
    },
    {
      "name": "くろ兵衛",
      "name_kana": "クロベエ",
      "business_type": "① 飲食店営業",
      "address": "山形県最上郡真室川町大字新町１２９－２４",
      "lat": 38.857985379,
      "lng": 140.253554148,
      "geocoding_level": 8,
      "phone": "",
      "license_no": "1176",
      "license_date": "2025-12-09",
      "expire_date": "2032-10-31"
    },
    {
      "name": "まるたか",
      "name_kana": "マルタカ",
      "business_type": "① 魚介類販売業（包装済みの魚介類のみの販売）",
      "address": "山形県最上郡真室川町県内一円",
      "lat": 38.859318,
      "lng": 140.25495,
      "geocoding_level": null,
      "phone": "",
      "license_no": "",
      "license_date": null,
      "expire_date": null
    },
    {
      "name": "農家民宿はちみつ屋",
      "name_kana": "ノウカミンシュクハチミツヤ",
      "business_type": "① 飲食店営業",
      "address": "山形県最上郡真室川町大字大沢５５９９－２",
      "lat": 38.886636369,
      "lng": 140.213630577,
      "geocoding_level": 8,
      "phone": "0233632708",
      "license_no": "1155",
      "license_date": "2021-10-20",
      "expire_date": "2026-10-31"
    },
    {
      "name": "小野魚店",
      "name_kana": "オノサカナテンン",
      "business_type": "④ 魚介類販売業",
      "address": "山形県最上郡真室川町大字大沢９７７－２",
      "lat": 38.88544853,
      "lng": 140.215735994,
      "geocoding_level": 8,
      "phone": "0233632048",
      "license_no": "1156",
      "license_date": "2021-10-20",
      "expire_date": "2026-10-31"
    },
    {
      "name": "小野魚店",
      "name_kana": "オノサカナテンン",
      "business_type": "① 飲食店営業",
      "address": "山形県最上郡真室川町大字大沢９７７－２",
      "lat": 38.88544853,
      "lng": 140.215735994,
      "geocoding_level": 8,
      "phone": "0233632048",
      "license_no": "1157",
      "license_date": "2021-10-20",
      "expire_date": "2026-10-31"
    },
    {
      "name": "小野魚店",
      "name_kana": "オノサカナテン",
      "business_type": "② 食肉販売業（包装済みの食肉のみの販売）",
      "address": "山形県最上郡真室川町大字大沢９７７－２",
      "lat": 38.88528,
      "lng": 140.215843,
      "geocoding_level": null,
      "phone": "",
      "license_no": "",
      "license_date": null,
      "expire_date": null
    },
    {
      "name": "手造り・工房菜友季",
      "name_kana": "テヅクリ・コウボウサイユウキ",
      "business_type": "㉕ そうざい製造業",
      "address": "山形県最上郡真室川町大字及位１０９",
      "lat": 38.970813835,
      "lng": 140.333842207,
      "geocoding_level": 8,
      "phone": "",
      "license_no": "1119",
      "license_date": "2022-10-24",
      "expire_date": "2027-10-31"
    },
    {
      "name": "手造り・工房菜友季",
      "name_kana": "テヅクリ・コウボウサイユウキ",
      "business_type": "⑪ 菓子製造業",
      "address": "山形県最上郡真室川町大字及位１０９",
      "lat": 38.970813835,
      "lng": 140.333842207,
      "geocoding_level": 8,
      "phone": "",
      "license_no": "1120",
      "license_date": "2022-10-24",
      "expire_date": "2027-10-31"
    },
    {
      "name": "敬子",
      "name_kana": "ケイコ",
      "business_type": "⑰ 農産保存食料品製造・加工業",
      "address": "山形県最上郡真室川町大字平岡８６２－４３",
      "lat": 38.857339,
      "lng": 140.259667,
      "geocoding_level": null,
      "phone": "",
      "license_no": "",
      "license_date": null,
      "expire_date": null
    },
    {
      "name": "株式会社ビーシー釜渕工場1号棟",
      "name_kana": "カブシキガイシャビーシーカマブチコウジョウイチゴウトウ",
      "business_type": "⑭ 清涼飲料水製造業",
      "address": "山形県最上郡真室川町大字釜渕３４－２",
      "lat": 38.937766,
      "lng": 140.270229,
      "geocoding_level": null,
      "phone": "0233652071",
      "license_no": "1133",
      "license_date": "2024-10-28",
      "expire_date": "2029-10-31"
    },
    {
      "name": "株式会社ビーシー釜渕工場6号棟",
      "name_kana": "カブシキガイシャビーシーカマブチコウジョウロクゴウトウ",
      "business_type": "⑭ 清涼飲料水製造業",
      "address": "山形県最上郡真室川町大字釜渕２９－１",
      "lat": 38.93766,
      "lng": 140.269907,
      "geocoding_level": null,
      "phone": "0233652071",
      "license_no": "1134",
      "license_date": "2024-10-28",
      "expire_date": "2029-10-31"
    },
    {
      "name": "産直あさひ　Ｙショップ安楽城店",
      "name_kana": "サンチョクアサヒ　ワイショップアラキテン",
      "business_type": "① 魚介類販売業（包装済みの魚介類のみの販売）",
      "address": "山形県最上郡真室川町大字大沢８９５－４",
      "lat": 38.887546,
      "lng": 140.214772,
      "geocoding_level": null,
      "phone": "0233632083",
      "license_no": "",
      "license_date": null,
      "expire_date": null
    },
    {
      "name": "産直あさひ　Ｙショップ安楽城店",
      "name_kana": "サンチョクアサヒ　ワイショップアラキテン",
      "business_type": "② 食肉販売業（包装済みの食肉のみの販売）",
      "address": "山形県最上郡真室川町大字大沢８９５－４",
      "lat": 38.887546,
      "lng": 140.214772,
      "geocoding_level": null,
      "phone": "0233632083",
      "license_no": "",
      "license_date": null,
      "expire_date": null
    },
    {
      "name": "産直あさひ　Ｙショップ安楽城店",
      "name_kana": "サンチョクアサヒ　ワイショップアラキテン",
      "business_type": "③ 乳類販売業",
      "address": "山形県最上郡真室川町大字大沢８９５－４",
      "lat": 38.887546,
      "lng": 140.214772,
      "geocoding_level": null,
      "phone": "0233632083",
      "license_no": "",
      "license_date": null,
      "expire_date": null
    },
    {
      "name": "産直あさひ　Ｙショップ安楽城店",
      "name_kana": "サンチョクアサヒ　ワイショップアラキテン",
      "business_type": "⑩ コンビニエンスストア",
      "address": "山形県最上郡真室川町大字大沢８９５－４",
      "lat": 38.887546,
      "lng": 140.214772,
      "geocoding_level": null,
      "phone": "0233632083",
      "license_no": "",
      "license_date": null,
      "expire_date": null
    },
    {
      "name": "五十嵐まき子",
      "name_kana": "イガラシマキコ",
      "business_type": "⑰ 農産保存食料品製造・加工業",
      "address": "山形県最上郡真室川町大字新町２３７７",
      "lat": 38.854234,
      "lng": 140.251556,
      "geocoding_level": null,
      "phone": "0233623685",
      "license_no": "",
      "license_date": null,
      "expire_date": null
    },
    {
      "name": "医療法人徳洲会　介護老人保健施設　梅花苑",
      "name_kana": "イリョウホウジントクシュウカイ　カイゴロウジンホケンシセツ　バイカエン",
      "business_type": "㉖ 集団給食施設",
      "address": "山形県最上郡真室川町大字木ノ下字片渕山　1125-286",
      "lat": 38.863289,
      "lng": 140.242003,
      "geocoding_level": null,
      "phone": "0233320505",
      "license_no": "",
      "license_date": null,
      "expire_date": null
    },
    {
      "name": "佐藤コヨシ商店",
      "name_kana": "サトウコヨシショウテン",
      "business_type": "② 食肉販売業（包装済みの食肉のみの販売）",
      "address": "山形県最上郡真室川町大字新町１４６－１０",
      "lat": 38.860089,
      "lng": 140.255791,
      "geocoding_level": null,
      "phone": "0233622631",
      "license_no": "",
      "license_date": null,
      "expire_date": null
    },
    {
      "name": "佐藤コヨシ商店",
      "name_kana": "サトウコヨシショウテン",
      "business_type": "③ 乳類販売業",
      "address": "山形県最上郡真室川町大字新町１４６－１０",
      "lat": 38.860089,
      "lng": 140.255791,
      "geocoding_level": null,
      "phone": "0233622631",
      "license_no": "",
      "license_date": null,
      "expire_date": null
    },
    {
      "name": "デイサービスセンターぱれっと",
      "name_kana": "デイサービスセンターパレット",
      "business_type": "㉖ 集団給食施設",
      "address": "山形県最上郡真室川町平岡字片杉野1692-12",
      "lat": 38.860088,
      "lng": 140.277522,
      "geocoding_level": null,
      "phone": "0233-62-3003",
      "license_no": "",
      "license_date": null,
      "expire_date": null
    },
    {
      "name": "イオン東北(株)マックスバリュー真室川店",
      "name_kana": "イオントウホクカッコカブマックスバリューマムロガワテン",
      "business_type": "③ 乳類販売業",
      "address": "山形県最上郡真室川町新町下荒川279",
      "lat": 38.854234,
      "lng": 140.251556,
      "geocoding_level": null,
      "phone": "0233-62-3111",
      "license_no": "",
      "license_date": null,
      "expire_date": null
    },
    {
      "name": "イオン東北(株)マックスバリュー真室川店",
      "name_kana": "イオントウホクカッコカブマックスバリューマムロガワテン",
      "business_type": "⑤ コップ式自動販売機（自動洗浄・屋内設置）",
      "address": "山形県最上郡真室川町新町下荒川279",
      "lat": 38.854234,
      "lng": 140.251556,
      "geocoding_level": null,
      "phone": "0233-62-3111",
      "license_no": "",
      "license_date": null,
      "expire_date": null
    },
    {
      "name": "町立真室川病院",
      "name_kana": "チョウリツマムロガワビョウイン",
      "business_type": "⑦ 野菜果物販売業",
      "address": "山形県最上郡真室川町新町469-1",
      "lat": 38.851227,
      "lng": 140.247757,
      "geocoding_level": null,
      "phone": "0233-62-2211",
      "license_no": "",
      "license_date": null,
      "expire_date": null
    },
    {
      "name": "ユアテック　山形幹線作業員宿舎棟食堂",
      "name_kana": "ユアテック　ヤマガタカンセンサギョウインシュクシャトウショクドウ",
      "business_type": "① 飲食店営業",
      "address": "山形県最上郡真室川町大沢字巣子５７４",
      "lat": 38.900461,
      "lng": 140.186278,
      "geocoding_level": null,
      "phone": "",
      "license_no": "1025",
      "license_date": "2026-05-27",
      "expire_date": "2032-10-31"
    },
    {
      "name": "障がい福祉サービス事業所　ドリームハウス",
      "name_kana": "ショウガイフクシサービスジギョウショ　ドリームハウス",
      "business_type": "⑪ 菓子製造業",
      "address": "山形県最上郡真室川町大字川ノ内４３９４番",
      "lat": 38.867722,
      "lng": 140.241905,
      "geocoding_level": null,
      "phone": "0233624201",
      "license_no": "1294",
      "license_date": "2022-03-24",
      "expire_date": "2027-10-31"
    },
    {
      "name": "遠田絹子",
      "name_kana": "エンタキヌコ",
      "business_type": "⑰ 農産保存食料品製造・加工業",
      "address": "山形県最上郡真室川町川ノ内１４５６",
      "lat": 38.889879,
      "lng": 140.279873,
      "geocoding_level": null,
      "phone": "07024317311",
      "license_no": "",
      "license_date": null,
      "expire_date": null
    },
    {
      "name": "ヤハギバイオ研究所",
      "name_kana": "ヤハギバイオケンキュウジョ",
      "business_type": "⑮ いわゆる健康食品の製造・加工業",
      "address": "山形県最上郡真室川町釜渕374-1",
      "lat": 38.932472,
      "lng": 140.264732,
      "geocoding_level": null,
      "phone": "08032256049",
      "license_no": "",
      "license_date": null,
      "expire_date": null
    },
    {
      "name": "雪のおはぎ風花",
      "name_kana": "ユキノオハギカザハナ",
      "business_type": "⑪ 菓子製造業",
      "address": "山形県最上郡真室川町大字新町２２０番地８",
      "lat": 38.858472834,
      "lng": 140.251710169,
      "geocoding_level": 8,
      "phone": "",
      "license_no": "1005",
      "license_date": "2024-04-15",
      "expire_date": "2030-10-31"
    },
    {
      "name": "雪のおはぎ風花",
      "name_kana": "ユキノオハギカザハナ",
      "business_type": "① 飲食店営業",
      "address": "山形県最上郡真室川町大字新町２２０－８",
      "lat": 38.858472834,
      "lng": 140.251710169,
      "geocoding_level": 8,
      "phone": "",
      "license_no": "1081",
      "license_date": "2024-07-23",
      "expire_date": "2030-10-31"
    },
    {
      "name": "雪のおはぎ風花",
      "name_kana": "ユキノオハギカザハナ",
      "business_type": "① 飲食店営業",
      "address": "山形県最上郡真室川町ほか山形県一円",
      "lat": 38.857747,
      "lng": 140.252441,
      "geocoding_level": null,
      "phone": "",
      "license_no": "1145",
      "license_date": "2024-11-12",
      "expire_date": "2030-10-31"
    },
    {
      "name": "五十嵐商店",
      "name_kana": "イガラシショウテン",
      "business_type": "④ 魚介類販売業",
      "address": "山形県最上郡真室川町大字新町１２９－６",
      "lat": 38.857626,
      "lng": 140.253242,
      "geocoding_level": null,
      "phone": "0233622875",
      "license_no": "1153",
      "license_date": "2021-10-20",
      "expire_date": "2026-10-31"
    },
    {
      "name": "五十嵐商店",
      "name_kana": "イガラシショウテン",
      "business_type": "③ 食肉販売業",
      "address": "山形県最上郡真室川町大字新町１２９－６",
      "lat": 38.857626,
      "lng": 140.253242,
      "geocoding_level": null,
      "phone": "0233622875",
      "license_no": "1154",
      "license_date": "2021-10-20",
      "expire_date": "2026-10-31"
    },
    {
      "name": "五十嵐商店",
      "name_kana": "イガラシショウテン",
      "business_type": "① 飲食店営業",
      "address": "山形県最上郡真室川町大字新町１２９－１６",
      "lat": 38.857562894,
      "lng": 140.25320353,
      "geocoding_level": 8,
      "phone": "0233622875",
      "license_no": "1117",
      "license_date": "2022-10-24",
      "expire_date": "2027-10-31"
    },
    {
      "name": "五十嵐別館",
      "name_kana": "イガラシベッカン",
      "business_type": "① 飲食店営業",
      "address": "山形県最上郡真室川町大字新町下荒川２８８－１５",
      "lat": 38.852976,
      "lng": 140.259364,
      "geocoding_level": 3,
      "phone": "",
      "license_no": "1112",
      "license_date": "2025-10-23",
      "expire_date": "2030-10-31"
    },
    {
      "name": "松泉堂",
      "name_kana": "ショウセンドウ",
      "business_type": "⑪ 菓子製造業",
      "address": "山形県最上郡真室川町大字釜渕８１８－１",
      "lat": 38.935153,
      "lng": 140.266317,
      "geocoding_level": 3,
      "phone": "0233652027",
      "license_no": "1126",
      "license_date": "2022-10-24",
      "expire_date": "2028-10-31"
    },
    {
      "name": "中川商店",
      "name_kana": "ナカガワショウテン",
      "business_type": "① 飲食店営業",
      "address": "山形県最上郡真室川町大字及位４１６－５",
      "lat": 38.978626678,
      "lng": 140.360913949,
      "geocoding_level": 8,
      "phone": "0233662007",
      "license_no": "1127",
      "license_date": "2022-10-24",
      "expire_date": "2028-10-31"
    },
    {
      "name": "菓子処　亀甲屋",
      "name_kana": "カシドコロ　キッコウヤ",
      "business_type": "⑪ 菓子製造業",
      "address": "山形県最上郡真室川町大字釜渕３７４－５",
      "lat": 38.935153,
      "lng": 140.266317,
      "geocoding_level": 3,
      "phone": "0233652016",
      "license_no": "1115",
      "license_date": "2022-10-24",
      "expire_date": "2027-10-31"
    },
    {
      "name": "梅の里ラーメン　大吉",
      "name_kana": "ウメノサトラーメン　ダイキチ",
      "business_type": "① 飲食店営業",
      "address": "山形県最上郡真室川町大字木ノ下字新林９７９",
      "lat": 38.851519,
      "lng": 140.242081,
      "geocoding_level": 3,
      "phone": "0233622752",
      "license_no": "1121",
      "license_date": "2022-10-24",
      "expire_date": "2027-10-31"
    },
    {
      "name": "ニューリンダ",
      "name_kana": "ニューリンダ",
      "business_type": "① 飲食店営業",
      "address": "山形県最上郡真室川町大字新町３５２－３",
      "lat": 38.854984913,
      "lng": 140.249568197,
      "geocoding_level": 8,
      "phone": "0233623216",
      "license_no": "1122",
      "license_date": "2022-10-24",
      "expire_date": "2027-10-31"
    },
    {
      "name": "スナックリトルばーど",
      "name_kana": "スナックリトルバード",
      "business_type": "① 飲食店営業",
      "address": "山形県最上郡真室川町大字新町２３５－１５",
      "lat": 38.852976,
      "lng": 140.259364,
      "geocoding_level": 3,
      "phone": "",
      "license_no": "1123",
      "license_date": "2022-10-24",
      "expire_date": "2027-10-31"
    },
    {
      "name": "すし海道　真室川店",
      "name_kana": "スシカイドウ　マムロガワテン",
      "business_type": "① 飲食店営業",
      "address": "山形県最上郡真室川町大字平岡３４７－１",
      "lat": 38.864871,
      "lng": 140.287262,
      "geocoding_level": 3,
      "phone": "0233320989",
      "license_no": "1124",
      "license_date": "2022-10-24",
      "expire_date": "2028-10-31"
    },
    {
      "name": "松泉堂",
      "name_kana": "ショウセンドウ",
      "business_type": "① 飲食店営業",
      "address": "山形県最上郡真室川町大字釜渕８１８－１",
      "lat": 38.935153,
      "lng": 140.266317,
      "geocoding_level": 3,
      "phone": "0233652027",
      "license_no": "1125",
      "license_date": "2022-10-24",
      "expire_date": "2028-10-31"
    },
    {
      "name": "中川商店",
      "name_kana": "ナカガワショウテン",
      "business_type": "④ 魚介類販売業",
      "address": "山形県最上郡真室川町大字及位４１６－５",
      "lat": 38.978626678,
      "lng": 140.360913949,
      "geocoding_level": 8,
      "phone": "0233662007",
      "license_no": "1128",
      "license_date": "2022-10-24",
      "expire_date": "2028-10-31"
    },
    {
      "name": "中川魚店",
      "name_kana": "ナカガワサカナテン",
      "business_type": "① 魚介類販売業（包装済みの魚介類のみの販売）",
      "address": "山形県最上郡真室川町及位ほか山形県内一円",
      "lat": 38.978271,
      "lng": 140.377873,
      "geocoding_level": null,
      "phone": "",
      "license_no": "",
      "license_date": null,
      "expire_date": null
    },
    {
      "name": "髙橋加工所",
      "name_kana": "タカハシカコウジョ",
      "business_type": "㉕ そうざい製造業",
      "address": "山形県最上郡真室川町大字平岡３０５－１",
      "lat": 38.864871,
      "lng": 140.287262,
      "geocoding_level": 3,
      "phone": "0233623807",
      "license_no": "1118",
      "license_date": "2022-10-24",
      "expire_date": "2027-10-31"
    },
    {
      "name": "髙橋加工所",
      "name_kana": "タカハシカコウジョ",
      "business_type": "㉙ 漬物製造業",
      "address": "山形県最上郡真室川町平岡３０５",
      "lat": 38.864871,
      "lng": 140.287262,
      "geocoding_level": 3,
      "phone": "",
      "license_no": "1263",
      "license_date": "2024-03-05",
      "expire_date": "2029-10-31"
    },
    {
      "name": "高",
      "name_kana": "タカ",
      "business_type": "② 食肉販売業（包装済みの食肉のみの販売）",
      "address": "山形県最上郡真室川町大字新町１４７",
      "lat": 38.860061,
      "lng": 140.256395,
      "geocoding_level": null,
      "phone": "0233622786",
      "license_no": "",
      "license_date": null,
      "expire_date": null
    },
    {
      "name": "高",
      "name_kana": "タカ",
      "business_type": "③ 乳類販売業",
      "address": "山形県最上郡真室川町大字新町１４７",
      "lat": 38.860061,
      "lng": 140.256395,
      "geocoding_level": null,
      "phone": "0233622786",
      "license_no": "",
      "license_date": null,
      "expire_date": null
    },
    {
      "name": "有限会社　庄司製麺工場",
      "name_kana": "ユウゲンガイシャ  ショウジセイメンコウジョウ",
      "business_type": "㉔ 麺類製造業",
      "address": "山形県最上郡真室川町新町字小林７７７－１３",
      "lat": 38.854247,
      "lng": 140.251478,
      "geocoding_level": null,
      "phone": "0233622760",
      "license_no": "1105",
      "license_date": "2023-08-24",
      "expire_date": "2028-10-31"
    },
    {
      "name": "有限会社庄司製麺工場",
      "name_kana": "ユウゲンガイシャショウジセイメンコウジョウ",
      "business_type": "㉔ 麺類製造業",
      "address": "山形県最上郡真室川町大字新町７７７－１",
      "lat": 38.853253795,
      "lng": 140.26028678,
      "geocoding_level": 8,
      "phone": "",
      "license_no": "1124",
      "license_date": "2024-10-21",
      "expire_date": "2029-10-31"
    },
    {
      "name": "有限会社庄司製麺工場",
      "name_kana": "ユウゲンガイシャショウジセイメンコウジョウ",
      "business_type": "⑬ その他の食料・飲料販売業",
      "address": "山形県最上郡真室川町大字新町７７７－１",
      "lat": 38.853269,
      "lng": 140.260311,
      "geocoding_level": null,
      "phone": "",
      "license_no": "",
      "license_date": null,
      "expire_date": null
    },
    {
      "name": "べじ吉おかめ工房",
      "name_kana": "ベジキチオカメコウボウ",
      "business_type": "㉙ 漬物製造業",
      "address": "山形県最上郡真室川町大字川ノ内２５３７",
      "lat": 38.894387,
      "lng": 140.25449,
      "geocoding_level": null,
      "phone": "",
      "license_no": "1215",
      "license_date": "2023-12-04",
      "expire_date": "2029-10-31"
    },
    {
      "name": "果菜里庵",
      "name_kana": "カナリアン",
      "business_type": "① 飲食店営業",
      "address": "山形県最上郡真室川町大字川ノ内２５３７番地",
      "lat": 38.879044,
      "lng": 140.257095,
      "geocoding_level": 3,
      "phone": "",
      "license_no": "1152",
      "license_date": "2023-10-16",
      "expire_date": "2028-10-31"
    },
    {
      "name": "まむろ川温泉梅里苑",
      "name_kana": "マムロカワオンセンバイリエン",
      "business_type": "⑪ 菓子製造業",
      "address": "山形県最上郡真室川町平岡８９４－２",
      "lat": 38.866943,
      "lng": 140.281519,
      "geocoding_level": null,
      "phone": "0233622373",
      "license_no": "1141",
      "license_date": "2023-10-03",
      "expire_date": "2029-10-31"
    },
    {
      "name": "まむろ川温泉　梅里苑",
      "name_kana": "マムロガワオンセン　バイリエン",
      "business_type": "① 飲食店営業",
      "address": "山形県最上郡真室川町大字平岡字家ノ浦８９４－２",
      "lat": 38.864871,
      "lng": 140.287262,
      "geocoding_level": 3,
      "phone": "",
      "license_no": "1125",
      "license_date": "2024-10-21",
      "expire_date": "2030-10-31"
    },
    {
      "name": "まむろ川温泉　梅里苑",
      "name_kana": "マムロガワオンセンバイリエン",
      "business_type": "① 飲食店営業",
      "address": "山形県最上郡真室川町大字平岡字家ノ浦８９４－２",
      "lat": 38.864871,
      "lng": 140.287262,
      "geocoding_level": 3,
      "phone": "",
      "license_no": "1108",
      "license_date": "2025-10-15",
      "expire_date": "2030-10-31"
    },
    {
      "name": "丸直商店",
      "name_kana": "マルナオショウテン",
      "business_type": "① 飲食店営業",
      "address": "山形県最上郡真室川町大字大沢９２２",
      "lat": 38.941424,
      "lng": 140.231319,
      "geocoding_level": 3,
      "phone": "",
      "license_no": "1148",
      "license_date": "2023-10-16",
      "expire_date": "2028-10-31"
    },
    {
      "name": "ヤマウしそ巻",
      "name_kana": "ヤマウシソマキ",
      "business_type": "㉕ そうざい製造業",
      "address": "山形県最上郡真室川町大字川ノ内４７０番地",
      "lat": 38.879044,
      "lng": 140.257095,
      "geocoding_level": 3,
      "phone": "0233652516",
      "license_no": "1150",
      "license_date": "2023-10-16",
      "expire_date": "2028-10-31"
    },
    {
      "name": "酒楽家プラム",
      "name_kana": "シュラクヤプラム",
      "business_type": "① 飲食店営業",
      "address": "山形県最上郡真室川町大字木ノ下８８３－３",
      "lat": 38.851519,
      "lng": 140.242081,
      "geocoding_level": 3,
      "phone": "0233623578",
      "license_no": "1151",
      "license_date": "2023-10-16",
      "expire_date": "2028-10-31"
    },
    {
      "name": "マルタカ",
      "name_kana": "マルタカ",
      "business_type": "④ 魚介類販売業",
      "address": "山形県最上郡真室川町大字新町１４７",
      "lat": 38.852976,
      "lng": 140.259364,
      "geocoding_level": 3,
      "phone": "",
      "license_no": "1161",
      "license_date": "2023-10-31",
      "expire_date": "2028-10-31"
    },
    {
      "name": "加工所かっか",
      "name_kana": "カコウジョカッカ",
      "business_type": "㉙ 漬物製造業",
      "address": "山形県最上郡真室川町大字平岡９９－１",
      "lat": 38.865488,
      "lng": 140.285487,
      "geocoding_level": null,
      "phone": "",
      "license_no": "1208",
      "license_date": "2023-11-28",
      "expire_date": "2029-10-31"
    },
    {
      "name": "うどんとごはん処ながの",
      "name_kana": "ウドントゴハンドコロナガノ",
      "business_type": "① 飲食店営業",
      "address": "山形県最上郡真室川町大字新町２３２－１５",
      "lat": 38.857520399,
      "lng": 140.251295532,
      "geocoding_level": 8,
      "phone": "",
      "license_no": "1219",
      "license_date": "2023-12-15",
      "expire_date": "2029-10-31"
    },
    {
      "name": "有限会社みちのく特産",
      "name_kana": "ユウゲンガイシャミチノクトクサン",
      "business_type": "㉙ 漬物製造業",
      "address": "山形県最上郡真室川町川の内2番地",
      "lat": 38.875102,
      "lng": 140.262011,
      "geocoding_level": null,
      "phone": "0233652131",
      "license_no": "1221",
      "license_date": "2023-12-22",
      "expire_date": "2029-10-31"
    },
    {
      "name": "有限会社みちのく特産",
      "name_kana": "ユウゲンガイシャミチノクトクサン",
      "business_type": "㉚ 密封包装食品製造業",
      "address": "山形県最上郡真室川町大字川の内２",
      "lat": 38.879044,
      "lng": 140.257095,
      "geocoding_level": 3,
      "phone": "",
      "license_no": "1113",
      "license_date": "2025-10-23",
      "expire_date": "2030-10-31"
    },
    {
      "name": "有限会社みちのく特産",
      "name_kana": "ユウゲンガイシャミチノクトクサン",
      "business_type": "⑭ 清涼飲料水製造業",
      "address": "山形県最上郡真室川町大字川の内２",
      "lat": 38.879044,
      "lng": 140.257095,
      "geocoding_level": 3,
      "phone": "",
      "license_no": "1114",
      "license_date": "2025-10-23",
      "expire_date": "2030-10-31"
    },
    {
      "name": "有限会社みちのく特産",
      "name_kana": "ユウゲンガイシャミチノクトクサン",
      "business_type": "㉕ そうざい製造業",
      "address": "山形県最上郡真室川町大字川の内２",
      "lat": 38.879044,
      "lng": 140.257095,
      "geocoding_level": 3,
      "phone": "",
      "license_no": "1115",
      "license_date": "2025-10-23",
      "expire_date": "2030-10-31"
    },
    {
      "name": "あべ農場株式会社",
      "name_kana": "アベノウジョウカブシキガイシャ",
      "business_type": "⑦ 野菜果物販売業",
      "address": "山形県最上郡真室川町大字木ノ下８８２－２",
      "lat": 38.862801,
      "lng": 140.248784,
      "geocoding_level": null,
      "phone": "",
      "license_no": "",
      "license_date": null,
      "expire_date": null
    },
    {
      "name": "真室川きのこ本舗",
      "name_kana": "マムロガワキノコホンポ",
      "business_type": "⑰ 農産保存食料品製造・加工業",
      "address": "山形県最上郡真室川町大字新町７７６－３２",
      "lat": 38.855428,
      "lng": 140.255983,
      "geocoding_level": null,
      "phone": "0233624441",
      "license_no": "",
      "license_date": null,
      "expire_date": null
    },
    {
      "name": "真室川養蜂",
      "name_kana": "マムロガワヨウホウ",
      "business_type": "㉔ その他の食料品製造・加工業",
      "address": "山形県最上郡真室川町大字新町７７６－３２",
      "lat": 38.855428,
      "lng": 140.255983,
      "geocoding_level": null,
      "phone": "0233624440",
      "license_no": "",
      "license_date": null,
      "expire_date": null
    },
    {
      "name": "工房グレイン",
      "name_kana": "コウボウグレイン",
      "business_type": "⑪ 菓子製造業",
      "address": "山形県最上郡真室川町大字大沢３５８６",
      "lat": 38.941424,
      "lng": 140.231319,
      "geocoding_level": 3,
      "phone": "",
      "license_no": "1138",
      "license_date": "2024-10-28",
      "expire_date": "2029-10-31"
    },
    {
      "name": "工房グレイン",
      "name_kana": "コウボウグレイン",
      "business_type": "⑪ 菓子製造業",
      "address": "山形県最上郡真室川町大字大沢３５８６",
      "lat": 38.880512,
      "lng": 140.22496,
      "geocoding_level": null,
      "phone": "",
      "license_no": "1138",
      "license_date": "2024-10-28",
      "expire_date": "2029-10-31"
    },
    {
      "name": "工房グレイン",
      "name_kana": "コウボウグレイン",
      "business_type": "㉔ その他の食料品製造・加工業",
      "address": "山形県最上郡真室川町大字大沢３５８６",
      "lat": 38.880512,
      "lng": 140.22496,
      "geocoding_level": null,
      "phone": "",
      "license_no": "",
      "license_date": null,
      "expire_date": null
    },
    {
      "name": "松沢酒店",
      "name_kana": "マツザワサケテン",
      "business_type": "③ 乳類販売業",
      "address": "山形県最上郡真室川町大字平岡２６９－１",
      "lat": 38.864094,
      "lng": 140.278178,
      "geocoding_level": null,
      "phone": "",
      "license_no": "",
      "license_date": null,
      "expire_date": null
    },
    {
      "name": "セブン－イレブン真室川新橋店",
      "name_kana": "セブンーイレブンマムロガワシンバシテン",
      "business_type": "① 魚介類販売業（包装済みの魚介類のみの販売）",
      "address": "山形県最上郡真室川町大字新町２２０－１１",
      "lat": 38.858937,
      "lng": 140.252788,
      "geocoding_level": null,
      "phone": "",
      "license_no": "",
      "license_date": null,
      "expire_date": null
    },
    {
      "name": "セブン－イレブン真室川新橋店",
      "name_kana": "セブンーイレブンマムロガワシンバシテン",
      "business_type": "② 食肉販売業（包装済みの食肉のみの販売）",
      "address": "山形県最上郡真室川町大字新町２２０－１１",
      "lat": 38.858937,
      "lng": 140.252788,
      "geocoding_level": null,
      "phone": "",
      "license_no": "",
      "license_date": null,
      "expire_date": null
    },
    {
      "name": "セブン－イレブン真室川新橋店",
      "name_kana": "セブンーイレブンマムロガワシンバシテン",
      "business_type": "③ 乳類販売業",
      "address": "山形県最上郡真室川町大字新町２２０－１１",
      "lat": 38.858937,
      "lng": 140.252788,
      "geocoding_level": null,
      "phone": "",
      "license_no": "",
      "license_date": null,
      "expire_date": null
    },
    {
      "name": "セブン－イレブン真室川新橋店",
      "name_kana": "セブンイレブンマムロガワシンバシテン",
      "business_type": "① 飲食店営業",
      "address": "山形県最上郡真室川町大字新町２２０－１１",
      "lat": 38.859057506000006,
      "lng": 140.252841988,
      "geocoding_level": 8,
      "phone": "",
      "license_no": "1126",
      "license_date": "2024-10-21",
      "expire_date": "2030-10-31"
    },
    {
      "name": "おかしの平和堂",
      "name_kana": "オカシノヘイワドウ",
      "business_type": "⑪ 菓子製造業",
      "address": "山形県最上郡真室川町大字新町１２９－５",
      "lat": 38.852976,
      "lng": 140.259364,
      "geocoding_level": 3,
      "phone": "",
      "license_no": "1127",
      "license_date": "2024-10-21",
      "expire_date": "2029-10-31"
    },
    {
      "name": "佐藤コヨシ商店",
      "name_kana": "サトウコヨシショウテン",
      "business_type": "④ 魚介類販売業",
      "address": "山形県最上郡真室川町大字新町１４６－１０",
      "lat": 38.860123653,
      "lng": 140.256058586,
      "geocoding_level": 8,
      "phone": "",
      "license_no": "1128",
      "license_date": "2024-10-21",
      "expire_date": "2030-10-31"
    },
    {
      "name": "佐藤コヨシ商店",
      "name_kana": "サトウコヨシショウテン",
      "business_type": "① 飲食店営業",
      "address": "山形県最上郡真室川町大字新町１４６－１０",
      "lat": 38.860123653,
      "lng": 140.256058586,
      "geocoding_level": 8,
      "phone": "",
      "license_no": "1129",
      "license_date": "2024-10-21",
      "expire_date": "2030-10-31"
    },
    {
      "name": "薔薇",
      "name_kana": "バラ",
      "business_type": "① 飲食店営業",
      "address": "山形県最上郡真室川町大字新町１５１－２５",
      "lat": 38.860298498,
      "lng": 140.256552689,
      "geocoding_level": 8,
      "phone": "",
      "license_no": "1135",
      "license_date": "2024-10-28",
      "expire_date": "2029-10-31"
    },
    {
      "name": "すし屋の政紀",
      "name_kana": "スシヤノマサキ",
      "business_type": "① 飲食店営業",
      "address": "山形県最上郡真室川町大字新町２７４－５",
      "lat": 38.856013551,
      "lng": 140.250531926,
      "geocoding_level": 8,
      "phone": "",
      "license_no": "1130",
      "license_date": "2024-10-21",
      "expire_date": "2029-10-31"
    },
    {
      "name": "真室川玉泉院",
      "name_kana": "マムロガワギョクセンイン",
      "business_type": "① 飲食店営業",
      "address": "山形県最上郡真室川町大字新町３８４－３",
      "lat": 38.854502102,
      "lng": 140.249817016,
      "geocoding_level": 8,
      "phone": "",
      "license_no": "1131",
      "license_date": "2024-10-21",
      "expire_date": "2030-10-31"
    },
    {
      "name": "株式会社共栄企画",
      "name_kana": "カブシキガイシャキョウエイキカク",
      "business_type": "① 飲食店営業",
      "address": "山形県最上郡真室川町大字平岡片杉野１７０１－３",
      "lat": 38.864871,
      "lng": 140.287262,
      "geocoding_level": 3,
      "phone": "",
      "license_no": "1132",
      "license_date": "2024-10-21",
      "expire_date": "2030-10-31"
    },
    {
      "name": "有限会社佐藤商店",
      "name_kana": "ユウゲンガイシャサトウショウテン",
      "business_type": "㉕ そうざい製造業",
      "address": "山形県最上郡真室川町大字及位４２９－１",
      "lat": 38.979932863,
      "lng": 140.362148101,
      "geocoding_level": 8,
      "phone": "",
      "license_no": "1136",
      "license_date": "2024-10-28",
      "expire_date": "2029-10-31"
    },
    {
      "name": "有限会社佐藤商店",
      "name_kana": "ユウゲンガイシャサトウショウテン",
      "business_type": "㉚ 密封包装食品製造業",
      "address": "山形県最上郡真室川町大字及位４２９－１",
      "lat": 38.979932863,
      "lng": 140.362148101,
      "geocoding_level": 8,
      "phone": "",
      "license_no": "1137",
      "license_date": "2024-10-28",
      "expire_date": "2029-10-31"
    },
    {
      "name": "弥右衛門",
      "name_kana": "ヤエモン",
      "business_type": "⑳ 精穀・製粉業",
      "address": "山形県最上郡真室川町大字大沢９３３",
      "lat": 38.886451,
      "lng": 140.212761,
      "geocoding_level": null,
      "phone": "",
      "license_no": "",
      "license_date": null,
      "expire_date": null
    },
    {
      "name": "コメリハードアンドグリーン真室川店",
      "name_kana": "コメリハードアンドグリーンマムロガワテン",
      "business_type": "⑧ 米穀類販売業",
      "address": "山形県最上郡真室川町大字新町３８１－１",
      "lat": 38.85386,
      "lng": 140.249272,
      "geocoding_level": null,
      "phone": "0233-64-1040",
      "license_no": "",
      "license_date": null,
      "expire_date": null
    },
    {
      "name": "クレープ工房カロナ",
      "name_kana": "クレープコウボウカロナ",
      "business_type": "① 飲食店営業",
      "address": "山形県最上郡真室川町ほか山形県一円",
      "lat": 38.857747,
      "lng": 140.252441,
      "geocoding_level": null,
      "phone": "",
      "license_no": "1063",
      "license_date": "2025-08-22",
      "expire_date": "2030-10-31"
    },
    {
      "name": "プッシュアップ６６",
      "name_kana": "プッシュアップ",
      "business_type": "① 飲食店営業",
      "address": "山形県最上郡真室川町大字新町字下荒川２６６－６",
      "lat": 38.852976,
      "lng": 140.259364,
      "geocoding_level": 3,
      "phone": "",
      "license_no": "1116",
      "license_date": "2025-10-23",
      "expire_date": "2030-10-31"
    },
    {
      "name": "農事組合法人りぞねっと",
      "name_kana": "ノウジクミアイホウジンリゾネット",
      "business_type": "㉔ 麺類製造業",
      "address": "山形県最上郡真室川町大字新町３７９",
      "lat": 38.852976,
      "lng": 140.259364,
      "geocoding_level": 3,
      "phone": "",
      "license_no": "1117",
      "license_date": "2025-10-23",
      "expire_date": "2030-10-31"
    },
    {
      "name": "田中りんごや",
      "name_kana": "タナカリンゴヤ",
      "business_type": "⑭ 清涼飲料水製造業",
      "address": "山形県最上郡真室川町大字釜渕８２７－５５",
      "lat": 38.935153,
      "lng": 140.266317,
      "geocoding_level": 3,
      "phone": "",
      "license_no": "1118",
      "license_date": "2025-10-23",
      "expire_date": "2030-10-31"
    },
    {
      "name": "食彩まむろがわ",
      "name_kana": "ショクサイマムロガワ",
      "business_type": "㉕ そうざい製造業",
      "address": "山形県最上郡真室川町大字差首鍋２８８６－１",
      "lat": 38.919557,
      "lng": 140.200242,
      "geocoding_level": null,
      "phone": "",
      "license_no": "1211",
      "license_date": "2026-03-23",
      "expire_date": "2032-10-31"
    }
  ]
}
