{
  "meta": {
    "updated": 1783568789,
    "sources": [
      {
        "source": "厚生労働省 食品衛生申請等システム（オープンデータ）",
        "license": "公共データ利用規約（第1.0版, PDL1.0）"
      }
    ]
  },
  "data": [
    {
      "name": "三重ヤクルト販売株式会社　滝原センター",
      "name_kana": "ミエヤクルトハンバイカブシキガイシャ　タキハラセンター",
      "business_type": "⑬ その他の食料・飲料販売業",
      "address": "三重県度会郡大紀町滝原818",
      "lat": 34.371244,
      "lng": 136.418845,
      "geocoding_level": null,
      "phone": "0598-86-2711",
      "license_no": "",
      "license_date": null,
      "expire_date": null
    },
    {
      "name": "髙橋焙煎所",
      "name_kana": "タカハシバイセンショ",
      "business_type": "⑯ コーヒー製造・加工業（飲料の製造を除く。）",
      "address": "三重県度会郡大紀町柏野９９０番地",
      "lat": 34.313741,
      "lng": 136.409708,
      "geocoding_level": null,
      "phone": "",
      "license_no": "",
      "license_date": null,
      "expire_date": null
    },
    {
      "name": "いろどり　珈琲",
      "name_kana": "イロドリ　コーヒー",
      "business_type": "⑯ コーヒー製造・加工業（飲料の製造を除く。）",
      "address": "三重県度会郡大紀町滝原1059番地1",
      "lat": 34.364791,
      "lng": 136.422411,
      "geocoding_level": null,
      "phone": "",
      "license_no": "",
      "license_date": null,
      "expire_date": null
    },
    {
      "name": "コメリハードアンドグリーン大宮店",
      "name_kana": "コメリハードアンドグリーンオオミヤテン",
      "business_type": "⑧ 米穀類販売業",
      "address": "三重県度会郡大紀町阿曽２２５６番地",
      "lat": 34.333267,
      "lng": 136.408,
      "geocoding_level": null,
      "phone": "0598-84-8480",
      "license_no": "",
      "license_date": null,
      "expire_date": null
    },
    {
      "name": "ごんすコーヒー",
      "name_kana": "ゴンスコーヒー",
      "business_type": "⑯ コーヒー製造・加工業（飲料の製造を除く。）",
      "address": "三重県度会郡大紀町崎2644",
      "lat": 34.300582,
      "lng": 136.411297,
      "geocoding_level": null,
      "phone": "",
      "license_no": "",
      "license_date": null,
      "expire_date": null
    }
  ]
}
