{
  "meta": {
    "updated": 1783568789,
    "sources": [
      {
        "source": "厚生労働省 食品衛生申請等システム（オープンデータ）",
        "license": "公共データ利用規約（第1.0版, PDL1.0）"
      }
    ]
  },
  "data": [
    {
      "name": "生活クラブ生活協同組合大阪　豊能支所",
      "name_kana": "セイカツクラブセイカツキョウドウクミアイオオサカ　トヨノシショ",
      "business_type": "① 魚介類販売業（包装済みの魚介類のみの販売）",
      "address": "大阪府豊能郡豊能町光風台５丁目７３７－１９",
      "lat": 34.900429,
      "lng": 135.440078,
      "geocoding_level": null,
      "phone": "0727385371",
      "license_no": "",
      "license_date": null,
      "expire_date": null
    },
    {
      "name": "生活クラブ生活協同組合大阪　豊能支所",
      "name_kana": "セイカツクラブセイカツキョウドウクミアイオオサカ　トヨノシショ",
      "business_type": "② 食肉販売業（包装済みの食肉のみの販売）",
      "address": "大阪府豊能郡豊能町光風台５丁目７３７－１９",
      "lat": 34.900429,
      "lng": 135.440078,
      "geocoding_level": null,
      "phone": "0727385371",
      "license_no": "",
      "license_date": null,
      "expire_date": null
    },
    {
      "name": "生活クラブ生活協同組合大阪　豊能支所",
      "name_kana": "セイカツクラブセイカツキョウドウクミアイオオサカ　トヨノシショ",
      "business_type": "③ 乳類販売業",
      "address": "大阪府豊能郡豊能町光風台５丁目７３７－１９",
      "lat": 34.900429,
      "lng": 135.440078,
      "geocoding_level": null,
      "phone": "0727385371",
      "license_no": "",
      "license_date": null,
      "expire_date": null
    },
    {
      "name": "有限会社　中西フーズセンター",
      "name_kana": "ユウゲンカイシャ　ナカニシフーズセンター",
      "business_type": "⑦ 野菜果物販売業",
      "address": "大阪府豊能郡豊能町木代18-1",
      "lat": 34.909789,
      "lng": 135.51287,
      "geocoding_level": null,
      "phone": "0727390930",
      "license_no": "",
      "license_date": null,
      "expire_date": null
    },
    {
      "name": "かめたに本店",
      "name_kana": "カメタニホンテン",
      "business_type": "⑫ 自動販売機による販売業（コップ式自動販売機（自動洗浄・屋内設置）及び営業許可の対象となる自動販売機を除く）",
      "address": "大阪府豊能郡豊能町吉川１４３－３",
      "lat": 34.911873,
      "lng": 135.445217,
      "geocoding_level": null,
      "phone": "",
      "license_no": "",
      "license_date": null,
      "expire_date": null
    },
    {
      "name": "特定非営利活動法人豊能町ふるさとおこし協議会",
      "name_kana": "トクテイヒエイリカツドウホウジントヨノチョウフルサトオコシキョウギカイ",
      "business_type": "⑳ 精穀・製粉業",
      "address": "大阪府豊能郡豊能町光風台5丁目８－２",
      "lat": 34.900006,
      "lng": 135.441823,
      "geocoding_level": null,
      "phone": "",
      "license_no": "",
      "license_date": null,
      "expire_date": null
    },
    {
      "name": "株式会社セレーネ",
      "name_kana": "カブシキカイシャセレーネ",
      "business_type": "⑲ 糖類製造・加工業",
      "address": "大阪府豊能郡豊能町新光風台５－５－４",
      "lat": 34.906296,
      "lng": 135.430738,
      "geocoding_level": null,
      "phone": "0727032933",
      "license_no": "",
      "license_date": null,
      "expire_date": null
    },
    {
      "name": "yaoyam",
      "name_kana": "ヤオヤム",
      "business_type": "⑥ 弁当販売業",
      "address": "大阪府豊能郡豊能町余野２８９ー５",
      "lat": 34.92331,
      "lng": 135.493837,
      "geocoding_level": null,
      "phone": "",
      "license_no": "",
      "license_date": null,
      "expire_date": null
    },
    {
      "name": "yaoyam",
      "name_kana": "ヤオヤム",
      "business_type": "⑦ 野菜果物販売業",
      "address": "大阪府豊能郡豊能町余野２８９ー５",
      "lat": 34.92331,
      "lng": 135.493837,
      "geocoding_level": null,
      "phone": "",
      "license_no": "",
      "license_date": null,
      "expire_date": null
    },
    {
      "name": "yaoyam",
      "name_kana": "ヤオヤム",
      "business_type": "⑨ 通信販売・訪問販売による販売業",
      "address": "大阪府豊能郡豊能町余野２８９ー５",
      "lat": 34.92331,
      "lng": 135.493837,
      "geocoding_level": null,
      "phone": "",
      "license_no": "",
      "license_date": null,
      "expire_date": null
    },
    {
      "name": "yaoyam",
      "name_kana": "ヤオヤム",
      "business_type": "⑬ その他の食料・飲料販売業",
      "address": "大阪府豊能郡豊能町余野２８９ー５",
      "lat": 34.92331,
      "lng": 135.493837,
      "geocoding_level": null,
      "phone": "",
      "license_no": "",
      "license_date": null,
      "expire_date": null
    },
    {
      "name": "yaoyam",
      "name_kana": "ヤオヤム",
      "business_type": "⑰ 農産保存食料品製造・加工業",
      "address": "大阪府豊能郡豊能町余野２８９ー５",
      "lat": 34.92331,
      "lng": 135.493837,
      "geocoding_level": null,
      "phone": "",
      "license_no": "",
      "license_date": null,
      "expire_date": null
    },
    {
      "name": "yaoyam",
      "name_kana": "ヤオヤム",
      "business_type": "㉔ その他の食料品製造・加工業",
      "address": "大阪府豊能郡豊能町余野２８９ー５",
      "lat": 34.92331,
      "lng": 135.493837,
      "geocoding_level": null,
      "phone": "",
      "license_no": "",
      "license_date": null,
      "expire_date": null
    },
    {
      "name": "yaoyam",
      "name_kana": "ヤオヤム",
      "business_type": "㉕ 行商",
      "address": "大阪府豊能郡豊能町余野２８９ー５",
      "lat": 34.92331,
      "lng": 135.493837,
      "geocoding_level": null,
      "phone": "",
      "license_no": "",
      "license_date": null,
      "expire_date": null
    },
    {
      "name": "デイリーカナートイズミヤ光風台店",
      "name_kana": "デイリーカナートイズミヤコウフウダイテン",
      "business_type": "⑪ 百貨店、総合スーパー",
      "address": "大阪府豊能郡豊能町光風台2丁目11番の2",
      "lat": 34.900541,
      "lng": 135.434286,
      "geocoding_level": null,
      "phone": "0727382801",
      "license_no": "",
      "license_date": null,
      "expire_date": null
    },
    {
      "name": "阪急オアシスときわ台店",
      "name_kana": "ハンキュウオアシストキワダイテン",
      "business_type": "⑪ 百貨店、総合スーパー",
      "address": "大阪府豊能郡豊能町東ときわ台3-1-2",
      "lat": 34.902197,
      "lng": 135.445324,
      "geocoding_level": null,
      "phone": "0727382962",
      "license_no": "",
      "license_date": null,
      "expire_date": null
    },
    {
      "name": "オーベルジュヤマガミ",
      "name_kana": "オーベルジュヤマガミ",
      "business_type": "㉔ その他の食料品製造・加工業",
      "address": "大阪府豊能郡豊能町高山23番地",
      "lat": 34.888373,
      "lng": 135.490229,
      "geocoding_level": null,
      "phone": "0727347365",
      "license_no": "",
      "license_date": null,
      "expire_date": null
    },
    {
      "name": "とよのおやつ",
      "name_kana": "トヨノオヤツ",
      "business_type": "⑬ その他の食料・飲料販売業",
      "address": "大阪府豊能郡豊能町東ときわ台2-8-6",
      "lat": 34.904823,
      "lng": 135.446441,
      "geocoding_level": null,
      "phone": "0727106765",
      "license_no": "",
      "license_date": null,
      "expire_date": null
    },
    {
      "name": "コメリハードアンドグリーン大阪豊能店",
      "name_kana": "コメリハードアンドグリーンオオサカトヨノテン",
      "business_type": "⑧ 米穀類販売業",
      "address": "大阪府豊能郡豊能町余野１８番地",
      "lat": 34.923174,
      "lng": 135.494555,
      "geocoding_level": null,
      "phone": "072-739-7472",
      "license_no": "",
      "license_date": null,
      "expire_date": null
    },
    {
      "name": "フルーツ飴やっさん",
      "name_kana": "フルーツアメヤッサン",
      "business_type": "㉕ 行商",
      "address": "大阪府豊能郡豊能町豊能町一円",
      "lat": 34.919335,
      "lng": 135.504865,
      "geocoding_level": null,
      "phone": "",
      "license_no": "",
      "license_date": null,
      "expire_date": null
    }
  ]
}
