{
  "meta": {
    "updated": 1783568789,
    "sources": [
      {
        "source": "厚生労働省 食品衛生申請等システム（オープンデータ）",
        "license": "公共データ利用規約（第1.0版, PDL1.0）"
      }
    ]
  },
  "data": [
    {
      "name": "ホットヨガスタジオLAVAミソラタウン掛川",
      "name_kana": "ホットヨガスタジオラバミソラタウンカケガワ",
      "business_type": "⑫ 自動販売機による販売業（コップ式自動販売機（自動洗浄・屋内設置）及び営業許可の対象となる自動販売機を除く）",
      "address": "静岡県掛川市高御所305-2 ミソラタウン掛川",
      "lat": 34.765496,
      "lng": 137.98391,
      "geocoding_level": null,
      "phone": "",
      "license_no": "",
      "license_date": null,
      "expire_date": null
    },
    {
      "name": "LAVAミソラタウン掛川",
      "name_kana": "ラバミソラタウンカケガワ",
      "business_type": "⑫ 自動販売機による販売業（コップ式自動販売機（自動洗浄・屋内設置）及び営業許可の対象となる自動販売機を除く）",
      "address": "静岡県掛川市高御所305-2 ミソラタウン掛川",
      "lat": 34.765496,
      "lng": 137.98391,
      "geocoding_level": null,
      "phone": "",
      "license_no": "",
      "license_date": null,
      "expire_date": null
    },
    {
      "name": "MEGAドン・キホーテUNY掛川店",
      "name_kana": "メガドン・キホーテユニーカケガワテン",
      "business_type": "① 飲食店営業",
      "address": "静岡県掛川市大池2826番地",
      "lat": 34.773032,
      "lng": 137.989411,
      "geocoding_level": null,
      "phone": "0570-036-211",
      "license_no": "S69202000197",
      "license_date": "2026-03-17",
      "expire_date": "2031-05-31"
    },
    {
      "name": "MEGAドン・キホーテUNY掛川店",
      "name_kana": "メガドン・キホーテユニーカケガワテン",
      "business_type": "① 飲食店営業",
      "address": "静岡県掛川市大池2826番地",
      "lat": 34.773032,
      "lng": 137.989411,
      "geocoding_level": null,
      "phone": "0570-036-211",
      "license_no": "S69202000195",
      "license_date": "2026-03-26",
      "expire_date": "2031-05-31"
    },
    {
      "name": "松浦農園",
      "name_kana": "マツウラノウエン",
      "business_type": "⑦ 野菜果物販売業",
      "address": "静岡県掛川市五明98",
      "lat": 34.796615,
      "lng": 138.005046,
      "geocoding_level": null,
      "phone": "09066189525",
      "license_no": "",
      "license_date": null,
      "expire_date": null
    },
    {
      "name": "松浦農園",
      "name_kana": "マツウラノウエン",
      "business_type": "⑰ 農産保存食料品製造・加工業",
      "address": "静岡県掛川市五明98",
      "lat": 34.796615,
      "lng": 138.005046,
      "geocoding_level": null,
      "phone": "09066189525",
      "license_no": "",
      "license_date": null,
      "expire_date": null
    },
    {
      "name": "KP farm",
      "name_kana": "ケーピーファーム",
      "business_type": "① 飲食店営業",
      "address": "静岡県掛川市五明98",
      "lat": 34.796615,
      "lng": 138.005046,
      "geocoding_level": null,
      "phone": "09066189525",
      "license_no": "S76202100035",
      "license_date": "2021-07-14",
      "expire_date": "2026-09-30"
    },
    {
      "name": "ダイソー　イオンタウン大須賀店",
      "name_kana": "ダイソー　イオンタウンオオスカテン",
      "business_type": "⑬ その他の食料・飲料販売業",
      "address": "静岡県掛川市西大渕３３５９ イオンタウン大須賀店内",
      "lat": 34.677537,
      "lng": 137.96781,
      "geocoding_level": null,
      "phone": "",
      "license_no": "",
      "license_date": null,
      "expire_date": null
    },
    {
      "name": "ダイソー　　掛川ショッピングセンター店",
      "name_kana": "ダイソー　カケガワショッピングセンターテン",
      "business_type": "⑬ その他の食料・飲料販売業",
      "address": "静岡県掛川市上西郷字加島５２９",
      "lat": 34.79157,
      "lng": 138.014067,
      "geocoding_level": null,
      "phone": "",
      "license_no": "",
      "license_date": null,
      "expire_date": null
    },
    {
      "name": "ダイソー　掛川大池店",
      "name_kana": "ダイソー　カケガワオオイケテン",
      "business_type": "⑬ その他の食料・飲料販売業",
      "address": "静岡県掛川市大池５８３",
      "lat": 34.775661,
      "lng": 137.990817,
      "geocoding_level": null,
      "phone": "",
      "license_no": "",
      "license_date": null,
      "expire_date": null
    },
    {
      "name": "コーナンイオンタウン大須賀店",
      "name_kana": "コーナンイオンタウンオオスカテン",
      "business_type": "⑪ 百貨店、総合スーパー",
      "address": "静岡県掛川市西大渕3359",
      "lat": 34.677537,
      "lng": 137.96781,
      "geocoding_level": null,
      "phone": "0537-48-5710",
      "license_no": "",
      "license_date": null,
      "expire_date": null
    },
    {
      "name": "中根製茶株式会社",
      "name_kana": "ナカネセイチャカブシキガイシャ",
      "business_type": "㉑ 製茶業",
      "address": "静岡県掛川市成滝425-1",
      "lat": 34.780286,
      "lng": 138.035447,
      "geocoding_level": null,
      "phone": "0537-23-3252",
      "license_no": "",
      "license_date": null,
      "expire_date": null
    },
    {
      "name": "株式会社掛川スーパーマーケット中央店",
      "name_kana": "カブシキガイシャカケガワスーパーマーケットチュウオウテン",
      "business_type": "⑦ 野菜果物販売業",
      "address": "静岡県掛川市中央１２の１",
      "lat": 34.770111,
      "lng": 138.00784,
      "geocoding_level": null,
      "phone": "",
      "license_no": "",
      "license_date": null,
      "expire_date": null
    },
    {
      "name": "株式会社掛川スーパーマーケット三笠店",
      "name_kana": "カブシキガイシャカケガワスーパーマーケットミカサテン",
      "business_type": "⑦ 野菜果物販売業",
      "address": "静岡県掛川市上西郷字加島５３９",
      "lat": 34.79157,
      "lng": 138.014067,
      "geocoding_level": null,
      "phone": "",
      "license_no": "",
      "license_date": null,
      "expire_date": null
    },
    {
      "name": "株式会社掛川スーパーマーケット中央店",
      "name_kana": "カブシキガイシャカケガワスーパーマーケットチュウオウテン",
      "business_type": "⑪ 百貨店、総合スーパー",
      "address": "静岡県掛川市中央２丁目１２の１",
      "lat": 34.771128,
      "lng": 138.007624,
      "geocoding_level": null,
      "phone": "0537-24-3418",
      "license_no": "",
      "license_date": null,
      "expire_date": null
    },
    {
      "name": "㈱掛川スーパーマーケット中央店",
      "name_kana": "カケガワスーパーチユウオウ",
      "business_type": "① 飲食店営業",
      "address": "静岡県掛川市中央２丁目１２の１",
      "lat": 34.771128,
      "lng": 138.007624,
      "geocoding_level": null,
      "phone": "0537-24-3418",
      "license_no": "S00584060271",
      "license_date": "2025-04-25",
      "expire_date": "2030-05-31"
    },
    {
      "name": "株式会社掛川スーパーマーケット中央店",
      "name_kana": "カケガワスーパーチユウオウ",
      "business_type": "③ 食肉販売業",
      "address": "静岡県掛川市中央２丁目１２の１",
      "lat": 34.771128,
      "lng": 138.007624,
      "geocoding_level": null,
      "phone": "0537-24-3418",
      "license_no": "S00583620177",
      "license_date": "2025-04-25",
      "expire_date": "2030-05-31"
    },
    {
      "name": "株式会社掛川スーパーマーケット中央店",
      "name_kana": "カケガワスーパーチユウオウ",
      "business_type": "④ 魚介類販売業",
      "address": "静岡県掛川市中央２丁目１２の１",
      "lat": 34.771128,
      "lng": 138.007624,
      "geocoding_level": null,
      "phone": "0537-24-3418",
      "license_no": "S00583620176",
      "license_date": "2025-04-25",
      "expire_date": "2030-05-31"
    },
    {
      "name": "ダイナム大須賀店",
      "name_kana": "ダイナムオオスカテン",
      "business_type": "⑤ コップ式自動販売機（自動洗浄・屋内設置）",
      "address": "静岡県掛川市西大渕3359番地",
      "lat": 34.677537,
      "lng": 137.96781,
      "geocoding_level": null,
      "phone": "070-1455-9197",
      "license_no": "",
      "license_date": null,
      "expire_date": null
    },
    {
      "name": "ダイナム静岡掛川店",
      "name_kana": "ダイナムシズオカカケガワテン",
      "business_type": "⑤ コップ式自動販売機（自動洗浄・屋内設置）",
      "address": "静岡県掛川市成滝字南大門288番地1",
      "lat": 34.778489,
      "lng": 138.034479,
      "geocoding_level": null,
      "phone": "070-1455-8318",
      "license_no": "",
      "license_date": null,
      "expire_date": null
    },
    {
      "name": "めん六や静岡掛川店",
      "name_kana": "メンロクヤシズオカカケガワテン",
      "business_type": "① 飲食店営業",
      "address": "静岡県掛川市成滝字南大門288番地1",
      "lat": 34.778489,
      "lng": 138.034479,
      "geocoding_level": null,
      "phone": "070-1455-8318",
      "license_no": "S69201200627",
      "license_date": "2023-09-26",
      "expire_date": "2028-09-30"
    },
    {
      "name": "サンゼン葛川店　清流物語",
      "name_kana": "サンゼンクズカワテン　セイリュウモノガタリ",
      "business_type": "⑫ 自動販売機による販売業（コップ式自動販売機（自動洗浄・屋内設置）及び営業許可の対象となる自動販売機を除く）",
      "address": "静岡県掛川市葛川1096-1",
      "lat": 34.776724,
      "lng": 138.027374,
      "geocoding_level": null,
      "phone": "",
      "license_no": "",
      "license_date": null,
      "expire_date": null
    },
    {
      "name": "スターバックスコーヒー掛川細田店",
      "name_kana": "スターバックスコーヒーカケガワサイダテン",
      "business_type": "⑬ その他の食料・飲料販売業",
      "address": "静岡県掛川市細田280-1",
      "lat": 34.772399,
      "lng": 137.982201,
      "geocoding_level": null,
      "phone": "0537-61-0570",
      "license_no": "",
      "license_date": null,
      "expire_date": null
    },
    {
      "name": "スターバックスコーヒー　掛川大池店",
      "name_kana": "スターバックスコーヒーカケガワオオイケテン",
      "business_type": "① 飲食店営業",
      "address": "静岡県掛川市大池3028-1",
      "lat": 34.772699,
      "lng": 137.993927,
      "geocoding_level": null,
      "phone": "0537-64-6771",
      "license_no": "S76202300305",
      "license_date": "2023-09-20",
      "expire_date": "2029-05-31"
    },
    {
      "name": "スターバックスコーヒー　掛川大池店",
      "name_kana": "スターバックスコーヒー　カケガワオオイケテン",
      "business_type": "⑬ その他の食料・飲料販売業",
      "address": "静岡県掛川市大池3028-1",
      "lat": 34.772699,
      "lng": 137.993927,
      "geocoding_level": null,
      "phone": "0537-64-6771",
      "license_no": "",
      "license_date": null,
      "expire_date": null
    },
    {
      "name": "スターバックスコーヒー掛川細田店",
      "name_kana": "スターバックスコーヒーカケガワサイダテン",
      "business_type": "① 飲食店営業",
      "address": "静岡県掛川市細田２８０－１",
      "lat": 34.772399,
      "lng": 137.982201,
      "geocoding_level": null,
      "phone": "0537-61-0570",
      "license_no": "S76202100095",
      "license_date": "2021-09-17",
      "expire_date": "2026-09-30"
    },
    {
      "name": "アミカ掛川店",
      "name_kana": "アミカカケガワテン",
      "business_type": "⑪ 百貨店、総合スーパー",
      "address": "静岡県掛川市駅前7番地20　ｗｅ＋138内",
      "lat": 34.770962,
      "lng": 138.015946,
      "geocoding_level": null,
      "phone": "0537-62-1788",
      "license_no": "",
      "license_date": null,
      "expire_date": null
    },
    {
      "name": "磐田化学工業株式会社　大須賀工場　造粒工場",
      "name_kana": "イワタカガクコウギョウカブシキガイシャ　オオスカコウジョウ　ゾウリュウコウジョウ",
      "business_type": "⑪ 菓子製造業",
      "address": "静岡県掛川市山崎2464",
      "lat": 34.691033,
      "lng": 137.966965,
      "geocoding_level": null,
      "phone": "0537-77-2360",
      "license_no": "S76202500454",
      "license_date": "2026-03-26",
      "expire_date": "2032-02-29"
    },
    {
      "name": "磐田化学工業株式会社　大須賀工場　造粒工場",
      "name_kana": "イワタガカガクコウギョウカブシキガイシャ　オオスカコウジョウ　ゾウリュウコウジョウ",
      "business_type": "㉔ その他の食料品製造・加工業",
      "address": "静岡県掛川市山崎2464",
      "lat": 34.691059,
      "lng": 137.966901,
      "geocoding_level": null,
      "phone": "0537-77-2360",
      "license_no": "",
      "license_date": null,
      "expire_date": null
    },
    {
      "name": "磐田化学工業株式会社大須賀工場",
      "name_kana": "イワタカガクコウギョウ",
      "business_type": "㉜ 添加物製造業",
      "address": "静岡県掛川市山崎２４６４番地",
      "lat": 34.691033,
      "lng": 137.966965,
      "geocoding_level": null,
      "phone": "0537-48-0015",
      "license_no": "S00054080095",
      "license_date": "2023-02-07",
      "expire_date": "2028-02-29"
    },
    {
      "name": "磐田化学工業株式会社　大須賀工場　造粒工場",
      "name_kana": "イワタカガクコウギョウカブシキガイシャ　オオスカコウジョウ　ゾウリュウコウジョウ",
      "business_type": "㉜ 添加物製造業",
      "address": "静岡県掛川市山崎2464",
      "lat": 34.691033,
      "lng": 137.966965,
      "geocoding_level": null,
      "phone": "0537772360",
      "license_no": "S76202300220",
      "license_date": "2023-08-10",
      "expire_date": "2029-02-28"
    },
    {
      "name": "磐田化学工業株式会社　大須賀工場　造粒工場",
      "name_kana": "イワタカガクコウギョウカブシキガイシャ　オオスカコウジョウ　ゾウリュウコウジョウ",
      "business_type": "⑬ 乳製品製造業",
      "address": "静岡県掛川市山崎2464",
      "lat": 34.691033,
      "lng": 137.966965,
      "geocoding_level": null,
      "phone": "",
      "license_no": "S76202300221",
      "license_date": "2023-08-10",
      "expire_date": "2029-02-28"
    },
    {
      "name": "ラクラス掛川",
      "name_kana": "ラクラスカケガワ",
      "business_type": "① 飲食店営業",
      "address": "静岡県掛川市柳町１１８－１",
      "lat": 34.782516,
      "lng": 138.01206,
      "geocoding_level": null,
      "phone": "070-6421-6373",
      "license_no": "S69201400417",
      "license_date": "2025-09-10",
      "expire_date": "2030-09-30"
    },
    {
      "name": "バロー掛川店",
      "name_kana": "バローカケガワテン",
      "business_type": "⑪ 百貨店、総合スーパー",
      "address": "静岡県掛川市大池539",
      "lat": 34.776471,
      "lng": 137.990465,
      "geocoding_level": null,
      "phone": "",
      "license_no": "",
      "license_date": null,
      "expire_date": null
    },
    {
      "name": "バロー成滝店",
      "name_kana": "バローナルタキテン",
      "business_type": "⑪ 百貨店、総合スーパー",
      "address": "静岡県掛川市成滝586-1",
      "lat": 34.778292,
      "lng": 138.031757,
      "geocoding_level": null,
      "phone": "0537-61-1900",
      "license_no": "",
      "license_date": null,
      "expire_date": null
    },
    {
      "name": "㈱バロー　掛川店",
      "name_kana": "バロー　カケガワテン",
      "business_type": "④ 魚介類販売業",
      "address": "静岡県掛川市大池５３９",
      "lat": 34.776471,
      "lng": 137.990465,
      "geocoding_level": null,
      "phone": "0537-22-4110",
      "license_no": "S69200600321",
      "license_date": "2023-05-16",
      "expire_date": "2029-05-31"
    },
    {
      "name": "㈱バロー　掛川店",
      "name_kana": "バロー　カケガワテン",
      "business_type": "③ 食肉販売業",
      "address": "静岡県掛川市大池５３９",
      "lat": 34.776471,
      "lng": 137.990465,
      "geocoding_level": null,
      "phone": "0537-22-4110",
      "license_no": "S69200600320",
      "license_date": "2023-05-16",
      "expire_date": "2029-05-31"
    },
    {
      "name": "バロー掛川店",
      "name_kana": "バローカケガワテン",
      "business_type": "① 飲食店営業",
      "address": "静岡県掛川市大池５３９",
      "lat": 34.776471,
      "lng": 137.990465,
      "geocoding_level": null,
      "phone": "0537-22-4110",
      "license_no": "S69201700183",
      "license_date": "2024-04-19",
      "expire_date": "2030-05-31"
    },
    {
      "name": "バロー　成滝店",
      "name_kana": "バロー　ナルタキテン",
      "business_type": "⑪ 菓子製造業",
      "address": "静岡県掛川市成滝５８６－１",
      "lat": 34.778292,
      "lng": 138.031757,
      "geocoding_level": null,
      "phone": "0537-61-1900",
      "license_no": "S69201200176",
      "license_date": "2024-09-10",
      "expire_date": "2030-09-30"
    },
    {
      "name": "バロー　成滝店",
      "name_kana": "バロー　ナルタキテン",
      "business_type": "③ 食肉販売業",
      "address": "静岡県掛川市成滝５８６－１",
      "lat": 34.778292,
      "lng": 138.031757,
      "geocoding_level": null,
      "phone": "0537-61-1900",
      "license_no": "S69201200175",
      "license_date": "2024-09-10",
      "expire_date": "2030-09-30"
    },
    {
      "name": "バロー　成滝店",
      "name_kana": "バロー　ナルタキテン",
      "business_type": "④ 魚介類販売業",
      "address": "静岡県掛川市成滝５８６－１",
      "lat": 34.778292,
      "lng": 138.031757,
      "geocoding_level": null,
      "phone": "0537-61-1900",
      "license_no": "S69201200174",
      "license_date": "2024-09-10",
      "expire_date": "2030-09-30"
    },
    {
      "name": "㈱バロー　掛川店",
      "name_kana": "カブバロー　カケガワテン",
      "business_type": "⑪ 菓子製造業",
      "address": "静岡県掛川市大池５３９",
      "lat": 34.776471,
      "lng": 137.990465,
      "geocoding_level": null,
      "phone": "0537-22-4110",
      "license_no": "S69200700499",
      "license_date": "2026-03-17",
      "expire_date": "2032-05-31"
    },
    {
      "name": "ANYTIME FITNESS掛川店",
      "name_kana": "エニタイムフィットネスカケガワテン",
      "business_type": "⑫ 自動販売機による販売業（コップ式自動販売機（自動洗浄・屋内設置）及び営業許可の対象となる自動販売機を除く）",
      "address": "静岡県掛川市柳町6",
      "lat": 34.78153,
      "lng": 138.013084,
      "geocoding_level": null,
      "phone": "",
      "license_no": "",
      "license_date": null,
      "expire_date": null
    },
    {
      "name": "竹うま",
      "name_kana": "タケウマ",
      "business_type": "① 飲食店営業",
      "address": "静岡県掛川市大渕6338",
      "lat": 34.665886,
      "lng": 138.007279,
      "geocoding_level": null,
      "phone": "0537-48-5403",
      "license_no": "S00584070132",
      "license_date": "2025-01-31",
      "expire_date": "2030-02-28"
    },
    {
      "name": "ベイシア掛川店",
      "name_kana": "ベイシアカケガワテン",
      "business_type": "⑪ 百貨店、総合スーパー",
      "address": "静岡県掛川市杉谷南２－１３－２",
      "lat": 34.763011,
      "lng": 138.032077,
      "geocoding_level": null,
      "phone": "0537-61-5111",
      "license_no": "",
      "license_date": null,
      "expire_date": null
    },
    {
      "name": "ベイシア掛川店",
      "name_kana": "ベイシアカケガワテン",
      "business_type": "① 飲食店営業",
      "address": "静岡県掛川市杉谷南2-13-2",
      "lat": 34.763011,
      "lng": 138.032077,
      "geocoding_level": null,
      "phone": "0537-61-5111",
      "license_no": "S76202200428",
      "license_date": "2023-02-07",
      "expire_date": "2029-09-30"
    },
    {
      "name": "ベイシア掛川店",
      "name_kana": "ベイシアカケガワテン",
      "business_type": "⑪ 菓子製造業",
      "address": "静岡県掛川市杉谷南2-13-2",
      "lat": 34.763022,
      "lng": 138.03199,
      "geocoding_level": null,
      "phone": "0537-61-5111",
      "license_no": "S76202200429",
      "license_date": "2023-02-07",
      "expire_date": "2029-09-30"
    },
    {
      "name": "ベイシア掛川店",
      "name_kana": "ベイシアカケガワテン",
      "business_type": "① 飲食店営業",
      "address": "静岡県掛川市杉谷南２－１３－２",
      "lat": 34.763022,
      "lng": 138.03199,
      "geocoding_level": null,
      "phone": "0537-61-5111",
      "license_no": "S69200600458",
      "license_date": "2025-08-14",
      "expire_date": "2031-09-30"
    },
    {
      "name": "ベイシア掛川店",
      "name_kana": "ベイシアカケガワテン",
      "business_type": "③ 食肉販売業",
      "address": "静岡県掛川市杉谷南２－１３－２",
      "lat": 34.763022,
      "lng": 138.03199,
      "geocoding_level": null,
      "phone": "0537-61-5111",
      "license_no": "S69200600456",
      "license_date": "2025-08-14",
      "expire_date": "2031-09-30"
    },
    {
      "name": "ベイシア掛川店",
      "name_kana": "ベイシアカケガワテン",
      "business_type": "④ 魚介類販売業",
      "address": "静岡県掛川市杉谷南２－１３－２",
      "lat": 34.763022,
      "lng": 138.03199,
      "geocoding_level": null,
      "phone": "0537-61-5111",
      "license_no": "S69200600455",
      "license_date": "2025-08-14",
      "expire_date": "2031-09-30"
    },
    {
      "name": "有限会社粂田肥料店",
      "name_kana": "ユウゲンガイシャクメタヒリョウテン",
      "business_type": "⑧ 米穀類販売業",
      "address": "静岡県掛川市掛川1077-1",
      "lat": 34.775261,
      "lng": 138.016802,
      "geocoding_level": null,
      "phone": "0537-24-2541",
      "license_no": "",
      "license_date": null,
      "expire_date": null
    },
    {
      "name": "杏林堂スーパードラッグストア 掛川下垂木店",
      "name_kana": "キョウリンドウスーパードラッグストア カケガワシモタルキテン",
      "business_type": "① 魚介類販売業（包装済みの魚介類のみの販売）",
      "address": "静岡県掛川市下垂木2240-9",
      "lat": 34.779392,
      "lng": 137.980368,
      "geocoding_level": null,
      "phone": "0537-23-9611",
      "license_no": "",
      "license_date": null,
      "expire_date": null
    },
    {
      "name": "杏林堂スーパードラッグストア 掛川下垂木店",
      "name_kana": "キョウリンドウスーパードラッグストア カケガワシモタルキテン",
      "business_type": "② 食肉販売業（包装済みの食肉のみの販売）",
      "address": "静岡県掛川市下垂木2240-9",
      "lat": 34.779392,
      "lng": 137.980368,
      "geocoding_level": null,
      "phone": "0537-23-9611",
      "license_no": "",
      "license_date": null,
      "expire_date": null
    },
    {
      "name": "杏林堂スーパードラッグストア 掛川下垂木店",
      "name_kana": "キョウリンドウスーパードラッグストア カケガワシモタルキテン",
      "business_type": "③ 乳類販売業",
      "address": "静岡県掛川市下垂木2240-9",
      "lat": 34.779392,
      "lng": 137.980368,
      "geocoding_level": null,
      "phone": "0537-23-9611",
      "license_no": "",
      "license_date": null,
      "expire_date": null
    },
    {
      "name": "杏林堂スーパードラッグストア 掛川葛ヶ丘店",
      "name_kana": "キョウリンドウスーパードラッグストア カケガワカツラガオカテン",
      "business_type": "① 魚介類販売業（包装済みの魚介類のみの販売）",
      "address": "静岡県掛川市葛ケ丘3-3-1",
      "lat": 34.787633,
      "lng": 138.028302,
      "geocoding_level": null,
      "phone": "0537-61-2511",
      "license_no": "",
      "license_date": null,
      "expire_date": null
    },
    {
      "name": "杏林堂スーパードラッグストア 掛川葛ヶ丘店",
      "name_kana": "キョウリンドウスーパードラッグストア カケガワカツラガオカテン",
      "business_type": "② 食肉販売業（包装済みの食肉のみの販売）",
      "address": "静岡県掛川市葛ケ丘3-3-1",
      "lat": 34.787633,
      "lng": 138.028302,
      "geocoding_level": null,
      "phone": "0537-61-2511",
      "license_no": "",
      "license_date": null,
      "expire_date": null
    },
    {
      "name": "杏林堂スーパードラッグストア 掛川葛ヶ丘店",
      "name_kana": "キョウリンドウスーパードラッグストア カケガワカツラガオカテン",
      "business_type": "③ 乳類販売業",
      "address": "静岡県掛川市葛ケ丘3-3-1",
      "lat": 34.787633,
      "lng": 138.028302,
      "geocoding_level": null,
      "phone": "0537-61-2511",
      "license_no": "",
      "license_date": null,
      "expire_date": null
    },
    {
      "name": "杏林堂スーパードラッグストア 掛川花鳥園前店",
      "name_kana": "キョウリンドウスーパードラッグストア カケガワカチョウエンマエテン",
      "business_type": "① 魚介類販売業（包装済みの魚介類のみの販売）",
      "address": "静岡県掛川市南西郷424-1",
      "lat": 34.762303,
      "lng": 138.017188,
      "geocoding_level": null,
      "phone": "0537-24-0111",
      "license_no": "",
      "license_date": null,
      "expire_date": null
    },
    {
      "name": "杏林堂スーパードラッグストア 掛川花鳥園前店",
      "name_kana": "キョウリンドウスーパードラッグストア カケガワカチョウエンマエテン",
      "business_type": "② 食肉販売業（包装済みの食肉のみの販売）",
      "address": "静岡県掛川市南西郷424-1",
      "lat": 34.762303,
      "lng": 138.017188,
      "geocoding_level": null,
      "phone": "0537-24-0111",
      "license_no": "",
      "license_date": null,
      "expire_date": null
    },
    {
      "name": "杏林堂スーパードラッグストア 掛川花鳥園前店",
      "name_kana": "キョウリンドウスーパードラッグストア カケガワカチョウエンマエテン",
      "business_type": "③ 乳類販売業",
      "address": "静岡県掛川市南西郷424-1",
      "lat": 34.762303,
      "lng": 138.017188,
      "geocoding_level": null,
      "phone": "0537-24-0111",
      "license_no": "",
      "license_date": null,
      "expire_date": null
    },
    {
      "name": "掛川食堂・麺処掛川",
      "name_kana": "カケガワショクドウメンドコロカケガワ",
      "business_type": "① 飲食店営業",
      "address": "静岡県掛川市倉真7507-23",
      "lat": 34.841596,
      "lng": 138.042104,
      "geocoding_level": null,
      "phone": "",
      "license_no": "S76202400443",
      "license_date": "2024-12-18",
      "expire_date": "2030-09-30"
    },
    {
      "name": "よろず掛川",
      "name_kana": "ヨロズカケガワ",
      "business_type": "① 飲食店営業",
      "address": "静岡県掛川市倉真7507-23",
      "lat": 34.841596,
      "lng": 138.042104,
      "geocoding_level": null,
      "phone": "",
      "license_no": "S76202400444",
      "license_date": "2024-12-18",
      "expire_date": "2030-09-30"
    },
    {
      "name": "(株)ABC掛川細田店",
      "name_kana": "エービーシーカケガワサイダテン",
      "business_type": "⑤ コップ式自動販売機（自動洗浄・屋内設置）",
      "address": "静岡県掛川市細田294-5",
      "lat": 34.773502,
      "lng": 137.981602,
      "geocoding_level": null,
      "phone": "0537-61-0077",
      "license_no": "",
      "license_date": null,
      "expire_date": null
    },
    {
      "name": "新東名高速道路　掛川PA（下）",
      "name_kana": "シントウメイコウソクドウロカケガワパーキングエリアクダリ",
      "business_type": "⑤ コップ式自動販売機（自動洗浄・屋内設置）",
      "address": "静岡県掛川市倉真字荒芝5968-1",
      "lat": 35.649639,
      "lng": 139.749875,
      "geocoding_level": null,
      "phone": "053-437-5533",
      "license_no": "",
      "license_date": null,
      "expire_date": null
    },
    {
      "name": "ヤマハ(株)掛川工場　ハーモニープラザ３F",
      "name_kana": "ヤマハカケガワコウジョウハーモニープラザ",
      "business_type": "⑤ コップ式自動販売機（自動洗浄・屋内設置）",
      "address": "静岡県掛川市領家1480",
      "lat": 34.775369,
      "lng": 137.972638,
      "geocoding_level": null,
      "phone": "0537-22-2181",
      "license_no": "",
      "license_date": null,
      "expire_date": null
    },
    {
      "name": "新東名高速道路　掛川PA（上）",
      "name_kana": "シントウメイコウソクドウロカケガワパーキングエリアノボリ",
      "business_type": "⑤ コップ式自動販売機（自動洗浄・屋内設置）",
      "address": "静岡県掛川市倉真字藪ノ上7507-1-1",
      "lat": 34.843412,
      "lng": 138.050592,
      "geocoding_level": null,
      "phone": "053-437-5533",
      "license_no": "",
      "license_date": null,
      "expire_date": null
    },
    {
      "name": "新東名高速道路　掛川ＰＡ（上）",
      "name_kana": "シントウメイコウソクドウロ　カケガワ　ウエ",
      "business_type": "② 調理機能を有する自動販売機（要許可）",
      "address": "静岡県掛川市倉真字藪ノ上７５０７－１－１",
      "lat": 34.843412,
      "lng": 138.050592,
      "geocoding_level": null,
      "phone": "053-437-5533",
      "license_no": "S69201200018",
      "license_date": "2022-08-22",
      "expire_date": "2027-09-30"
    },
    {
      "name": "㈱キャタラー本社事務棟２階",
      "name_kana": "カブキシカイシャキャタラーホンシャジムトウニカイ",
      "business_type": "⑤ コップ式自動販売機（自動洗浄・屋内設置）",
      "address": "静岡県掛川市千浜7800番地",
      "lat": 34.646794,
      "lng": 138.076496,
      "geocoding_level": null,
      "phone": "0537-72-6721",
      "license_no": "",
      "license_date": null,
      "expire_date": null
    },
    {
      "name": "（株）プロスパラマニュファクチャリング　デリバリ休憩所",
      "name_kana": "カブシキカイシャプロスパラマニュファクチャリングデリバリキュウケイジョ",
      "business_type": "⑤ コップ式自動販売機（自動洗浄・屋内設置）",
      "address": "静岡県掛川市千浜4560",
      "lat": 34.66127,
      "lng": 138.074719,
      "geocoding_level": null,
      "phone": "0537-72-2983",
      "license_no": "",
      "license_date": null,
      "expire_date": null
    },
    {
      "name": "ＪＸ金属プレシジョンテクノロジー株式会社掛川工場　北東休憩所",
      "name_kana": "ジェイエックスキンゾクプレシジョンテクノロジーカブシキガイシャカケガワコウジョウホクトウキュウケイジョ",
      "business_type": "⑤ コップ式自動販売機（自動洗浄・屋内設置）",
      "address": "静岡県掛川市菖蒲ヶ池１０１",
      "lat": 34.758879,
      "lng": 138.002034,
      "geocoding_level": null,
      "phone": "053-437-5533",
      "license_no": "",
      "license_date": null,
      "expire_date": null
    },
    {
      "name": "ＪＸ金属プレシジョンテクノロジー株式会社掛川工場　西南休憩所",
      "name_kana": "ジェイエックスキンゾクプレシジョンテクノロジーカブシキガイシャカケガワコウジョウセイナンキュウケイジョ",
      "business_type": "⑤ コップ式自動販売機（自動洗浄・屋内設置）",
      "address": "静岡県掛川市菖蒲ヶ池１０１",
      "lat": 34.758879,
      "lng": 138.002034,
      "geocoding_level": null,
      "phone": "053-437-5533",
      "license_no": "",
      "license_date": null,
      "expire_date": null
    },
    {
      "name": "東名高速小笠パーキングエリア　下り線",
      "name_kana": "トウメイコウソクオガサパーキングエリア　クダリセン",
      "business_type": "② 調理機能を有する自動販売機（要許可）",
      "address": "静岡県掛川市下俣２４１－１",
      "lat": 34.760337,
      "lng": 138.003865,
      "geocoding_level": null,
      "phone": "053-437-5533",
      "license_no": "S69201200554",
      "license_date": "2023-04-18",
      "expire_date": "2028-05-31"
    },
    {
      "name": "パチンコダイナム静岡掛川店",
      "name_kana": "パチンコダイナムシズオカカケガワテン",
      "business_type": "⑤ コップ式自動販売機（自動洗浄・屋内設置）",
      "address": "静岡県掛川市成滝字南大門２８８番地１",
      "lat": 38.18274,
      "lng": 140.878143,
      "geocoding_level": null,
      "phone": "053-437-5533",
      "license_no": "",
      "license_date": null,
      "expire_date": null
    },
    {
      "name": "島田掛川信用金庫本部４階食堂",
      "name_kana": "シマダカケガワシンヨウキンコホンブヨンカイショクドウ",
      "business_type": "⑤ コップ式自動販売機（自動洗浄・屋内設置）",
      "address": "静岡県掛川市亀の甲二丁目２０３",
      "lat": 34.766778,
      "lng": 138.014529,
      "geocoding_level": null,
      "phone": "0537-24-6711",
      "license_no": "",
      "license_date": null,
      "expire_date": null
    },
    {
      "name": "株式会社掛川スーパーマーケット中央店",
      "name_kana": "カケガワスーパーチユウオウ",
      "business_type": "② 調理機能を有する自動販売機（要許可）",
      "address": "静岡県掛川市中央２丁目１２－１",
      "lat": 34.771131,
      "lng": 138.007611,
      "geocoding_level": null,
      "phone": "053-437-5533",
      "license_no": "S00583590040",
      "license_date": "2026-04-30",
      "expire_date": "2031-05-31"
    },
    {
      "name": "AMERICAN BEER BAR XYZ",
      "name_kana": "アメリカン　ビアバル　エクスワイズィー",
      "business_type": "① 飲食店営業",
      "address": "静岡県掛川市紺屋町３－５ TOM BILD 3  2F",
      "lat": 34.772218,
      "lng": 138.013916,
      "geocoding_level": null,
      "phone": "0537288812",
      "license_no": "S76202100012",
      "license_date": "2021-06-21",
      "expire_date": "2027-05-31"
    },
    {
      "name": "タイヘイ株式会社　掛川営業所",
      "name_kana": "タイヘイカブシキガイシャ　カケガワエイギョウショ",
      "business_type": "① 魚介類販売業（包装済みの魚介類のみの販売）",
      "address": "静岡県掛川市上西郷237-1",
      "lat": 34.792796,
      "lng": 138.014226,
      "geocoding_level": null,
      "phone": "0537-24-2630",
      "license_no": "",
      "license_date": null,
      "expire_date": null
    },
    {
      "name": "タイヘイ株式会社　掛川営業所",
      "name_kana": "タイヘイカブシキガイシャ　カケガワエイギョウショ",
      "business_type": "② 食肉販売業（包装済みの食肉のみの販売）",
      "address": "静岡県掛川市上西郷237-1",
      "lat": 34.792796,
      "lng": 138.014226,
      "geocoding_level": null,
      "phone": "0537-24-2630",
      "license_no": "",
      "license_date": null,
      "expire_date": null
    },
    {
      "name": "タイヘイ株式会社　掛川営業所",
      "name_kana": "タイヘイカブシキガイシャ　カケガワエイギョウショ",
      "business_type": "③ 乳類販売業",
      "address": "静岡県掛川市上西郷237-1",
      "lat": 34.792796,
      "lng": 138.014226,
      "geocoding_level": null,
      "phone": "0537-24-2630",
      "license_no": "",
      "license_date": null,
      "expire_date": null
    },
    {
      "name": "スギドラッグ　掛川東店",
      "name_kana": "スギドラッグ　カケガワヒガシテン",
      "business_type": "⑪ 百貨店、総合スーパー",
      "address": "静岡県掛川市杉谷南二丁目13番地の2 ベイシア掛川店内",
      "lat": 34.763022,
      "lng": 138.03199,
      "geocoding_level": null,
      "phone": "0537-28-8616",
      "license_no": "",
      "license_date": null,
      "expire_date": null
    },
    {
      "name": "掛川ゴルフガーデン",
      "name_kana": "カケガワゴルフガーデン",
      "business_type": "② 調理機能を有する自動販売機（要許可）",
      "address": "静岡県掛川市満水２２２１－１",
      "lat": 34.775646,
      "lng": 138.035892,
      "geocoding_level": null,
      "phone": "054-641-5779",
      "license_no": "S00584040283",
      "license_date": "2021-09-30",
      "expire_date": "2026-09-30"
    },
    {
      "name": "フランスベツド株式会社静岡工場",
      "name_kana": "フランスベツド",
      "business_type": "⑤ コップ式自動販売機（自動洗浄・屋内設置）",
      "address": "静岡県掛川市大渕９１００番地",
      "lat": 34.672294,
      "lng": 137.996461,
      "geocoding_level": null,
      "phone": "054-641-5779",
      "license_no": "",
      "license_date": null,
      "expire_date": null
    },
    {
      "name": "丸大食品株式会社静岡工場",
      "name_kana": "マルダイシヨクヒンシズオカ",
      "business_type": "⑤ コップ式自動販売機（自動洗浄・屋内設置）",
      "address": "静岡県掛川市高御所１００６－１",
      "lat": 34.758026,
      "lng": 137.978352,
      "geocoding_level": null,
      "phone": "0546-41-5779",
      "license_no": "",
      "license_date": null,
      "expire_date": null
    },
    {
      "name": "東罐興業株式会社静岡工場",
      "name_kana": "トウカンコウギヨウシズオカ",
      "business_type": "⑤ コップ式自動販売機（自動洗浄・屋内設置）",
      "address": "静岡県掛川市千浜１９０１の１",
      "lat": 34.668073,
      "lng": 138.083609,
      "geocoding_level": null,
      "phone": "054-641-5779",
      "license_no": "",
      "license_date": null,
      "expire_date": null
    },
    {
      "name": "フランスベッド株式会社　事務所",
      "name_kana": "フランスベッドカブシキカイシャジムショ",
      "business_type": "⑤ コップ式自動販売機（自動洗浄・屋内設置）",
      "address": "静岡県掛川市大渕９１００番地",
      "lat": 34.672294,
      "lng": 137.996461,
      "geocoding_level": null,
      "phone": "054-641-5779",
      "license_no": "",
      "license_date": null,
      "expire_date": null
    },
    {
      "name": "ヤマハ　掛川技術センターロビー",
      "name_kana": "ヤマハカケガワギジュツセンターロビー",
      "business_type": "⑤ コップ式自動販売機（自動洗浄・屋内設置）",
      "address": "静岡県掛川市成滝３２２－１",
      "lat": 34.78218,
      "lng": 138.03808,
      "geocoding_level": null,
      "phone": "054-641-5779",
      "license_no": "",
      "license_date": null,
      "expire_date": null
    },
    {
      "name": "株式会社ベイシア掛川店",
      "name_kana": "カブシキガイシャベイシアカケガワテン",
      "business_type": "② 調理機能を有する自動販売機（要許可）",
      "address": "静岡県掛川市杉谷南２－１３－２",
      "lat": 34.763011,
      "lng": 138.032077,
      "geocoding_level": null,
      "phone": "054-641-5779",
      "license_no": "S69200600471",
      "license_date": "2022-09-28",
      "expire_date": "2027-09-30"
    },
    {
      "name": "ミナクル市",
      "name_kana": "ミナクルイチ",
      "business_type": "② 調理機能を有する自動販売機（要許可）",
      "address": "静岡県掛川市三俣１１８７－１",
      "lat": 34.668275,
      "lng": 138.048917,
      "geocoding_level": null,
      "phone": "054-641-5779",
      "license_no": "S66200200122",
      "license_date": "2023-02-10",
      "expire_date": "2028-02-29"
    },
    {
      "name": "中部フーズ　バロー掛川店",
      "name_kana": "チュウブフーズ　バローカケガワテン",
      "business_type": "① 飲食店営業",
      "address": "静岡県掛川市大池５３９",
      "lat": 34.776551,
      "lng": 137.990346,
      "geocoding_level": null,
      "phone": "0537-22-4110",
      "license_no": "S69200700072",
      "license_date": "2023-05-16",
      "expire_date": "2029-05-31"
    },
    {
      "name": "中部フーズ　バロー掛川店",
      "name_kana": "チュウブフーズ　バローカケガワテン",
      "business_type": "① 飲食店営業",
      "address": "静岡県掛川市大池５３９",
      "lat": 34.776551,
      "lng": 137.990346,
      "geocoding_level": null,
      "phone": "0537-22-4110",
      "license_no": "S69200700071",
      "license_date": "2023-05-16",
      "expire_date": "2029-05-31"
    },
    {
      "name": "中部フーズ㈱　成滝店",
      "name_kana": "チュウブフーズカブ　ナルタキテン",
      "business_type": "① 飲食店営業",
      "address": "静岡県掛川市成滝５８６－１",
      "lat": 34.778292,
      "lng": 138.031757,
      "geocoding_level": null,
      "phone": "0537-61-1900",
      "license_no": "S69201200178",
      "license_date": "2024-09-10",
      "expire_date": "2030-09-30"
    },
    {
      "name": "もち吉　掛川店",
      "name_kana": "モチキチ　カケガワテン",
      "business_type": "⑬ その他の食料・飲料販売業",
      "address": "静岡県掛川市北門57",
      "lat": 34.780584,
      "lng": 138.013771,
      "geocoding_level": null,
      "phone": "0537-61-1515",
      "license_no": "",
      "license_date": null,
      "expire_date": null
    },
    {
      "name": "もち吉　掛川店",
      "name_kana": "モチキチ　カケガワテン",
      "business_type": "⑪ 菓子製造業",
      "address": "静岡県掛川市北門57番地",
      "lat": 34.780584,
      "lng": 138.013771,
      "geocoding_level": null,
      "phone": "0537-61-1515",
      "license_no": "S69201900611",
      "license_date": "2025-09-22",
      "expire_date": "2031-09-30"
    },
    {
      "name": "カネ美食品㈱リーズデリ掛川店",
      "name_kana": "カネミショクヒン　カブ　リーズデリカケガワテン",
      "business_type": "① 飲食店営業",
      "address": "静岡県掛川市大池2826番地 MEGA ドン・キホーテ UNY 掛川店内",
      "lat": 34.773032,
      "lng": 137.989411,
      "geocoding_level": null,
      "phone": "0537-22-7262",
      "license_no": "S76202300077",
      "license_date": "2023-05-17",
      "expire_date": "2029-05-31"
    },
    {
      "name": "カネ美食品㈱リーズデリ掛川店",
      "name_kana": "カネミショクヒン　カブ　リーズデリカケガワテン",
      "business_type": "⑪ 菓子製造業",
      "address": "静岡県掛川市大池2826番地 MEGA ドン・キホーテ UNY 掛川店内",
      "lat": 34.773032,
      "lng": 137.989411,
      "geocoding_level": null,
      "phone": "0537-22-7262",
      "license_no": "S76202300207",
      "license_date": "2023-07-31",
      "expire_date": "2030-05-31"
    },
    {
      "name": "カネ美食品㈱リーズデリ掛川店",
      "name_kana": "カネミショクヒン　カブ　リーズデリカケガワテン",
      "business_type": "⑬ その他の食料・飲料販売業",
      "address": "静岡県掛川市大池2826番地 MEGA ドン・キホーテ UNY 掛川店内",
      "lat": 34.773032,
      "lng": 137.989411,
      "geocoding_level": null,
      "phone": "0537-22-7262",
      "license_no": "",
      "license_date": null,
      "expire_date": null
    },
    {
      "name": "きららサテライト",
      "name_kana": "キララサテライト",
      "business_type": "㉑ 製茶業",
      "address": "静岡県掛川市和田70-1",
      "lat": 34.747531,
      "lng": 138.03871,
      "geocoding_level": null,
      "phone": "0537-25-6881",
      "license_no": "",
      "license_date": null,
      "expire_date": null
    },
    {
      "name": "きららサテライト",
      "name_kana": "キララサテライト",
      "business_type": "㉑ 製茶業",
      "address": "静岡県掛川市掛川市70-1",
      "lat": 34.777391,
      "lng": 138.022635,
      "geocoding_level": null,
      "phone": "0537-25-6881",
      "license_no": "",
      "license_date": null,
      "expire_date": null
    },
    {
      "name": "丸山製茶株式会社",
      "name_kana": "マルヤマセイチャカブシキガイシャ",
      "business_type": "⑬ その他の食料・飲料販売業",
      "address": "静岡県掛川市板沢510-3",
      "lat": 34.752033,
      "lng": 138.032794,
      "geocoding_level": null,
      "phone": "0537245588",
      "license_no": "",
      "license_date": null,
      "expire_date": null
    },
    {
      "name": "東罐興業株式会社　静岡工場",
      "name_kana": "トウカンコウギョウカブシキカイシャ　シズオカコウジョウ",
      "business_type": "㉗ 器具、容器包装の製造・加工業（合成樹脂が使用された器具又は容器包装の製造、加工に限る。）",
      "address": "静岡県掛川市千浜1901-1",
      "lat": 34.668073,
      "lng": 138.083609,
      "geocoding_level": null,
      "phone": "0537-72-6111",
      "license_no": "",
      "license_date": null,
      "expire_date": null
    },
    {
      "name": "ヤマハモーターパワープロダクツ株式会社南工場食堂",
      "name_kana": "ヤマハモーターパワープロダクツミナミコウジョウショクドウ",
      "business_type": "① 飲食店営業",
      "address": "静岡県掛川市逆川２００番地の１",
      "lat": 34.779912,
      "lng": 138.043619,
      "geocoding_level": null,
      "phone": "0537-27-2110",
      "license_no": "S00584070044",
      "license_date": "2021-09-30",
      "expire_date": "2027-09-30"
    },
    {
      "name": "ヤマハモーターパワープロダクツ株式会社　掛川技術センター　食堂",
      "name_kana": "ヤマハモーターパワープロダクツカブシキガイシャカケガワギジュツセンターショクドウ",
      "business_type": "① 飲食店営業",
      "address": "静岡県掛川市成滝３２２－１",
      "lat": 34.782191,
      "lng": 138.038086,
      "geocoding_level": null,
      "phone": "0537-21-0950",
      "license_no": "S69201400715",
      "license_date": "2021-09-30",
      "expire_date": "2027-09-30"
    },
    {
      "name": "いわきゅう文化シャッター掛川食堂",
      "name_kana": "イワキユウブンカシヤツター",
      "business_type": "① 飲食店営業",
      "address": "静岡県掛川市淡陽２番地の１",
      "lat": 34.790228,
      "lng": 138.043996,
      "geocoding_level": null,
      "phone": "0537-23-8181",
      "license_no": "S00584040026",
      "license_date": "2023-09-13",
      "expire_date": "2029-09-30"
    },
    {
      "name": "(株)いわきゅう高砂ケミカル内食堂",
      "name_kana": "カブイワキュウタカサゴケミカルナイショクドウ",
      "business_type": "① 飲食店営業",
      "address": "静岡県掛川市国安２７４６",
      "lat": 34.65239,
      "lng": 138.059889,
      "geocoding_level": null,
      "phone": "0537-72-3711",
      "license_no": "S66200300439",
      "license_date": "2024-02-20",
      "expire_date": "2029-02-28"
    },
    {
      "name": "株式会社いわきゅうウィル掛川内食堂",
      "name_kana": "カブシキガイシャイワキュウウィルカケガワナイショクドウ",
      "business_type": "① 飲食店営業",
      "address": "静岡県掛川市横須賀1198-１",
      "lat": 34.679681,
      "lng": 137.978545,
      "geocoding_level": null,
      "phone": "0537-48-6211",
      "license_no": "S76202400237",
      "license_date": "2024-08-20",
      "expire_date": "2031-02-28"
    },
    {
      "name": "中部電力パワーグリッド掛川支社",
      "name_kana": "チュウブデンリョクパワーグリッドカケガワシショ",
      "business_type": "① 飲食店営業",
      "address": "静岡県掛川市中央一丁目５－８",
      "lat": 34.770723,
      "lng": 138.013182,
      "geocoding_level": null,
      "phone": "0537-23-9450",
      "license_no": "S69201800447",
      "license_date": "2025-05-30",
      "expire_date": "2031-05-31"
    },
    {
      "name": "大塚製茶株式会社",
      "name_kana": "オオツカセイチャカブシキガイシャ",
      "business_type": "㉑ 製茶業",
      "address": "静岡県掛川市大野1638番地",
      "lat": 34.803839,
      "lng": 138.07252,
      "geocoding_level": null,
      "phone": "0537271113",
      "license_no": "",
      "license_date": null,
      "expire_date": null
    },
    {
      "name": "フェイスラボ株式会社　掛川工場",
      "name_kana": "フェイスラボカブシキガイシャ　カケガワコウジョウ",
      "business_type": "⑮ いわゆる健康食品の製造・加工業",
      "address": "静岡県掛川市大渕4015-1",
      "lat": 34.66455,
      "lng": 138.011518,
      "geocoding_level": null,
      "phone": "0537-63-4567",
      "license_no": "",
      "license_date": null,
      "expire_date": null
    },
    {
      "name": "ニュー・クイック　杏林堂掛川花⿃園前店",
      "name_kana": "ニュークイック　キョウリンドウカケガワカチョウエンマエテン",
      "business_type": "③ 食肉販売業",
      "address": "静岡県掛川市南西郷424-1",
      "lat": 34.762303,
      "lng": 138.017188,
      "geocoding_level": null,
      "phone": "0537-64-5503",
      "license_no": "S76202400038",
      "license_date": "2024-04-26",
      "expire_date": "2030-05-31"
    },
    {
      "name": "ニュー・クイック　杏林堂掛川花鳥園前店",
      "name_kana": "ニュークイック　キョウリンドウカケガワカチョウエンマエテン",
      "business_type": "⑬ その他の食料・飲料販売業",
      "address": "静岡県掛川市南西郷424-1 杏林堂薬局内",
      "lat": 34.762303,
      "lng": 138.017188,
      "geocoding_level": null,
      "phone": "",
      "license_no": "",
      "license_date": null,
      "expire_date": null
    },
    {
      "name": "MIRAfitness　ミソラタウン掛川店",
      "name_kana": "ミラフィットネス　ミソラタウンカケガワテン",
      "business_type": "⑤ コップ式自動販売機（自動洗浄・屋内設置）",
      "address": "静岡県掛川市高御所305-2 D棟2階",
      "lat": 34.765192,
      "lng": 137.982331,
      "geocoding_level": null,
      "phone": "0537-28-7066",
      "license_no": "",
      "license_date": null,
      "expire_date": null
    },
    {
      "name": "サービス付き高齢者向け住宅アイケア掛川",
      "name_kana": "サービスツキコウレイシャムケジュウタクアイケアカケガワ",
      "business_type": "㉖ 集団給食施設",
      "address": "静岡県掛川市上張４８－９",
      "lat": 34.76689,
      "lng": 138.030277,
      "geocoding_level": null,
      "phone": "0537611112",
      "license_no": "",
      "license_date": null,
      "expire_date": null
    },
    {
      "name": "あいの街葛川",
      "name_kana": "アイノマチクズカワ",
      "business_type": "㉖ 集団給食施設",
      "address": "静岡県掛川市葛川310番地の3",
      "lat": 34.774026,
      "lng": 138.025885,
      "geocoding_level": null,
      "phone": "0537-61-2277",
      "license_no": "",
      "license_date": null,
      "expire_date": null
    },
    {
      "name": "からあげ本舗とり若丸　掛川店",
      "name_kana": "カラアゲホンポトリワカマル　カケガワテン",
      "business_type": "① 飲食店営業",
      "address": "静岡県掛川市宮脇９３１－１",
      "lat": 34.783862,
      "lng": 138.028418,
      "geocoding_level": null,
      "phone": "0537-26-9393",
      "license_no": "S76202100013",
      "license_date": "2021-06-21",
      "expire_date": "2026-09-30"
    },
    {
      "name": "かつさとMEGAドン・キホーテUNY掛川店",
      "name_kana": "カツサト　メガドン・キホーテユニーカケガワテン",
      "business_type": "① 飲食店営業",
      "address": "静岡県掛川市大池2826 MEGAドン・キホーテUNY掛川",
      "lat": 34.773025,
      "lng": 137.989418,
      "geocoding_level": null,
      "phone": "",
      "license_no": "S76202100031",
      "license_date": "2021-07-13",
      "expire_date": "2028-05-31"
    },
    {
      "name": "魚民",
      "name_kana": "ウオタミ",
      "business_type": "⑬ その他の食料・飲料販売業",
      "address": "静岡県掛川市南一丁目１番１号 アスティ掛川　１階",
      "lat": 34.769233,
      "lng": 138.014673,
      "geocoding_level": null,
      "phone": "0537-21-0688",
      "license_no": "",
      "license_date": null,
      "expire_date": null
    },
    {
      "name": "魚民",
      "name_kana": "ウオタミ",
      "business_type": "① 飲食店営業",
      "address": "静岡県掛川市南１－１－１ アスティ掛川１階",
      "lat": 34.769558,
      "lng": 138.014989,
      "geocoding_level": null,
      "phone": "0537-21-0688",
      "license_no": "S69201000364",
      "license_date": "2023-05-23",
      "expire_date": "2029-05-31"
    },
    {
      "name": "株式会社川森屋掛川工場",
      "name_kana": "カブシキカイシャカワモリヤカケガワコウジョウ",
      "business_type": "㉒ 海藻製造・加工業",
      "address": "静岡県掛川市久保2-2-12",
      "lat": 34.763729,
      "lng": 138.011208,
      "geocoding_level": null,
      "phone": "0537225051",
      "license_no": "",
      "license_date": null,
      "expire_date": null
    },
    {
      "name": "ガスト 大東町店",
      "name_kana": "ガストダイトウチョウテン",
      "business_type": "① 飲食店営業",
      "address": "静岡県掛川市大坂２８１４－１",
      "lat": 34.673847,
      "lng": 138.044839,
      "geocoding_level": null,
      "phone": "0537-72-8035",
      "license_no": "S66200000394",
      "license_date": "2025-01-15",
      "expire_date": "2031-02-28"
    },
    {
      "name": "ガスト 大東町店",
      "name_kana": "ガストダイトウチョウテン",
      "business_type": "⑬ その他の食料・飲料販売業",
      "address": "静岡県掛川市大坂２８１４－１",
      "lat": 34.673847,
      "lng": 138.044839,
      "geocoding_level": null,
      "phone": "0537-72-8035",
      "license_no": "",
      "license_date": null,
      "expire_date": null
    },
    {
      "name": "しゃぶ葉　掛川店",
      "name_kana": "シャブヨウカケガワテン",
      "business_type": "⑬ その他の食料・飲料販売業",
      "address": "静岡県掛川市城西１丁目１４－２",
      "lat": 34.776553,
      "lng": 138.008514,
      "geocoding_level": null,
      "phone": "0537-62-0355",
      "license_no": "",
      "license_date": null,
      "expire_date": null
    },
    {
      "name": "夢庵 イオンタウン大須賀店",
      "name_kana": "ユメアンイオンタウンオオスカテン",
      "business_type": "① 飲食店営業",
      "address": "静岡県掛川市西大渕３３５９",
      "lat": 34.677339,
      "lng": 137.969307,
      "geocoding_level": null,
      "phone": "0537-48-0051",
      "license_no": "S00584110116",
      "license_date": "2024-02-20",
      "expire_date": "2030-02-28"
    },
    {
      "name": "夢庵 イオンタウン大須賀店",
      "name_kana": "ユメアンイオンタウンオオスカテン",
      "business_type": "⑬ その他の食料・飲料販売業",
      "address": "静岡県掛川市西大渕３３５９",
      "lat": 34.677339,
      "lng": 137.969307,
      "geocoding_level": null,
      "phone": "0537-48-0051",
      "license_no": "",
      "license_date": null,
      "expire_date": null
    },
    {
      "name": "ステーキガスト 西掛川店",
      "name_kana": "ステーキガストニシカケガワテン",
      "business_type": "⑬ その他の食料・飲料販売業",
      "address": "静岡県掛川市細田２４５－１",
      "lat": 34.773476,
      "lng": 137.985512,
      "geocoding_level": null,
      "phone": "0537-21-4951",
      "license_no": "",
      "license_date": null,
      "expire_date": null
    },
    {
      "name": "ステーキガスト 西掛川店",
      "name_kana": "ステーキガストニシカケガワテン",
      "business_type": "① 飲食店営業",
      "address": "静岡県掛川市細田２４５－１",
      "lat": 34.773476,
      "lng": 137.985512,
      "geocoding_level": null,
      "phone": "0537-21-4951",
      "license_no": "S00584100396",
      "license_date": "2022-08-22",
      "expire_date": "2028-09-30"
    },
    {
      "name": "茶の庭",
      "name_kana": "チャノニワ",
      "business_type": "⑨ 通信販売・訪問販売による販売業",
      "address": "静岡県掛川市上内田389-1",
      "lat": 34.748878,
      "lng": 138.048113,
      "geocoding_level": null,
      "phone": "0537287077",
      "license_no": "",
      "license_date": null,
      "expire_date": null
    },
    {
      "name": "茶の庭",
      "name_kana": "チャノニワ",
      "business_type": "⑬ その他の食料・飲料販売業",
      "address": "静岡県掛川市上内田389-1",
      "lat": 34.748878,
      "lng": 138.048113,
      "geocoding_level": null,
      "phone": "0537287077",
      "license_no": "",
      "license_date": null,
      "expire_date": null
    },
    {
      "name": "小分け作業室",
      "name_kana": "コワケサギョウシツ",
      "business_type": "㉛ 食品の小分け業",
      "address": "静岡県掛川市上内田350",
      "lat": 34.744978,
      "lng": 138.052722,
      "geocoding_level": null,
      "phone": "",
      "license_no": "S76202300404",
      "license_date": "2023-11-29",
      "expire_date": "2029-09-30"
    },
    {
      "name": "SHINKO STORE キャタラー売店",
      "name_kana": "シンコウストアキャタラーバイテン",
      "business_type": "⑩ コンビニエンスストア",
      "address": "静岡県掛川市千浜7800番地",
      "lat": 34.64677,
      "lng": 138.076481,
      "geocoding_level": null,
      "phone": "",
      "license_no": "",
      "license_date": null,
      "expire_date": null
    },
    {
      "name": "雪印メグミルク掛川宅配センター",
      "name_kana": "ユキジルシメグミルクカケガワタクハイセンター",
      "business_type": "③ 乳類販売業",
      "address": "静岡県掛川市倉真5218番地",
      "lat": 34.834063,
      "lng": 138.042903,
      "geocoding_level": null,
      "phone": "0537280633",
      "license_no": "",
      "license_date": null,
      "expire_date": null
    },
    {
      "name": "桜木こどもの森",
      "name_kana": "サクラギコドモノモリ",
      "business_type": "㉖ 集団給食施設",
      "address": "静岡県掛川市家代1761-1",
      "lat": 34.794142,
      "lng": 137.97734,
      "geocoding_level": null,
      "phone": "0537228159",
      "license_no": "",
      "license_date": null,
      "expire_date": null
    },
    {
      "name": "掛川こども園",
      "name_kana": "カケガワコドモエン",
      "business_type": "㉖ 集団給食施設",
      "address": "静岡県掛川市家代の里1-5-1",
      "lat": 34.787486,
      "lng": 137.975358,
      "geocoding_level": null,
      "phone": "0537613322",
      "license_no": "",
      "license_date": null,
      "expire_date": null
    },
    {
      "name": "Maxマートヤマハ発動機YMPC南店",
      "name_kana": "マックスマートヤマハハツドウキワイエムピーシーミナミテン",
      "business_type": "⑪ 百貨店、総合スーパー",
      "address": "静岡県掛川市逆川200-1",
      "lat": 34.779795,
      "lng": 138.043505,
      "geocoding_level": null,
      "phone": "",
      "license_no": "",
      "license_date": null,
      "expire_date": null
    },
    {
      "name": "Maxマートヤマハ発動機YMPC東店",
      "name_kana": "マックスマートヤマハハツドウキワイエムピーシーヒガシテン",
      "business_type": "⑪ 百貨店、総合スーパー",
      "address": "静岡県掛川市逆川200-1",
      "lat": 34.779795,
      "lng": 138.043505,
      "geocoding_level": null,
      "phone": "",
      "license_no": "",
      "license_date": null,
      "expire_date": null
    },
    {
      "name": "Maxマートヤマハ発動機KGC店",
      "name_kana": "マックスマートヤマハハツドウキケージーシーテン",
      "business_type": "⑪ 百貨店、総合スーパー",
      "address": "静岡県掛川市成滝322-1",
      "lat": 34.782245,
      "lng": 138.038235,
      "geocoding_level": null,
      "phone": "",
      "license_no": "",
      "license_date": null,
      "expire_date": null
    },
    {
      "name": "寺カフェハルノヒ",
      "name_kana": "テラカフェハルノヒ",
      "business_type": "① 飲食店営業",
      "address": "静岡県掛川市吉岡1051",
      "lat": 34.796543,
      "lng": 137.952785,
      "geocoding_level": null,
      "phone": "",
      "license_no": "S76202100044",
      "license_date": "2021-07-28",
      "expire_date": "2026-09-30"
    },
    {
      "name": "遠鉄ストア　掛川中央店",
      "name_kana": "エンテツストアカケガワチュウオウテン",
      "business_type": "⑪ 百貨店、総合スーパー",
      "address": "静岡県掛川市中央２－７－１",
      "lat": 34.769993,
      "lng": 138.008418,
      "geocoding_level": null,
      "phone": "0537-61-1111",
      "license_no": "",
      "license_date": null,
      "expire_date": null
    },
    {
      "name": "遠鉄ストア　掛川高御所店",
      "name_kana": "エンテツストア　カケガワコウゴショテン",
      "business_type": "④ 魚介類販売業",
      "address": "静岡県掛川市高御所305番2",
      "lat": 34.765496,
      "lng": 137.98391,
      "geocoding_level": null,
      "phone": "0537-21-1234",
      "license_no": "S76202300081",
      "license_date": "2023-05-19",
      "expire_date": "2029-09-30"
    },
    {
      "name": "遠鉄ストア　掛川高御所店",
      "name_kana": "エンテツストア　カケガワコウゴショテン",
      "business_type": "③ 食肉販売業",
      "address": "静岡県掛川市高御所305番2",
      "lat": 34.765496,
      "lng": 137.98391,
      "geocoding_level": null,
      "phone": "0537-21-1234",
      "license_no": "S76202300082",
      "license_date": "2023-05-19",
      "expire_date": "2029-09-30"
    },
    {
      "name": "遠鉄ストア　掛川高御所店",
      "name_kana": "エンテツストア　カケガワコウゴショテン",
      "business_type": "① 飲食店営業",
      "address": "静岡県掛川市高御所305番2",
      "lat": 34.765496,
      "lng": 137.98391,
      "geocoding_level": null,
      "phone": "0537-21-1234",
      "license_no": "S76202300083",
      "license_date": "2023-05-19",
      "expire_date": "2029-09-30"
    },
    {
      "name": "遠鉄ストア　掛川高御所店",
      "name_kana": "エンテツストア　カケガワコウゴショテン",
      "business_type": "① 飲食店営業",
      "address": "静岡県掛川市高御所305番2",
      "lat": 34.765496,
      "lng": 137.98391,
      "geocoding_level": null,
      "phone": "0537-21-1234",
      "license_no": "S76202300084",
      "license_date": "2023-05-19",
      "expire_date": "2029-09-30"
    },
    {
      "name": "遠鉄ストア　掛川高御所店",
      "name_kana": "エンテツストア　カケガワコウゴショテン",
      "business_type": "③ 乳類販売業",
      "address": "静岡県掛川市高御所305番2",
      "lat": 34.765496,
      "lng": 137.98391,
      "geocoding_level": null,
      "phone": "0537-21-1234",
      "license_no": "",
      "license_date": null,
      "expire_date": null
    },
    {
      "name": "遠鉄ストア　掛川高御所店",
      "name_kana": "エンテツストア　カケガワコウゴショテン",
      "business_type": "⑫ 自動販売機による販売業（コップ式自動販売機（自動洗浄・屋内設置）及び営業許可の対象となる自動販売機を除く）",
      "address": "静岡県掛川市高御所305番2",
      "lat": 34.765496,
      "lng": 137.98391,
      "geocoding_level": null,
      "phone": "0537-21-1234",
      "license_no": "",
      "license_date": null,
      "expire_date": null
    },
    {
      "name": "遠鉄ストア　掛川中央店",
      "name_kana": "エンテツストア　カケガワチュウオウテン",
      "business_type": "① 飲食店営業",
      "address": "静岡県掛川市中央２丁目７－１",
      "lat": 34.769993,
      "lng": 138.008418,
      "geocoding_level": null,
      "phone": "0537-61-1111",
      "license_no": "S00584110260",
      "license_date": "2023-04-28",
      "expire_date": "2029-05-31"
    },
    {
      "name": "遠鉄ストア　掛川中央店",
      "name_kana": "エンテツストア　カケガワチュウオウテン",
      "business_type": "③ 食肉販売業",
      "address": "静岡県掛川市中央２丁目７－１",
      "lat": 34.769993,
      "lng": 138.008418,
      "geocoding_level": null,
      "phone": "0537-61-1111",
      "license_no": "S00584110259",
      "license_date": "2023-04-28",
      "expire_date": "2029-05-31"
    },
    {
      "name": "遠鉄ストア　掛川中央店",
      "name_kana": "エンテツストア　カケガワチュウオウテン",
      "business_type": "④ 魚介類販売業",
      "address": "静岡県掛川市中央２－７－１",
      "lat": 34.769993,
      "lng": 138.008418,
      "geocoding_level": null,
      "phone": "0537-61-1111",
      "license_no": "S69201100119",
      "license_date": "2023-04-28",
      "expire_date": "2029-05-31"
    },
    {
      "name": "キャタレント・ジャパン株式会社　掛川工場",
      "name_kana": "キャタレント・ジャパンカブシキガイシャ　カケガワコウジョウ",
      "business_type": "⑮ いわゆる健康食品の製造・加工業",
      "address": "静岡県掛川市倉真1656",
      "lat": 34.812316,
      "lng": 138.035795,
      "geocoding_level": null,
      "phone": "0537-29-1190",
      "license_no": "",
      "license_date": null,
      "expire_date": null
    },
    {
      "name": "株式会社宝和園",
      "name_kana": "ホウワエン",
      "business_type": "㉑ 製茶業",
      "address": "静岡県掛川市伊達方920-5",
      "lat": 34.78141,
      "lng": 138.066633,
      "geocoding_level": null,
      "phone": "0537-27-1166",
      "license_no": "",
      "license_date": null,
      "expire_date": null
    },
    {
      "name": "美笠園細田工場",
      "name_kana": "ミカサエンサイダコウジョウ",
      "business_type": "㉑ 製茶業",
      "address": "静岡県掛川市細田267-1",
      "lat": 34.772835,
      "lng": 137.983606,
      "geocoding_level": null,
      "phone": "0537245050",
      "license_no": "",
      "license_date": null,
      "expire_date": null
    },
    {
      "name": "美笠園城西工場",
      "name_kana": "ミカサエンシロニシコウジョウ",
      "business_type": "㉑ 製茶業",
      "address": "静岡県掛川市城西1丁目15番5号",
      "lat": 34.776873,
      "lng": 138.009406,
      "geocoding_level": null,
      "phone": "0537240011",
      "license_no": "",
      "license_date": null,
      "expire_date": null
    },
    {
      "name": "株式会社石山元平商店",
      "name_kana": "カブシキカイシャイシヤマモトヘイショウテン",
      "business_type": "③ 乳類販売業",
      "address": "静岡県掛川市城下7-6",
      "lat": 34.774051,
      "lng": 138.016774,
      "geocoding_level": null,
      "phone": "0537223185",
      "license_no": "",
      "license_date": null,
      "expire_date": null
    },
    {
      "name": "株式会社石山元平商店",
      "name_kana": "カブシキカイシャイシヤマモトヘイショウテン",
      "business_type": "⑦ 野菜果物販売業",
      "address": "静岡県掛川市城下7-6",
      "lat": 34.774051,
      "lng": 138.016774,
      "geocoding_level": null,
      "phone": "0537223185",
      "license_no": "",
      "license_date": null,
      "expire_date": null
    },
    {
      "name": "掛川あそび保育園",
      "name_kana": "カケガワアソビホイクエン",
      "business_type": "㉖ 集団給食施設",
      "address": "静岡県掛川市岡津63-2",
      "lat": 34.773604,
      "lng": 137.972148,
      "geocoding_level": null,
      "phone": "0537-22-8900",
      "license_no": "",
      "license_date": null,
      "expire_date": null
    },
    {
      "name": "ほっともっと 掛川大池店",
      "name_kana": "ホットモットカケガワオオイケテン",
      "business_type": "① 飲食店営業",
      "address": "静岡県掛川市大池541番１号",
      "lat": 34.776821,
      "lng": 137.991449,
      "geocoding_level": null,
      "phone": "0537-62-1920",
      "license_no": "S76202100019",
      "license_date": "2021-06-28",
      "expire_date": "2027-05-31"
    },
    {
      "name": "日本初の流れ鮨沼津魚がし掛川店",
      "name_kana": "ニホンハツノナガレスシヌマヅウオガシカケガワテン",
      "business_type": "① 飲食店営業",
      "address": "静岡県掛川市上西郷５０８－１",
      "lat": 34.790841,
      "lng": 138.013016,
      "geocoding_level": null,
      "phone": "0537-62-6221",
      "license_no": "S66200300359",
      "license_date": "2022-08-19",
      "expire_date": "2028-09-30"
    },
    {
      "name": "愛来",
      "name_kana": "アイラ",
      "business_type": "① 飲食店営業",
      "address": "静岡県掛川市駅前３－６ 杉田ビル１階３号室",
      "lat": 34.771317,
      "lng": 138.015137,
      "geocoding_level": null,
      "phone": "0537-24-0593",
      "license_no": "S76202100023",
      "license_date": "2021-06-30",
      "expire_date": "2027-05-31"
    },
    {
      "name": "ザ・ビッグ大須賀店",
      "name_kana": "ザ・ビッグオオスガテン",
      "business_type": "⑪ 百貨店、総合スーパー",
      "address": "静岡県掛川市西大渕3359",
      "lat": 34.677537,
      "lng": 137.96781,
      "geocoding_level": null,
      "phone": "",
      "license_no": "",
      "license_date": null,
      "expire_date": null
    },
    {
      "name": "ザ・ビッグ大東店",
      "name_kana": "ザ・ビッグダイトウテン",
      "business_type": "⑪ 百貨店、総合スーパー",
      "address": "静岡県掛川市大坂字鷲田539",
      "lat": 34.669882,
      "lng": 138.045426,
      "geocoding_level": null,
      "phone": "",
      "license_no": "",
      "license_date": null,
      "expire_date": null
    },
    {
      "name": "ザ・ビッグ大須賀店",
      "name_kana": "ザ・ビッグオオスガテン",
      "business_type": "③ 食肉販売業",
      "address": "静岡県掛川市西大渕３３５９",
      "lat": 34.676996,
      "lng": 137.967745,
      "geocoding_level": null,
      "phone": "0537-48-0220",
      "license_no": "S69200900457",
      "license_date": "2022-02-24",
      "expire_date": "2028-02-29"
    },
    {
      "name": "ザ・ビッグ大須賀店",
      "name_kana": "ザ・ビッグオオスガテン",
      "business_type": "④ 魚介類販売業",
      "address": "静岡県掛川市西大渕３３５９",
      "lat": 34.676996,
      "lng": 137.967745,
      "geocoding_level": null,
      "phone": "0537-48-0220",
      "license_no": "S69200900456",
      "license_date": "2022-02-24",
      "expire_date": "2028-02-29"
    },
    {
      "name": "ザ・ビッグ大須賀店",
      "name_kana": "ザ・ビッグオオスガテン",
      "business_type": "① 飲食店営業",
      "address": "静岡県掛川市西大渕３３５９",
      "lat": 34.677537,
      "lng": 137.96781,
      "geocoding_level": null,
      "phone": "0537-48-0220",
      "license_no": "S69200900459",
      "license_date": "2022-02-24",
      "expire_date": "2028-02-29"
    },
    {
      "name": "ザ・ビッグ大東店",
      "name_kana": "ザビッグダイトウテン",
      "business_type": "③ 食肉販売業",
      "address": "静岡県掛川市大坂５３９番地",
      "lat": 34.671453,
      "lng": 138.046159,
      "geocoding_level": null,
      "phone": "0537-72-5780",
      "license_no": "S00583620217",
      "license_date": "2024-02-28",
      "expire_date": "2029-02-28"
    },
    {
      "name": "ザ・ビッグ大東店",
      "name_kana": "ザビッグダイトウテン",
      "business_type": "① 飲食店営業",
      "address": "静岡県掛川市大坂539番地",
      "lat": 34.671453,
      "lng": 138.046159,
      "geocoding_level": null,
      "phone": "0537-72-5780",
      "license_no": "S00584030112",
      "license_date": "2024-02-28",
      "expire_date": "2029-02-28"
    },
    {
      "name": "ザ・ビッグ大東店",
      "name_kana": "ザビッグダイトウテン",
      "business_type": "① 飲食店営業",
      "address": "静岡県掛川市大坂５３９番地",
      "lat": 34.671453,
      "lng": 138.046159,
      "geocoding_level": null,
      "phone": "0537-72-5780",
      "license_no": "S00584030111",
      "license_date": "2024-02-28",
      "expire_date": "2029-02-28"
    },
    {
      "name": "ザ・ビッグ大東店",
      "name_kana": "ザビッグダイトウテン",
      "business_type": "① 飲食店営業",
      "address": "静岡県掛川市大坂５３９番地",
      "lat": 34.671453,
      "lng": 138.046159,
      "geocoding_level": null,
      "phone": "0537-72-5780",
      "license_no": "S00584030110",
      "license_date": "2024-02-28",
      "expire_date": "2029-02-28"
    },
    {
      "name": "ザ・ビッグ大東店",
      "name_kana": "ザビッグダイトウテン",
      "business_type": "④ 魚介類販売業",
      "address": "静岡県掛川市大坂５３９番地",
      "lat": 34.671453,
      "lng": 138.046159,
      "geocoding_level": null,
      "phone": "0537-72-5780",
      "license_no": "S00583620218",
      "license_date": "2024-02-28",
      "expire_date": "2029-02-28"
    },
    {
      "name": "養護老人ホーム小笠老人ホーム",
      "name_kana": "ヨウゴロウジンホームオガサロウジンホーム",
      "business_type": "① 飲食店営業",
      "address": "静岡県掛川市大坂4161",
      "lat": 34.685838,
      "lng": 138.035805,
      "geocoding_level": null,
      "phone": "",
      "license_no": "S76202200455",
      "license_date": "2023-02-21",
      "expire_date": "2029-02-28"
    },
    {
      "name": "カフェ＆西洋料理　クワドランプール",
      "name_kana": "カフェアンドセイヨウリョウリ　クワドランプール",
      "business_type": "① 飲食店営業",
      "address": "静岡県掛川市杉谷2丁目10-14",
      "lat": 34.766684,
      "lng": 138.033142,
      "geocoding_level": null,
      "phone": "0537-61-0247",
      "license_no": "S76202100039",
      "license_date": "2021-07-20",
      "expire_date": "2026-09-30"
    },
    {
      "name": "スーパーセンタートライアル掛川店",
      "name_kana": "スーパーセンタートライアルカケガワテン",
      "business_type": "③ 食肉販売業",
      "address": "静岡県掛川市大池749-1",
      "lat": 34.770072,
      "lng": 137.985626,
      "geocoding_level": null,
      "phone": "0537-25-7061",
      "license_no": "S76202500134",
      "license_date": "2025-07-11",
      "expire_date": "2032-05-31"
    },
    {
      "name": "スーパーセンタートライアル掛川店",
      "name_kana": "スーパーセンタートライアルカケガワテン",
      "business_type": "① 飲食店営業",
      "address": "静岡県掛川市大池749-1",
      "lat": 34.770072,
      "lng": 137.985626,
      "geocoding_level": null,
      "phone": "0537-25-7061",
      "license_no": "S76202500132",
      "license_date": "2025-07-11",
      "expire_date": "2032-05-31"
    },
    {
      "name": "スーパーセンタートライアル掛川店",
      "name_kana": "スーパーセンタートライアルカケガワテン",
      "business_type": "⑪ 菓子製造業",
      "address": "静岡県掛川市大池749-1",
      "lat": 34.770072,
      "lng": 137.985626,
      "geocoding_level": null,
      "phone": "0537-25-7061",
      "license_no": "S76202500133",
      "license_date": "2025-07-11",
      "expire_date": "2032-05-31"
    },
    {
      "name": "スーパーセンタートライアル掛川店",
      "name_kana": "スーパーセンタートライアルカケガワテン",
      "business_type": "⑪ 百貨店、総合スーパー",
      "address": "静岡県掛川市大池749-1",
      "lat": 34.770072,
      "lng": 137.985626,
      "geocoding_level": null,
      "phone": "0537-25-7061",
      "license_no": "",
      "license_date": null,
      "expire_date": null
    },
    {
      "name": "社会福祉法人まなざし",
      "name_kana": "シャカイフクショホウジンマナザシ",
      "business_type": "㉖ 集団給食施設",
      "address": "静岡県掛川市柳町３６",
      "lat": 34.78156,
      "lng": 138.011716,
      "geocoding_level": null,
      "phone": "0537296336",
      "license_no": "",
      "license_date": null,
      "expire_date": null
    },
    {
      "name": "児童発達支援事業所まなざし",
      "name_kana": "ジドウハッタツシエンジギョウショマナザシ",
      "business_type": "㉖ 集団給食施設",
      "address": "静岡県掛川市中宿135",
      "lat": 34.78037,
      "lng": 138.00784,
      "geocoding_level": null,
      "phone": "0537-29-5433",
      "license_no": "",
      "license_date": null,
      "expire_date": null
    },
    {
      "name": "デニーズ掛川店",
      "name_kana": "デニーズカケガワテン",
      "business_type": "① 飲食店営業",
      "address": "静岡県掛川市中央2-6-1",
      "lat": 34.770608,
      "lng": 138.008361,
      "geocoding_level": null,
      "phone": "080-3240-9710",
      "license_no": "S00584110157",
      "license_date": "2026-03-23",
      "expire_date": "2031-05-31"
    },
    {
      "name": "レストラン　デニーズ掛川店",
      "name_kana": "レストラン　デニーズカケガワテン",
      "business_type": "⑬ その他の食料・飲料販売業",
      "address": "静岡県掛川市中央2-6-1",
      "lat": 34.770608,
      "lng": 138.008361,
      "geocoding_level": null,
      "phone": "080-3240-9710",
      "license_no": "",
      "license_date": null,
      "expire_date": null
    },
    {
      "name": "グランドキヨスク掛川",
      "name_kana": "グランドキヨスクカケガワ",
      "business_type": "⑩ コンビニエンスストア",
      "address": "静岡県掛川市南1丁目75番3号 ＪＲ掛川駅構内",
      "lat": 34.768589,
      "lng": 138.017751,
      "geocoding_level": null,
      "phone": "0537-61-3237",
      "license_no": "",
      "license_date": null,
      "expire_date": null
    },
    {
      "name": "グランドキヨスク掛川",
      "name_kana": "グランドキヨスクカケガワ",
      "business_type": "① 飲食店営業",
      "address": "静岡県掛川市南1丁目75番3号 JR掛川駅構内",
      "lat": 34.768589,
      "lng": 138.017751,
      "geocoding_level": null,
      "phone": "0537-61-3237",
      "license_no": "S69201700258",
      "license_date": "2023-04-20",
      "expire_date": "2028-05-31"
    },
    {
      "name": "新鮮安心市場さすが市",
      "name_kana": "シンセンアンシンイチバサスガイチ",
      "business_type": "⑪ 百貨店、総合スーパー",
      "address": "静岡県掛川市弥生町２３４",
      "lat": 34.778055,
      "lng": 138.012698,
      "geocoding_level": null,
      "phone": "0537-24-3128",
      "license_no": "",
      "license_date": null,
      "expire_date": null
    },
    {
      "name": "萩田製茶",
      "name_kana": "ハギタセイチャ",
      "business_type": "㉑ 製茶業",
      "address": "静岡県掛川市各和１３０３",
      "lat": 34.776629,
      "lng": 137.955744,
      "geocoding_level": null,
      "phone": "0537224529",
      "license_no": "",
      "license_date": null,
      "expire_date": null
    },
    {
      "name": "掛川市農業協同組合　緑茶加工課",
      "name_kana": "カケガワシノウギョウキョウドウクミアイ　リョクチャカコウカ",
      "business_type": "⑬ その他の食料・飲料販売業",
      "address": "静岡県掛川市千羽1266",
      "lat": 34.790612,
      "lng": 138.050235,
      "geocoding_level": null,
      "phone": "0537-27-1000",
      "license_no": "",
      "license_date": null,
      "expire_date": null
    },
    {
      "name": "新鮮安心市場さすが市",
      "name_kana": "シンセンアンシンイチバサスガイチ",
      "business_type": "③ 乳類販売業",
      "address": "静岡県掛川市弥生町２３４",
      "lat": 34.778055,
      "lng": 138.012698,
      "geocoding_level": null,
      "phone": "0537-24-3128",
      "license_no": "",
      "license_date": null,
      "expire_date": null
    },
    {
      "name": "新鮮安心市場さすが市",
      "name_kana": "シンセンアンシンイチバサスガイチ",
      "business_type": "⑪ 百貨店、総合スーパー",
      "address": "静岡県掛川市弥生町２３４",
      "lat": 34.778055,
      "lng": 138.012698,
      "geocoding_level": null,
      "phone": "0537-24-3128",
      "license_no": "",
      "license_date": null,
      "expire_date": null
    },
    {
      "name": "ＪＡ掛川　さすが市",
      "name_kana": "ジェイエイカケガワ　サスガイチ",
      "business_type": "① 飲食店営業",
      "address": "静岡県掛川市弥生町２３４番",
      "lat": 34.778055,
      "lng": 138.012698,
      "geocoding_level": null,
      "phone": "0537-24-3128",
      "license_no": "S69201900419",
      "license_date": "2025-09-10",
      "expire_date": "2030-09-30"
    },
    {
      "name": "モコ掛川保育園",
      "name_kana": "モコカケガワホイクエン",
      "business_type": "㉖ 集団給食施設",
      "address": "静岡県掛川市宮脇１丁目4-3",
      "lat": 34.778721,
      "lng": 138.027753,
      "geocoding_level": null,
      "phone": "0537-28-9666",
      "license_no": "",
      "license_date": null,
      "expire_date": null
    },
    {
      "name": "有限会社みのり園",
      "name_kana": "ユウゲンガイシャミノリエン",
      "business_type": "⑬ その他の食料・飲料販売業",
      "address": "静岡県掛川市逆川10",
      "lat": 34.779847,
      "lng": 138.042186,
      "geocoding_level": null,
      "phone": "0537270866",
      "license_no": "",
      "license_date": null,
      "expire_date": null
    },
    {
      "name": "らーめん若虎",
      "name_kana": "ラーメンワカトラ",
      "business_type": "① 飲食店営業",
      "address": "静岡県掛川市細田２０３－４",
      "lat": 34.771639,
      "lng": 137.981195,
      "geocoding_level": null,
      "phone": "0537-21-3221",
      "license_no": "S66200000252",
      "license_date": "2023-09-07",
      "expire_date": "2028-09-30"
    },
    {
      "name": "バロー　掛川店",
      "name_kana": "バローカケガワテン",
      "business_type": "① 飲食店営業",
      "address": "静岡県掛川市大池県保健所管内一円",
      "lat": 34.776071,
      "lng": 137.993597,
      "geocoding_level": null,
      "phone": "0537-22-4110",
      "license_no": "S76202100028",
      "license_date": "2021-07-09",
      "expire_date": "2027-05-31"
    },
    {
      "name": "大阪屋",
      "name_kana": "オオサカヤ",
      "business_type": "⑬ その他の食料・飲料販売業",
      "address": "静岡県掛川市横須賀２４０",
      "lat": 34.683009,
      "lng": 137.97606,
      "geocoding_level": null,
      "phone": "0537-48-2244",
      "license_no": "",
      "license_date": null,
      "expire_date": null
    },
    {
      "name": "ＷＩＮＥＢＡＲ　ＧＬＩＴＴＥＲ",
      "name_kana": "ワインバー　グリッター",
      "business_type": "① 飲食店営業",
      "address": "静岡県掛川市駅前５－１２－１０２",
      "lat": 34.771217,
      "lng": 138.015742,
      "geocoding_level": null,
      "phone": "0537-61-2323",
      "license_no": "S69201600352",
      "license_date": "2022-04-21",
      "expire_date": "2027-05-31"
    },
    {
      "name": "クスリのアオキ掛川細谷店",
      "name_kana": "クスリノアオキカケガワホソヤテン",
      "business_type": "⑪ 百貨店、総合スーパー",
      "address": "静岡県掛川市細谷900番地の1",
      "lat": 34.788783,
      "lng": 137.964912,
      "geocoding_level": null,
      "phone": "0537-25-6077",
      "license_no": "",
      "license_date": null,
      "expire_date": null
    },
    {
      "name": "クスリのアオキ大東店",
      "name_kana": "クスリノアオキダイトウテン",
      "business_type": "⑪ 百貨店、総合スーパー",
      "address": "静岡県掛川市三俣1329番地",
      "lat": 34.669792,
      "lng": 138.053181,
      "geocoding_level": null,
      "phone": "0537-25-7277",
      "license_no": "",
      "license_date": null,
      "expire_date": null
    },
    {
      "name": "クスリのアオキ上西郷店",
      "name_kana": "クスリノアオキカミサイゴウテン",
      "business_type": "⑪ 百貨店、総合スーパー",
      "address": "静岡県掛川市上西郷539番地",
      "lat": 34.791472,
      "lng": 138.012385,
      "geocoding_level": null,
      "phone": "0537-25-6210",
      "license_no": "",
      "license_date": null,
      "expire_date": null
    },
    {
      "name": "クスリのアオキ土方店",
      "name_kana": "クスリノアオキヒジカタテン",
      "business_type": "⑪ 百貨店、総合スーパー",
      "address": "静岡県掛川市上土方320番地の1",
      "lat": 34.70832,
      "lng": 138.040947,
      "geocoding_level": null,
      "phone": "0537-25-6531",
      "license_no": "",
      "license_date": null,
      "expire_date": null
    },
    {
      "name": "掛川市立すこやかこども園",
      "name_kana": "カケガワシリツスコヤカコドモエン",
      "business_type": "㉖ 集団給食施設",
      "address": "静岡県掛川市宮脇二丁目6-1",
      "lat": 34.783989,
      "lng": 138.027097,
      "geocoding_level": null,
      "phone": "0537-62-6110",
      "license_no": "",
      "license_date": null,
      "expire_date": null
    },
    {
      "name": "よこづな",
      "name_kana": "ヨコヅナ",
      "business_type": "① 飲食店営業",
      "address": "静岡県掛川市塩町8-22",
      "lat": 34.771322,
      "lng": 138.018864,
      "geocoding_level": null,
      "phone": "08032887164",
      "license_no": "S76202100033",
      "license_date": "2021-07-14",
      "expire_date": "2027-05-31"
    },
    {
      "name": "かけがわのぞみ保育園",
      "name_kana": "カケガワノゾミホイクエン",
      "business_type": "㉖ 集団給食施設",
      "address": "静岡県掛川市杉谷南１－１－２０",
      "lat": 34.760435,
      "lng": 138.028054,
      "geocoding_level": null,
      "phone": "",
      "license_no": "",
      "license_date": null,
      "expire_date": null
    },
    {
      "name": "エブリィビッグデー　掛川店",
      "name_kana": "エブリィビッグデー　カケガワテン",
      "business_type": "① 飲食店営業",
      "address": "静岡県掛川市上西郷４２６－１",
      "lat": 34.787459,
      "lng": 138.012411,
      "geocoding_level": null,
      "phone": "0537-21-2955",
      "license_no": "S69201000547",
      "license_date": "2023-09-07",
      "expire_date": "2029-09-30"
    },
    {
      "name": "エブリィビッグデー　掛川店",
      "name_kana": "エブリィビッグデー　カケガワテン",
      "business_type": "① 飲食店営業",
      "address": "静岡県掛川市上西郷４２６－１",
      "lat": 34.787459,
      "lng": 138.012411,
      "geocoding_level": null,
      "phone": "0537-21-2955",
      "license_no": "S69201000546",
      "license_date": "2023-09-07",
      "expire_date": "2029-09-30"
    },
    {
      "name": "エブリィビッグデー　掛川店",
      "name_kana": "エブリィビッグデー　カケガワテン",
      "business_type": "④ 魚介類販売業",
      "address": "静岡県掛川市上西郷４２６－１",
      "lat": 34.787459,
      "lng": 138.012411,
      "geocoding_level": null,
      "phone": "0537-21-2955",
      "license_no": "S69201000545",
      "license_date": "2023-09-07",
      "expire_date": "2029-09-30"
    },
    {
      "name": "エブリィビッグデー　掛川店",
      "name_kana": "エブリィビッグデー　カケガワテン",
      "business_type": "③ 食肉販売業",
      "address": "静岡県掛川市上西郷４２６－１",
      "lat": 34.787459,
      "lng": 138.012411,
      "geocoding_level": null,
      "phone": "0537-21-2955",
      "license_no": "S69201000544",
      "license_date": "2023-09-07",
      "expire_date": "2029-09-30"
    },
    {
      "name": "掛川聖マリア保育園",
      "name_kana": "カケガワセイマリアホイクエン",
      "business_type": "㉖ 集団給食施設",
      "address": "静岡県掛川市中央１丁目８－１",
      "lat": 34.77167,
      "lng": 138.011285,
      "geocoding_level": null,
      "phone": "",
      "license_no": "",
      "license_date": null,
      "expire_date": null
    },
    {
      "name": "ナチュラルファーム　ホリ",
      "name_kana": "ナチュラルファーム　ホリ",
      "business_type": "㉕ そうざい製造業",
      "address": "静岡県掛川市西山６４４",
      "lat": 34.811389,
      "lng": 137.946911,
      "geocoding_level": null,
      "phone": "090-3252-6908",
      "license_no": "S69201100293",
      "license_date": "2021-09-30",
      "expire_date": "2026-09-30"
    },
    {
      "name": "鮮彩Dining29",
      "name_kana": "センサイダイニングニキュー",
      "business_type": "① 飲食店営業",
      "address": "静岡県掛川市駅前4-3 横山薬局ビル2階３階",
      "lat": 34.770779,
      "lng": 138.015194,
      "geocoding_level": null,
      "phone": "0537287876",
      "license_no": "S76202100043",
      "license_date": "2021-07-28",
      "expire_date": "2028-05-31"
    },
    {
      "name": "Ｐａｃｃｈｉ",
      "name_kana": "パッチ",
      "business_type": "① 飲食店営業",
      "address": "静岡県掛川市駅前1-8 ターミナルホテル1F",
      "lat": 34.770219,
      "lng": 138.014053,
      "geocoding_level": null,
      "phone": "0537-22-2223",
      "license_no": "S76202100331",
      "license_date": "2022-03-24",
      "expire_date": "2027-05-31"
    },
    {
      "name": "掛川浜焼き酒場　蔵六",
      "name_kana": "カケガワハマヤキサカバ　クラム",
      "business_type": "① 飲食店営業",
      "address": "静岡県掛川市紺屋町６-１ 泉屋ビル１Ｆ",
      "lat": 34.771576,
      "lng": 138.015068,
      "geocoding_level": null,
      "phone": "0537-29-8818",
      "license_no": "S76202400339",
      "license_date": "2024-10-16",
      "expire_date": "2030-05-31"
    },
    {
      "name": "（有）ひょうたん",
      "name_kana": "ユウヒョウタン",
      "business_type": "⑨ 食肉処理業",
      "address": "静岡県掛川市富部７７１－１",
      "lat": 34.779287,
      "lng": 137.977211,
      "geocoding_level": null,
      "phone": "0537-24-0113",
      "license_no": "S69201300071",
      "license_date": "2023-09-07",
      "expire_date": "2028-09-30"
    },
    {
      "name": "（有）ひょうたん",
      "name_kana": "ユウヒョウタン",
      "business_type": "㉕ そうざい製造業",
      "address": "静岡県掛川市富部７７１－１",
      "lat": 34.779287,
      "lng": 137.977211,
      "geocoding_level": null,
      "phone": "0537-24-0113",
      "license_no": "S69201300070",
      "license_date": "2023-09-07",
      "expire_date": "2028-09-30"
    },
    {
      "name": "有限会社　ひょうたん",
      "name_kana": "ユウゲンガイシャ　ヒョウタン",
      "business_type": "① 飲食店営業",
      "address": "静岡県掛川市富部７７１－１",
      "lat": 34.779287,
      "lng": 137.977211,
      "geocoding_level": null,
      "phone": "0537-24-0113",
      "license_no": "S69202000114",
      "license_date": "2025-09-12",
      "expire_date": "2030-09-30"
    },
    {
      "name": "翆月",
      "name_kana": "スイゲツ",
      "business_type": "① 飲食店営業",
      "address": "静岡県掛川市倉真５３２５",
      "lat": 34.834717,
      "lng": 138.04311,
      "geocoding_level": null,
      "phone": "0537-29-1022",
      "license_no": "S00583510091",
      "license_date": "2021-09-30",
      "expire_date": "2026-09-30"
    },
    {
      "name": "加茂荘　母屋　味噌蔵跡",
      "name_kana": "カモソウ　オモヤ　ミソグラアト",
      "business_type": "⑬ その他の食料・飲料販売業",
      "address": "静岡県掛川市原里110",
      "lat": 34.768823,
      "lng": 137.998412,
      "geocoding_level": null,
      "phone": "0537261211",
      "license_no": "",
      "license_date": null,
      "expire_date": null
    },
    {
      "name": "伊藤ハムミート販売西株式会社　掛川営業所",
      "name_kana": "イトウハムミートハンバイニシカブシキガイシャ　カケガワエイギョウショ",
      "business_type": "② 食肉販売業（包装済みの食肉のみの販売）",
      "address": "静岡県掛川市初馬３２０－４",
      "lat": 34.793231,
      "lng": 138.018702,
      "geocoding_level": null,
      "phone": "0537-21-0029",
      "license_no": "",
      "license_date": null,
      "expire_date": null
    },
    {
      "name": "ヤマエイ農産物加工場",
      "name_kana": "ヤマエイノウサンブツカコウジョウ",
      "business_type": "㉑ 製茶業",
      "address": "静岡県掛川市大野175-3",
      "lat": 34.80437,
      "lng": 138.070043,
      "geocoding_level": null,
      "phone": "",
      "license_no": "",
      "license_date": null,
      "expire_date": null
    },
    {
      "name": "ファミリーマート掛川本郷店",
      "name_kana": "ファミリーマートカケガワホンゴウテン",
      "business_type": "⑩ コンビニエンスストア",
      "address": "静岡県掛川市本郷1408-1",
      "lat": 34.809361,
      "lng": 137.956208,
      "geocoding_level": null,
      "phone": "0537-26-5026",
      "license_no": "",
      "license_date": null,
      "expire_date": null
    },
    {
      "name": "ファミリーマート掛川鳥居店",
      "name_kana": "ファミリーマートカケガワトリイテン",
      "business_type": "⑩ コンビニエンスストア",
      "address": "静岡県掛川市大池931-1",
      "lat": 34.776071,
      "lng": 137.993597,
      "geocoding_level": null,
      "phone": "0537610100",
      "license_no": "",
      "license_date": null,
      "expire_date": null
    },
    {
      "name": "ファミリーマート　掛川本郷店",
      "name_kana": "ファミリーマートカケガワホンゴウテン",
      "business_type": "① 飲食店営業",
      "address": "静岡県掛川市本郷１４０８番地の１",
      "lat": 34.809361,
      "lng": 137.956208,
      "geocoding_level": null,
      "phone": "0537-26-5026",
      "license_no": "S69201600134",
      "license_date": "2021-08-23",
      "expire_date": "2026-09-30"
    },
    {
      "name": "株式会社掛川魚市場",
      "name_kana": "カブシキガイシャカケガワウオイチバ",
      "business_type": "⑤ 魚介類競り売り営業",
      "address": "静岡県掛川市成滝480-1",
      "lat": 34.778743,
      "lng": 138.033072,
      "geocoding_level": null,
      "phone": "0537-22-2245",
      "license_no": "S76202200049",
      "license_date": "2022-05-13",
      "expire_date": "2028-09-30"
    },
    {
      "name": "パルモ葬祭　掛川",
      "name_kana": "パルモソウサイ　カケガワ",
      "business_type": "① 飲食店営業",
      "address": "静岡県掛川市細田５４８",
      "lat": 34.771841,
      "lng": 137.979783,
      "geocoding_level": null,
      "phone": "0537-24-1110",
      "license_no": "S69201000051",
      "license_date": "2021-09-30",
      "expire_date": "2027-09-30"
    },
    {
      "name": "焼肉きんぐ　掛川店",
      "name_kana": "ヤキニクキングカケガワテン",
      "business_type": "① 飲食店営業",
      "address": "静岡県掛川市大池621－１",
      "lat": 34.776013,
      "lng": 137.991958,
      "geocoding_level": null,
      "phone": "0537-26-9130",
      "license_no": "S76202500359",
      "license_date": "2025-12-12",
      "expire_date": "2032-05-31"
    },
    {
      "name": "ココカラファイン掛川弥生店",
      "name_kana": "ココカラファインカケガワヤヨイテン",
      "business_type": "⑪ 百貨店、総合スーパー",
      "address": "静岡県掛川市弥生町８",
      "lat": 34.777353,
      "lng": 138.012705,
      "geocoding_level": null,
      "phone": "0537-64-5771",
      "license_no": "",
      "license_date": null,
      "expire_date": null
    },
    {
      "name": "ココカラファイン掛川店",
      "name_kana": "ココカラファインカケガワテン",
      "business_type": "③ 乳類販売業",
      "address": "静岡県掛川市杉谷1-7-11",
      "lat": 34.767345,
      "lng": 138.031961,
      "geocoding_level": null,
      "phone": "0537-21-3011",
      "license_no": "",
      "license_date": null,
      "expire_date": null
    },
    {
      "name": "ココカラファイン掛川店",
      "name_kana": "ココカラファインカケガワテン",
      "business_type": "⑬ その他の食料・飲料販売業",
      "address": "静岡県掛川市杉谷1-7-11",
      "lat": 34.767345,
      "lng": 138.031961,
      "geocoding_level": null,
      "phone": "0537-21-3011",
      "license_no": "",
      "license_date": null,
      "expire_date": null
    },
    {
      "name": "カインズ大東店",
      "name_kana": "カインズダイトウテン",
      "business_type": "⑧ 米穀類販売業",
      "address": "静岡県掛川市大坂字鷺田601",
      "lat": 34.677482,
      "lng": 138.035718,
      "geocoding_level": null,
      "phone": "0537-63-3333",
      "license_no": "",
      "license_date": null,
      "expire_date": null
    },
    {
      "name": "カインズ掛川店",
      "name_kana": "カインズカケガワテン",
      "business_type": "⑧ 米穀類販売業",
      "address": "静岡県掛川市上西郷字加島５０７－１",
      "lat": 34.824222,
      "lng": 138.015892,
      "geocoding_level": null,
      "phone": "0537-21-3000",
      "license_no": "",
      "license_date": null,
      "expire_date": null
    },
    {
      "name": "たきもと",
      "name_kana": "タキモト",
      "business_type": "① 飲食店営業",
      "address": "静岡県掛川市上西郷６７１０－１",
      "lat": 34.825483,
      "lng": 138.015912,
      "geocoding_level": null,
      "phone": "",
      "license_no": "S69201500414",
      "license_date": "2021-09-30",
      "expire_date": "2026-09-30"
    },
    {
      "name": "滝本館",
      "name_kana": "タキモトカン",
      "business_type": "① 飲食店営業",
      "address": "静岡県掛川市上西郷５１７４の１",
      "lat": 34.827155,
      "lng": 138.014457,
      "geocoding_level": null,
      "phone": "0537-29-1126",
      "license_no": "S69201600334",
      "license_date": "2021-09-30",
      "expire_date": "2026-09-30"
    },
    {
      "name": "ならここ　食堂",
      "name_kana": "ナラココ　ショクドウ",
      "business_type": "① 飲食店営業",
      "address": "静岡県掛川市居尻１７９番地",
      "lat": 34.875655,
      "lng": 138.016258,
      "geocoding_level": null,
      "phone": "0537-25-2080",
      "license_no": "S69201000423",
      "license_date": "2021-08-23",
      "expire_date": "2026-09-30"
    },
    {
      "name": "ならここ　食堂",
      "name_kana": "ナラココ　ショクドウ",
      "business_type": "③ 乳類販売業",
      "address": "静岡県掛川市居尻１７９番地",
      "lat": 34.875655,
      "lng": 138.016258,
      "geocoding_level": null,
      "phone": "0537-25-2080",
      "license_no": "",
      "license_date": null,
      "expire_date": null
    },
    {
      "name": "みかわや　掛川アンデルセン",
      "name_kana": "ミカワヤ　カケガワアンデルセン",
      "business_type": "③ 乳類販売業",
      "address": "静岡県掛川市掛川446-2",
      "lat": 34.77236,
      "lng": 138.010259,
      "geocoding_level": null,
      "phone": "",
      "license_no": "",
      "license_date": null,
      "expire_date": null
    },
    {
      "name": "葛ケ丘保育園",
      "name_kana": "カツラガオカホイクエン",
      "business_type": "㉖ 集団給食施設",
      "address": "静岡県掛川市葛ケ丘３丁目4-1",
      "lat": 34.787624,
      "lng": 138.028804,
      "geocoding_level": null,
      "phone": "0537269123",
      "license_no": "",
      "license_date": null,
      "expire_date": null
    },
    {
      "name": "セブン－イレブン　掛川水垂店",
      "name_kana": "セブンーイレブン　カケガワミズタリテン",
      "business_type": "① 飲食店営業",
      "address": "静岡県掛川市御所原１１－１５",
      "lat": 34.781077,
      "lng": 138.019783,
      "geocoding_level": null,
      "phone": "0537-24-8737",
      "license_no": "S69201100189",
      "license_date": "2021-09-30",
      "expire_date": "2026-09-30"
    },
    {
      "name": "シャトレーゼ　掛川店",
      "name_kana": "シャトレーゼ　カケガワテン",
      "business_type": "⑪ 菓子製造業",
      "address": "静岡県掛川市宮脇１丁目4番地の２",
      "lat": 34.778799,
      "lng": 138.027979,
      "geocoding_level": null,
      "phone": "0537-23-6222",
      "license_no": "S76202100096",
      "license_date": "2021-09-21",
      "expire_date": "2026-09-30"
    },
    {
      "name": "株式会社梅の園",
      "name_kana": "カブシキガイシャ　ウメノエン",
      "business_type": "㉑ 製茶業",
      "address": "静岡県掛川市伊達方９２２番地の3",
      "lat": 34.781555,
      "lng": 138.067575,
      "geocoding_level": null,
      "phone": "0537-27-0302",
      "license_no": "",
      "license_date": null,
      "expire_date": null
    },
    {
      "name": "ヤマイチ出荷組合",
      "name_kana": "ヤマイチシュッカクミアイ",
      "business_type": "⑦ 野菜果物販売業",
      "address": "静岡県掛川市千浜5009の2",
      "lat": 34.6595,
      "lng": 138.072078,
      "geocoding_level": null,
      "phone": "0537723891",
      "license_no": "",
      "license_date": null,
      "expire_date": null
    },
    {
      "name": "こーちゃんの肉まん",
      "name_kana": "コーチャンノニクマン",
      "business_type": "① 飲食店営業",
      "address": "静岡県掛川市県保健所管内一円",
      "lat": 34.768823,
      "lng": 137.998412,
      "geocoding_level": null,
      "phone": "0537-64-4146",
      "license_no": "S69201600137",
      "license_date": "2021-08-19",
      "expire_date": "2026-09-30"
    },
    {
      "name": "こーちゃんの肉まん",
      "name_kana": "コーチャンノニクマン",
      "business_type": "① 飲食店営業",
      "address": "静岡県掛川市下垂木2827-12",
      "lat": 34.782492,
      "lng": 137.985607,
      "geocoding_level": null,
      "phone": "0537-64-4146",
      "license_no": "S76202100246",
      "license_date": "2022-01-18",
      "expire_date": "2027-09-30"
    },
    {
      "name": "こーちゃんの肉まん",
      "name_kana": "コーチャンノニクマン",
      "business_type": "㉕ そうざい製造業",
      "address": "静岡県掛川市下垂木2827-12",
      "lat": 34.782485,
      "lng": 137.985603,
      "geocoding_level": null,
      "phone": "0537-64-4146",
      "license_no": "S76202200361",
      "license_date": "2022-12-13",
      "expire_date": "2028-09-30"
    },
    {
      "name": "こーちゃんの肉まん",
      "name_kana": "コーチャンノニクマン",
      "business_type": "⑪ 菓子製造業",
      "address": "静岡県掛川市下垂木２８２７－１２",
      "lat": 34.782492,
      "lng": 137.985607,
      "geocoding_level": null,
      "phone": "0537-61-1678",
      "license_no": "S69201800789",
      "license_date": "2024-09-04",
      "expire_date": "2029-09-30"
    },
    {
      "name": "平松商店",
      "name_kana": "ヒラマツシヨウテン",
      "business_type": "⑪ 菓子製造業",
      "address": "静岡県掛川市細田１８１－２",
      "lat": 34.770509,
      "lng": 137.981176,
      "geocoding_level": null,
      "phone": "0537-22-3611",
      "license_no": "S00583340003",
      "license_date": "2021-09-30",
      "expire_date": "2026-09-30"
    },
    {
      "name": "丸大食品株式会社静岡工場",
      "name_kana": "マルダイシヨクヒン",
      "business_type": "⑮ 食肉製品製造業",
      "address": "静岡県掛川市高御所１００６－１",
      "lat": 34.758026,
      "lng": 137.978352,
      "geocoding_level": null,
      "phone": "0537-22-2200",
      "license_no": "S00054010028",
      "license_date": "2021-09-30",
      "expire_date": "2027-09-30"
    },
    {
      "name": "MABUHAY EVENT HALL",
      "name_kana": "マブハイ　イベント　ホール",
      "business_type": "① 飲食店営業",
      "address": "静岡県掛川市千浜６８５５",
      "lat": 34.649274,
      "lng": 138.079383,
      "geocoding_level": null,
      "phone": "0537-25-6697",
      "license_no": "S76202100048",
      "license_date": "2021-07-30",
      "expire_date": "2027-02-28"
    },
    {
      "name": "サントフェリーチェ",
      "name_kana": "サントフェリーチェ",
      "business_type": "① 飲食店営業",
      "address": "静岡県掛川市矢崎町１－１",
      "lat": 34.764049,
      "lng": 138.021494,
      "geocoding_level": null,
      "phone": "0537-23-1122",
      "license_no": "S76202200491",
      "license_date": "2023-03-10",
      "expire_date": "2029-09-30"
    },
    {
      "name": "サントフェリーチェ",
      "name_kana": "サントフェリーチェ",
      "business_type": "⑪ 菓子製造業",
      "address": "静岡県掛川市矢崎町１－１",
      "lat": 34.764049,
      "lng": 138.021494,
      "geocoding_level": null,
      "phone": "0537-23-1122",
      "license_no": "S76202500124",
      "license_date": "2025-07-04",
      "expire_date": "2031-09-30"
    },
    {
      "name": "炭焼きレストランさわやか掛川インター店",
      "name_kana": "スミヤキレストランサワヤカカケガワカケガワインターテン",
      "business_type": "① 飲食店営業",
      "address": "静岡県掛川市矢崎町３番地の１５",
      "lat": 34.761561,
      "lng": 138.022274,
      "geocoding_level": null,
      "phone": "0537-22-2911",
      "license_no": "S66200400130",
      "license_date": "2023-04-14",
      "expire_date": "2029-05-31"
    },
    {
      "name": "炭焼きレストランさわやか　掛川本店",
      "name_kana": "スミヤキレストランサワヤカ　カケガワホンテン",
      "business_type": "① 飲食店営業",
      "address": "静岡県掛川市大池３００１－１",
      "lat": 34.772986,
      "lng": 137.992997,
      "geocoding_level": null,
      "phone": "0537-24-3636",
      "license_no": "S69201900192",
      "license_date": "2026-03-17",
      "expire_date": "2032-05-31"
    },
    {
      "name": "長や",
      "name_kana": "チョウヤ",
      "business_type": "① 飲食店営業",
      "address": "静岡県掛川市 県保健所管内一円",
      "lat": 34.768823,
      "lng": 137.998412,
      "geocoding_level": null,
      "phone": "",
      "license_no": "S66200000421",
      "license_date": "2021-08-19",
      "expire_date": "2026-09-30"
    },
    {
      "name": "パティスリーまつや",
      "name_kana": "マツヤ",
      "business_type": "⑪ 菓子製造業",
      "address": "静岡県掛川市横須賀１４３４番地の２",
      "lat": 34.681505,
      "lng": 137.979574,
      "geocoding_level": null,
      "phone": "0537-48-2441",
      "license_no": "S00583590179",
      "license_date": "2025-02-10",
      "expire_date": "2030-02-28"
    },
    {
      "name": "三晴",
      "name_kana": "ミハル",
      "business_type": "① 飲食店営業",
      "address": "静岡県掛川市下垂木2249-1",
      "lat": 34.779335,
      "lng": 137.981503,
      "geocoding_level": null,
      "phone": "0537237440",
      "license_no": "S69201000317",
      "license_date": "2021-09-30",
      "expire_date": "2026-09-30"
    },
    {
      "name": "丸堀製茶株式会社",
      "name_kana": "マルホリセイチャカブシキガイシャ",
      "business_type": "㉑ 製茶業",
      "address": "静岡県掛川市下垂木３０６０-１",
      "lat": 34.782668,
      "lng": 137.98852,
      "geocoding_level": null,
      "phone": "",
      "license_no": "",
      "license_date": null,
      "expire_date": null
    },
    {
      "name": "たかお食堂",
      "name_kana": "タカオショクドウ",
      "business_type": "① 飲食店営業",
      "address": "静岡県掛川市満水（県保健所管内一円）",
      "lat": 34.771907,
      "lng": 138.054366,
      "geocoding_level": null,
      "phone": "",
      "license_no": "S76202500037",
      "license_date": "2025-04-21",
      "expire_date": "2030-09-30"
    },
    {
      "name": "有限会社 福田商店",
      "name_kana": "ユウゲンガイシヤ　フクダシヨウテン",
      "business_type": "⑰ 農産保存食料品製造・加工業",
      "address": "静岡県掛川市菊浜708-3",
      "lat": 34.66475,
      "lng": 138.055105,
      "geocoding_level": null,
      "phone": "0537722739",
      "license_no": "",
      "license_date": null,
      "expire_date": null
    },
    {
      "name": "カタコト食堂",
      "name_kana": "カタコトショクドウ",
      "business_type": "① 飲食店営業",
      "address": "静岡県掛川市上土方嶺向県保健所管内一円",
      "lat": 34.699883,
      "lng": 138.032,
      "geocoding_level": null,
      "phone": "090-1833-4367",
      "license_no": "S76202100050",
      "license_date": "2021-08-05",
      "expire_date": "2027-02-28"
    },
    {
      "name": "もちや",
      "name_kana": "モチヤ",
      "business_type": "⑪ 菓子製造業",
      "address": "静岡県掛川市葛川２２８－１",
      "lat": 34.775456,
      "lng": 138.026583,
      "geocoding_level": null,
      "phone": "0537-22-4833",
      "license_no": "S69200900444",
      "license_date": "2021-09-30",
      "expire_date": "2027-09-30"
    },
    {
      "name": "岡田製パン",
      "name_kana": "オカダセイパン",
      "business_type": "③ 乳類販売業",
      "address": "静岡県掛川市日坂１７４",
      "lat": 34.800574,
      "lng": 138.075798,
      "geocoding_level": null,
      "phone": "0537-27-1032",
      "license_no": "",
      "license_date": null,
      "expire_date": null
    },
    {
      "name": "有限会社　マッターホーン",
      "name_kana": "ユウゲンガイシャ　マッターホーン",
      "business_type": "⑪ 菓子製造業",
      "address": "静岡県掛川市中宿１２８",
      "lat": 34.779926,
      "lng": 138.006872,
      "geocoding_level": null,
      "phone": "0537-24-3422",
      "license_no": "S69200900548",
      "license_date": "2021-09-30",
      "expire_date": "2026-09-30"
    },
    {
      "name": "有限会社　マッターホーン",
      "name_kana": "ユウゲンガイシャ　マッターホーン",
      "business_type": "① 飲食店営業",
      "address": "静岡県掛川市中宿１２８",
      "lat": 34.779927,
      "lng": 138.006895,
      "geocoding_level": null,
      "phone": "0537-24-3422",
      "license_no": "S69200900549",
      "license_date": "2025-09-10",
      "expire_date": "2030-09-30"
    },
    {
      "name": "岡田製パン",
      "name_kana": "オカダセイパン",
      "business_type": "⑪ 菓子製造業",
      "address": "静岡県掛川市日坂１７４",
      "lat": 34.800574,
      "lng": 138.075798,
      "geocoding_level": null,
      "phone": "0537-27-1032",
      "license_no": "S00584050121",
      "license_date": "2021-09-30",
      "expire_date": "2027-09-30"
    },
    {
      "name": "岡田製パン",
      "name_kana": "オカダセイパン",
      "business_type": "① 飲食店営業",
      "address": "静岡県掛川市日坂１７４",
      "lat": 34.800574,
      "lng": 138.075798,
      "geocoding_level": null,
      "phone": "0537-27-1032",
      "license_no": "S00584050122",
      "license_date": "2021-09-30",
      "expire_date": "2027-09-30"
    },
    {
      "name": "林檎館",
      "name_kana": "リンゴカン",
      "business_type": "① 飲食店営業",
      "address": "静岡県掛川市谷の口町６９－３",
      "lat": 34.783496,
      "lng": 138.012931,
      "geocoding_level": null,
      "phone": "0537-23-1129",
      "license_no": "S00583550139",
      "license_date": "2021-09-30",
      "expire_date": "2026-09-30"
    },
    {
      "name": "ファミリー食品",
      "name_kana": "ファミリーショクヒン",
      "business_type": "① 飲食店営業",
      "address": "静岡県掛川市五明県保健所管内一円",
      "lat": 34.805511,
      "lng": 137.998551,
      "geocoding_level": null,
      "phone": "0537-28-0590",
      "license_no": "S69201100034",
      "license_date": "2021-08-19",
      "expire_date": "2026-09-30"
    },
    {
      "name": "ファミリー食品",
      "name_kana": "ファミリーショクヒン",
      "business_type": "㉕ そうざい製造業",
      "address": "静岡県掛川市五明４８６",
      "lat": 34.805072,
      "lng": 138.002558,
      "geocoding_level": null,
      "phone": "0537-28-0590",
      "license_no": "S69201400358",
      "license_date": "2024-08-30",
      "expire_date": "2029-09-30"
    },
    {
      "name": "セブン－イレブン道の駅掛川店",
      "name_kana": "セブンーイレブンミチノエキカケガワテン",
      "business_type": "① 飲食店営業",
      "address": "静岡県掛川市八坂８８２－１",
      "lat": 34.79402,
      "lng": 138.075934,
      "geocoding_level": null,
      "phone": "0537-27-0137",
      "license_no": "S69201500523",
      "license_date": "2021-09-30",
      "expire_date": "2026-09-30"
    },
    {
      "name": "セブン－イレブン道の駅掛川店",
      "name_kana": "セブンーイレブンミチノエキカケガワテン",
      "business_type": "③ 乳類販売業",
      "address": "静岡県掛川市八坂８８２－１",
      "lat": 34.79402,
      "lng": 138.075934,
      "geocoding_level": null,
      "phone": "0537-27-2600",
      "license_no": "",
      "license_date": null,
      "expire_date": null
    },
    {
      "name": "セブン－イレブン道の駅掛川店",
      "name_kana": "セブンーイレブンミチノエキカケガワテン",
      "business_type": "② 食肉販売業（包装済みの食肉のみの販売）",
      "address": "静岡県掛川市八坂８８２－１",
      "lat": 34.79402,
      "lng": 138.075934,
      "geocoding_level": null,
      "phone": "0537-27-2600",
      "license_no": "",
      "license_date": null,
      "expire_date": null
    },
    {
      "name": "レストラン花茶屋（ホテルルートイン掛川インター内）",
      "name_kana": "レストランハナチャヤ　ホテルルートインカケガワインターテンナイ",
      "business_type": "① 飲食店営業",
      "address": "静岡県掛川市矢崎町３番２４号",
      "lat": 34.762757,
      "lng": 138.021762,
      "geocoding_level": null,
      "phone": "0537-62-6511",
      "license_no": "S66200300135",
      "license_date": "2021-09-30",
      "expire_date": "2026-09-30"
    },
    {
      "name": "ファミリーマート掛川成滝店",
      "name_kana": "ファミリーマートカケガワナルタキテン",
      "business_type": "⑩ コンビニエンスストア",
      "address": "静岡県掛川市宮脇１丁目１８ー１５",
      "lat": 34.777929,
      "lng": 138.028675,
      "geocoding_level": null,
      "phone": "0537-61-1381",
      "license_no": "",
      "license_date": null,
      "expire_date": null
    },
    {
      "name": "ファミリーマート　掛川成滝店",
      "name_kana": "ファミリーマートカケガワナルタキテンテン",
      "business_type": "① 飲食店営業",
      "address": "静岡県掛川市宮脇一丁目１８番地の１５",
      "lat": 34.777929,
      "lng": 138.028675,
      "geocoding_level": null,
      "phone": "0537-61-1381",
      "license_no": "S69201500628",
      "license_date": "2021-09-30",
      "expire_date": "2026-09-30"
    },
    {
      "name": "ファミリーマート掛川本郷店",
      "name_kana": "ファミリーマートカケガワホンゴウテン",
      "business_type": "① 飲食店営業",
      "address": "静岡県掛川市本郷1408-1",
      "lat": 34.809147,
      "lng": 137.956208,
      "geocoding_level": null,
      "phone": "0537-26-5026",
      "license_no": "S76202200360",
      "license_date": "2022-12-13",
      "expire_date": "2028-09-30"
    },
    {
      "name": "ファミリーマート掛川本郷店",
      "name_kana": "ファミリーマートカケガワホンゴウテン",
      "business_type": "⑩ コンビニエンスストア",
      "address": "静岡県掛川市本郷1408-1",
      "lat": 34.809147,
      "lng": 137.956208,
      "geocoding_level": null,
      "phone": "0537-26-5026",
      "license_no": "",
      "license_date": null,
      "expire_date": null
    },
    {
      "name": "ファミリーマート掛川千羽店",
      "name_kana": "ファミリーマートカケガワセンバテン",
      "business_type": "① 飲食店営業",
      "address": "静岡県掛川市千羽421-1",
      "lat": 34.784675,
      "lng": 138.049362,
      "geocoding_level": null,
      "phone": "0537-20-0211",
      "license_no": "S76202300080",
      "license_date": "2023-05-19",
      "expire_date": "2028-09-30"
    },
    {
      "name": "ファミリーマート掛川かみ西郷店",
      "name_kana": "ファミリーマートカケガワカミサイゴウテン",
      "business_type": "① 飲食店営業",
      "address": "静岡県掛川市上西郷１７６６",
      "lat": 34.797333,
      "lng": 138.012126,
      "geocoding_level": null,
      "phone": "0537-61-2521",
      "license_no": "S69201800356",
      "license_date": "2023-09-07",
      "expire_date": "2028-09-30"
    },
    {
      "name": "あさひ",
      "name_kana": "アサヒ",
      "business_type": "㉔ その他の食料品製造・加工業",
      "address": "静岡県掛川市高田766",
      "lat": 34.79115,
      "lng": 137.943919,
      "geocoding_level": null,
      "phone": "0537262784",
      "license_no": "",
      "license_date": null,
      "expire_date": null
    },
    {
      "name": "掛川観光物産センター　こだわりっぱ",
      "name_kana": "カケガワカンコウブッサンセンター　コダワリッパ",
      "business_type": "③ 乳類販売業",
      "address": "静岡県掛川市城下6-12",
      "lat": 34.774068,
      "lng": 138.015621,
      "geocoding_level": null,
      "phone": "0537-24-8700",
      "license_no": "",
      "license_date": null,
      "expire_date": null
    },
    {
      "name": "旬鮮煮物処　もきち",
      "name_kana": "シュンセンニモノドコロ　モキチ",
      "business_type": "① 飲食店営業",
      "address": "静岡県掛川市弥生町４０",
      "lat": 34.777752,
      "lng": 138.011305,
      "geocoding_level": null,
      "phone": "0537-24-2616",
      "license_no": "S66200000195",
      "license_date": "2021-09-30",
      "expire_date": "2026-09-30"
    },
    {
      "name": "焼津水産化学工業株式会社　掛川工場",
      "name_kana": "ヤイヅスイサンカガクコウギョウカブシキガイシャカケガワコウジョウ",
      "business_type": "㉜ 添加物製造業",
      "address": "静岡県掛川市逆川６５３－１",
      "lat": 34.778008,
      "lng": 138.053678,
      "geocoding_level": null,
      "phone": "0537-62-0987",
      "license_no": "S69201400519",
      "license_date": "2021-09-30",
      "expire_date": "2027-09-30"
    },
    {
      "name": "Ｂｌｕｅ　Ｈｏｕｓｅ",
      "name_kana": "ブルーハウス",
      "business_type": "① 飲食店営業",
      "address": "静岡県掛川市上西郷１１００－１",
      "lat": 34.791983,
      "lng": 138.009408,
      "geocoding_level": null,
      "phone": "0537-21-2003",
      "license_no": "S66200000477",
      "license_date": "2021-09-30",
      "expire_date": "2026-09-30"
    },
    {
      "name": "ハウスギャバン株式会社　東海工場",
      "name_kana": "ハウスギャバンカブシキガイシャトウカイコウジョウ",
      "business_type": "⑪ 菓子製造業",
      "address": "静岡県掛川市大渕１４００番地",
      "lat": 34.662447,
      "lng": 138.026353,
      "geocoding_level": null,
      "phone": "0537-48-5322",
      "license_no": "S69200500438",
      "license_date": "2024-02-29",
      "expire_date": "2030-02-28"
    },
    {
      "name": "ハウスギャバン株式会社　東海工場",
      "name_kana": "ハウスギャバンカブシキガイシャトウカイコウジョウ",
      "business_type": "⑪ 菓子製造業",
      "address": "静岡県掛川市大渕１４００番地",
      "lat": 34.662447,
      "lng": 138.026353,
      "geocoding_level": null,
      "phone": "0537-48-5322",
      "license_no": "S00584110299",
      "license_date": "2024-02-29",
      "expire_date": "2030-02-28"
    },
    {
      "name": "ダイナムゆったり館静岡掛川",
      "name_kana": "ダイナムユッタリカンシズオカカケガワ",
      "business_type": "⑫ 自動販売機による販売業（コップ式自動販売機（自動洗浄・屋内設置）及び営業許可の対象となる自動販売機を除く）",
      "address": "静岡県掛川市成滝字南大門２８８－１",
      "lat": 34.778489,
      "lng": 138.034479,
      "geocoding_level": null,
      "phone": "",
      "license_no": "",
      "license_date": null,
      "expire_date": null
    },