{
  "meta": {
    "updated": 1783568789,
    "sources": [
      {
        "source": "厚生労働省 食品衛生申請等システム（オープンデータ）",
        "license": "公共データ利用規約（第1.0版, PDL1.0）"
      }
    ]
  },
  "data": [
    {
      "name": "日本マタイ株式会社　岡山工場",
      "name_kana": "ニホンマタイカブシキガイシャ　オカヤマコウジョウ",
      "business_type": "㉗ 器具、容器包装の製造・加工業（合成樹脂が使用された器具又は容器包装の製造、加工に限る。）",
      "address": "岡山県瀬戸内市長船町磯上1900番地",
      "lat": 34.709526,
      "lng": 134.134827,
      "geocoding_level": null,
      "phone": "0869268255",
      "license_no": "",
      "license_date": null,
      "expire_date": null
    },
    {
      "name": "老人保健施設邑久ナーシングホーム",
      "name_kana": "ロウジンホケンシセツオクナーシングホーム",
      "business_type": "㉖ 集団給食施設",
      "address": "岡山県瀬戸内市邑久町箕輪266-1",
      "lat": 34.684396,
      "lng": 134.090897,
      "geocoding_level": null,
      "phone": "0869-22-9500",
      "license_no": "",
      "license_date": null,
      "expire_date": null
    },
    {
      "name": "ダイソーハローズ邑久店",
      "name_kana": "ダイソーハローズオクテン",
      "business_type": "⑬ その他の食料・飲料販売業",
      "address": "岡山県瀬戸内市邑久町尾張116-1",
      "lat": 34.664985,
      "lng": 134.090311,
      "geocoding_level": null,
      "phone": "",
      "license_no": "",
      "license_date": null,
      "expire_date": null
    },
    {
      "name": "丸正製粉株式会社食品工場",
      "name_kana": "マルショウセイフンカブシキガイシャショクヒンコウジョウ",
      "business_type": "㉔ 麺類製造業",
      "address": "岡山県瀬戸内市邑久町豆田117-1",
      "lat": 34.692143,
      "lng": 134.090757,
      "geocoding_level": null,
      "phone": "0869-24-0039",
      "license_no": "岡山県指令　備前保　第330373号",
      "license_date": "2021-12-24",
      "expire_date": "2027-12-31"
    },
    {
      "name": "中部紙工株式会社　岡山工場",
      "name_kana": "チュウブシコウカブシキガイシャ　オカヤマコウジョウ",
      "business_type": "㉗ 器具、容器包装の製造・加工業（合成樹脂が使用された器具又は容器包装の製造、加工に限る。）",
      "address": "岡山県瀬戸内市長船町長船863番地",
      "lat": 34.699809,
      "lng": 134.098983,
      "geocoding_level": null,
      "phone": "0869668686",
      "license_no": "",
      "license_date": null,
      "expire_date": null
    },
    {
      "name": "コロンバイン",
      "name_kana": "コロンバイン",
      "business_type": "② 調理機能を有する自動販売機（要許可）",
      "address": "岡山県瀬戸内市長船町福岡470",
      "lat": 34.664903,
      "lng": 134.09284,
      "geocoding_level": null,
      "phone": "",
      "license_no": "岡山県指令　備前保　第350390号",
      "license_date": "2023-12-07",
      "expire_date": "2029-12-31"
    },
    {
      "name": "三菱農機",
      "name_kana": "ミツビシノウキ",
      "business_type": "⑤ コップ式自動販売機（自動洗浄・屋内設置）",
      "address": "岡山県瀬戸内市邑久町豆田161-1",
      "lat": 34.693671,
      "lng": 134.092215,
      "geocoding_level": null,
      "phone": "",
      "license_no": "",
      "license_date": null,
      "expire_date": null
    },
    {
      "name": "ザグザグ邑久店",
      "name_kana": "ザグザグオクテン",
      "business_type": "⑬ その他の食料・飲料販売業",
      "address": "岡山県瀬戸内市邑久町豊原86-1",
      "lat": 34.66407,
      "lng": 134.089866,
      "geocoding_level": null,
      "phone": "0869-22-5266",
      "license_no": "",
      "license_date": null,
      "expire_date": null
    },
    {
      "name": "ザグザグ長船店",
      "name_kana": "ザグザグオサフネテン",
      "business_type": "⑬ その他の食料・飲料販売業",
      "address": "岡山県瀬戸内市長船町服部",
      "lat": 34.664903,
      "lng": 134.09284,
      "geocoding_level": null,
      "phone": "0869-66-0201",
      "license_no": "",
      "license_date": null,
      "expire_date": null
    },
    {
      "name": "業務スーパー　邑久店",
      "name_kana": "ギョウムスーパー　オクテン",
      "business_type": "⑪ 百貨店、総合スーパー",
      "address": "岡山県瀬戸内市邑久町山田庄196-1",
      "lat": 34.668168,
      "lng": 134.092837,
      "geocoding_level": null,
      "phone": "0869-24-8791",
      "license_no": "",
      "license_date": null,
      "expire_date": null
    },
    {
      "name": "株式会社　ムラタ栄興　岡山営業所",
      "name_kana": "カブシキガイシャ　ムラタエイコウ　オカヤマエイギョウショ",
      "business_type": "③ 乳類販売業",
      "address": "岡山県瀬戸内市邑久町福元77番地",
      "lat": 34.679469,
      "lng": 134.082162,
      "geocoding_level": null,
      "phone": "0869240972",
      "license_no": "",
      "license_date": null,
      "expire_date": null
    },
    {
      "name": "株式会社　ムラタ栄興　岡山営業所",
      "name_kana": "カブシキガイシャ　ムラタエイコウ　オカヤマエイギョウショ",
      "business_type": "⑥ 弁当販売業",
      "address": "岡山県瀬戸内市邑久町福元77番地",
      "lat": 34.679469,
      "lng": 134.082162,
      "geocoding_level": null,
      "phone": "0869240972",
      "license_no": "",
      "license_date": null,
      "expire_date": null
    },
    {
      "name": "株式会社　ムラタ栄興　岡山営業所",
      "name_kana": "カブシキガイシャ　ムラタエイコウ　オカヤマエイギョウショ",
      "business_type": "⑦ 野菜果物販売業",
      "address": "岡山県瀬戸内市邑久町福元77番地",
      "lat": 34.679469,
      "lng": 134.082162,
      "geocoding_level": null,
      "phone": "0869240972",
      "license_no": "",
      "license_date": null,
      "expire_date": null
    },
    {
      "name": "株式会社　ムラタ栄興　岡山営業所",
      "name_kana": "カブシキガイシャ　ムラタエイコウ　オカヤマエイギョウショ",
      "business_type": "⑬ その他の食料・飲料販売業",
      "address": "岡山県瀬戸内市邑久町福元77番地",
      "lat": 34.679469,
      "lng": 134.082162,
      "geocoding_level": null,
      "phone": "0869240972",
      "license_no": "",
      "license_date": null,
      "expire_date": null
    },
    {
      "name": "甘薯屋ＩＭＯＭＩ",
      "name_kana": "カンショヤイモミ",
      "business_type": "㉔ その他の食料品製造・加工業",
      "address": "岡山県瀬戸内市（県内一円）",
      "lat": 34.664896,
      "lng": 134.092851,
      "geocoding_level": null,
      "phone": "",
      "license_no": "",
      "license_date": null,
      "expire_date": null
    },
    {
      "name": "バージン長船店",
      "name_kana": "バージンオサフネテン",
      "business_type": "⑤ コップ式自動販売機（自動洗浄・屋内設置）",
      "address": "岡山県瀬戸内市長船町長船110-1",
      "lat": 34.726118,
      "lng": 134.109138,
      "geocoding_level": null,
      "phone": "",
      "license_no": "",
      "license_date": null,
      "expire_date": null
    },
    {
      "name": "祇園商店",
      "name_kana": "ギオンショウテン",
      "business_type": "⑦ 野菜果物販売業",
      "address": "岡山県瀬戸内市牛窓町牛窓3040",
      "lat": 34.615428,
      "lng": 134.164842,
      "geocoding_level": null,
      "phone": "0869-34-2130",
      "license_no": "",
      "license_date": null,
      "expire_date": null
    },
    {
      "name": "岡山村田製作所E棟",
      "name_kana": "オカヤマムラタセイサクショイートウ",
      "business_type": "③ 乳類販売業",
      "address": "岡山県瀬戸内市邑久町福元77",
      "lat": 34.679438,
      "lng": 134.08214,
      "geocoding_level": null,
      "phone": "0869240911",
      "license_no": "",
      "license_date": null,
      "expire_date": null
    },
    {
      "name": "岡山村田製作所R棟2階",
      "name_kana": "オカヤマムラタセイサクショアールトウニカイ",
      "business_type": "③ 乳類販売業",
      "address": "岡山県瀬戸内市邑久町福元77",
      "lat": 34.679438,
      "lng": 134.08214,
      "geocoding_level": null,
      "phone": "0869240911",
      "license_no": "",
      "license_date": null,
      "expire_date": null
    },
    {
      "name": "岡山村田製作所R棟３階",
      "name_kana": "オカヤマムラタセイサクショアールトウサンカイ",
      "business_type": "③ 乳類販売業",
      "address": "岡山県瀬戸内市邑久町福元77",
      "lat": 34.679438,
      "lng": 134.08214,
      "geocoding_level": null,
      "phone": "0869240911",
      "license_no": "",
      "license_date": null,
      "expire_date": null
    },
    {
      "name": "株式会社岡山村田製作所",
      "name_kana": "カブシキガイシャオカヤマムラタセイサクショ",
      "business_type": "③ 乳類販売業",
      "address": "岡山県瀬戸内市邑久町福元７７",
      "lat": 34.679438,
      "lng": 134.08214,
      "geocoding_level": null,
      "phone": "0869-24-0911",
      "license_no": "",
      "license_date": null,
      "expire_date": null
    },
    {
      "name": "岡山県立邑久高等学校",
      "name_kana": "オカヤマケンリツオクコウトウガッコウ",
      "business_type": "③ 乳類販売業",
      "address": "岡山県瀬戸内市邑久町尾張４０４",
      "lat": 34.662719,
      "lng": 134.09254,
      "geocoding_level": null,
      "phone": "0869-22-0017",
      "license_no": "",
      "license_date": null,
      "expire_date": null
    },
    {
      "name": "岡山県立邑久高等学校",
      "name_kana": "オカヤマケンリツオクコウトウガッコウ",
      "business_type": "③ 乳類販売業",
      "address": "岡山県瀬戸内市邑久町尾張404",
      "lat": 34.662652,
      "lng": 134.092585,
      "geocoding_level": null,
      "phone": "0869220017",
      "license_no": "",
      "license_date": null,
      "expire_date": null
    },
    {
      "name": "株式会社ハローズ邑久店",
      "name_kana": "カブシキガイシャハローズオクテン",
      "business_type": "⑪ 百貨店、総合スーパー",
      "address": "岡山県瀬戸内市邑久町尾張120番地1",
      "lat": 34.664561,
      "lng": 134.090014,
      "geocoding_level": null,
      "phone": "0869-24-1586",
      "license_no": "",
      "license_date": null,
      "expire_date": null
    },
    {
      "name": "株式会社ハローズ長船店",
      "name_kana": "カブシキガイシャハローズオサフネテン",
      "business_type": "⑪ 百貨店、総合スーパー",
      "address": "岡山県瀬戸内市長船町服部527番地",
      "lat": 34.705371,
      "lng": 134.103857,
      "geocoding_level": null,
      "phone": "0869-26-8586",
      "license_no": "",
      "license_date": null,
      "expire_date": null
    },
    {
      "name": "株式会社ハローズ邑久店",
      "name_kana": "カブシキガイシャハローズオクテン",
      "business_type": "① 飲食店営業",
      "address": "岡山県瀬戸内市邑久町尾張120番地1",
      "lat": 34.665053,
      "lng": 134.090738,
      "geocoding_level": null,
      "phone": "0869-24-1586",
      "license_no": "岡山県指令　備前保　第350179号",
      "license_date": "2023-09-14",
      "expire_date": "2028-12-31"
    },
    {
      "name": "株式会社ハローズ邑久店",
      "name_kana": "カブシキガイシャハローズオクテン",
      "business_type": "④ 魚介類販売業",
      "address": "岡山県瀬戸内市邑久町尾張120番地1",
      "lat": 34.664561,
      "lng": 134.090014,
      "geocoding_level": null,
      "phone": "0869-24-1586",
      "license_no": "岡山県指令　備前保　第350372号",
      "license_date": "2023-12-07",
      "expire_date": "2029-12-31"
    },
    {
      "name": "株式会社ハローズ邑久店",
      "name_kana": "カブシキガイシャハローズオクテン",
      "business_type": "③ 食肉販売業",
      "address": "岡山県瀬戸内市邑久町尾張120番地1",
      "lat": 34.664561,
      "lng": 134.090014,
      "geocoding_level": null,
      "phone": "0869-24-1586",
      "license_no": "岡山県指令　備前保　第350373号",
      "license_date": "2023-12-07",
      "expire_date": "2029-12-31"
    },
    {
      "name": "株式会社ハローズ邑久店",
      "name_kana": "カブシキガイシャハローズオクテン",
      "business_type": "⑪ 菓子製造業",
      "address": "岡山県瀬戸内市邑久町尾張120番地1",
      "lat": 34.664561,
      "lng": 134.090014,
      "geocoding_level": null,
      "phone": "0869-24-1586",
      "license_no": "岡山県指令　備前保　第350371号",
      "license_date": "2023-12-07",
      "expire_date": "2029-12-31"
    },
    {
      "name": "株式会社ハローズ長船店",
      "name_kana": "カブシキガイシャハローズオサフネテン",
      "business_type": "① 飲食店営業",
      "address": "岡山県瀬戸内市長船町服部527番地",
      "lat": 34.705371,
      "lng": 134.103857,
      "geocoding_level": null,
      "phone": "0869-26-8586",
      "license_no": "備前保　第360284号",
      "license_date": "2024-11-28",
      "expire_date": "2030-12-31"
    },
    {
      "name": "株式会社ハローズ長船店",
      "name_kana": "カブシキガイシャハローズオサフネテン",
      "business_type": "③ 食肉販売業",
      "address": "岡山県瀬戸内市長船町服部527番地",
      "lat": 34.705371,
      "lng": 134.103857,
      "geocoding_level": null,
      "phone": "0869-26-8586",
      "license_no": "備前保　第360285号",
      "license_date": "2024-11-28",
      "expire_date": "2030-12-31"
    },
    {
      "name": "株式会社ハローズ長船店",
      "name_kana": "カブシキガイシャハローズオサフネテン",
      "business_type": "④ 魚介類販売業",
      "address": "岡山県瀬戸内市長船町服部527番地",
      "lat": 34.705371,
      "lng": 134.103857,
      "geocoding_level": null,
      "phone": "0869-26-8586",
      "license_no": "備前保　第360286号",
      "license_date": "2024-11-28",
      "expire_date": "2030-12-31"
    },
    {
      "name": "株式会社ハローズ長船店",
      "name_kana": "カブシキガイシャハローズオサフネテン",
      "business_type": "⑪ 菓子製造業",
      "address": "岡山県瀬戸内市長船町服部527番地",
      "lat": 34.705371,
      "lng": 134.103857,
      "geocoding_level": null,
      "phone": "0869-26-8586",
      "license_no": "備前保　第360287号",
      "license_date": "2024-11-28",
      "expire_date": "2030-12-31"
    },
    {
      "name": "特別養護老人ホームせとの夢",
      "name_kana": "トクベツヨウゴロウジンホームセトノユメ",
      "business_type": "㉖ 集団給食施設",
      "address": "岡山県瀬戸内市邑久町虫明6268-2",
      "lat": 34.670556,
      "lng": 134.226907,
      "geocoding_level": null,
      "phone": "0869-25-0500",
      "license_no": "",
      "license_date": null,
      "expire_date": null
    },
    {
      "name": "ゆめタウン邑久",
      "name_kana": "ユメタウンオク",
      "business_type": "⑪ 百貨店、総合スーパー",
      "address": "岡山県瀬戸内市邑久町尾張268",
      "lat": 34.66625,
      "lng": 134.092911,
      "geocoding_level": null,
      "phone": "0869-24-1900",
      "license_no": "",
      "license_date": null,
      "expire_date": null
    },
    {
      "name": "ゆめタウン邑久",
      "name_kana": "ユメタウンオク",
      "business_type": "④ 魚介類販売業",
      "address": "岡山県瀬戸内市邑久町尾張268",
      "lat": 34.66625,
      "lng": 134.092911,
      "geocoding_level": null,
      "phone": "0869-24-1900",
      "license_no": "岡山県指令　備前保　第360146号",
      "license_date": "2024-08-02",
      "expire_date": "2029-12-31"
    },
    {
      "name": "559：303300：瀬戸内市民病院　２Ｆ　談話室（東）",
      "name_kana": "セトウチシミンビョウイン　ニカイ　ダンワシツ　ヒガシ",
      "business_type": "③ 乳類販売業",
      "address": "岡山県瀬戸内市邑久町山田庄８４５番地１",
      "lat": 34.666058,
      "lng": 134.100354,
      "geocoding_level": null,
      "phone": "",
      "license_no": "",
      "license_date": null,
      "expire_date": null
    },
    {
      "name": "560：303301：瀬戸内市民病院　２Ｆ　談話室（西）",
      "name_kana": "セトウチシミンビョウイン　ニカイ　ダンワシツ　ニシ",
      "business_type": "③ 乳類販売業",
      "address": "岡山県瀬戸内市邑久町山田庄８４５番地１",
      "lat": 34.666058,
      "lng": 134.100354,
      "geocoding_level": null,
      "phone": "",
      "license_no": "",
      "license_date": null,
      "expire_date": null
    },
    {
      "name": "1496：80083618：エムテック長船工場",
      "name_kana": "エムテックオサフネコウジョウ",
      "business_type": "⑫ 自動販売機による販売業（コップ式自動販売機（自動洗浄・屋内設置）及び営業許可の対象となる自動販売機を除く）",
      "address": "岡山県瀬戸内市長船町福里９５－１",
      "lat": 34.664903,
      "lng": 134.09284,
      "geocoding_level": null,
      "phone": "",
      "license_no": "",
      "license_date": null,
      "expire_date": null
    },
    {
      "name": "木徳神糧株式会社中四国支店",
      "name_kana": "キトクシンリョウカブシキガイシャチュウシコクシテン",
      "business_type": "⑧ 米穀類販売業",
      "address": "岡山県瀬戸内市邑久町福元111-1",
      "lat": 34.67807,
      "lng": 134.080241,
      "geocoding_level": null,
      "phone": "0869-24-7170",
      "license_no": "",
      "license_date": null,
      "expire_date": null
    },
    {
      "name": "木徳神糧株式会社中四国支店",
      "name_kana": "キトクシンリョウカブシキガイシャチュウシコクシテン",
      "business_type": "⑳ 精穀・製粉業",
      "address": "岡山県瀬戸内市邑久町福元111-1",
      "lat": 34.67807,
      "lng": 134.080241,
      "geocoding_level": null,
      "phone": "0869-24-7170",
      "license_no": "",
      "license_date": null,
      "expire_date": null
    },
    {
      "name": "フードショップナカニワヤ",
      "name_kana": "フードショップナカニワヤ",
      "business_type": "⑦ 野菜果物販売業",
      "address": "岡山県瀬戸内市牛窓町牛窓3017",
      "lat": 34.614665,
      "lng": 134.165639,
      "geocoding_level": null,
      "phone": "0869-34-2128",
      "license_no": "",
      "license_date": null,
      "expire_date": null
    },
    {
      "name": "cyoi-cyoi  Style",
      "name_kana": "チョイチョイスタイル",
      "business_type": "⑱ 調味料製造・加工業",
      "address": "岡山県瀬戸内市牛窓町鹿忍６３４８-１６",
      "lat": 34.602633,
      "lng": 134.131798,
      "geocoding_level": null,
      "phone": "090-7502-3420",
      "license_no": "",
      "license_date": null,
      "expire_date": null
    },
    {
      "name": "瀬戸内さの自然農園",
      "name_kana": "セトウチサノシゼンノウエン",
      "business_type": "⑰ 農産保存食料品製造・加工業",
      "address": "岡山県瀬戸内市長船町長船518番地",
      "lat": 34.719909,
      "lng": 134.106335,
      "geocoding_level": null,
      "phone": "08024355656",
      "license_no": "",
      "license_date": null,
      "expire_date": null
    },
    {
      "name": "きびや菓子舗",
      "name_kana": "キビヤカシホ",
      "business_type": "⑪ 菓子製造業",
      "address": "岡山県瀬戸内市牛窓町牛窓３８８０－１",
      "lat": 34.621607,
      "lng": 134.157786,
      "geocoding_level": null,
      "phone": "0869-34-2316",
      "license_no": "岡山県指令　備前保　第330177号",
      "license_date": "2021-09-14",
      "expire_date": "2027-09-30"
    },
    {
      "name": "瀬戸内市牛窓学校給食調理場",
      "name_kana": "セトウチシウシマドガッコウキュウショクチョウリジョウ",
      "business_type": "㉖ 集団給食施設",
      "address": "岡山県瀬戸内市牛窓町牛窓4957-1",
      "lat": 34.620017,
      "lng": 134.149218,
      "geocoding_level": null,
      "phone": "0869342491",
      "license_no": "",
      "license_date": null,
      "expire_date": null
    },
    {
      "name": "養護老人ホーム楽々園",
      "name_kana": "ヨウゴロウジンホームラクラクエン",
      "business_type": "㉖ 集団給食施設",
      "address": "岡山県瀬戸内市邑久町北池169番地",
      "lat": 34.68173,
      "lng": 134.11309,
      "geocoding_level": null,
      "phone": "0869-22-0165",
      "license_no": "",
      "license_date": null,
      "expire_date": null
    },
    {
      "name": "マンネン酢合資会社",
      "name_kana": "マンネンスゴウシカイシャ",
      "business_type": "⑱ 調味料製造・加工業",
      "address": "岡山県瀬戸内市長船町福岡1480",
      "lat": 34.664903,
      "lng": 134.09284,
      "geocoding_level": null,
      "phone": "0869263590",
      "license_no": "",
      "license_date": null,
      "expire_date": null
    },
    {
      "name": "敷島堂　邑久総本店",
      "name_kana": "シキシマドウ　オクソウホンテン",
      "business_type": "⑬ その他の食料・飲料販売業",
      "address": "岡山県瀬戸内市邑久町尾張1153番地の1",
      "lat": 34.663864,
      "lng": 134.102641,
      "geocoding_level": null,
      "phone": "0869-22-0059",
      "license_no": "",
      "license_date": null,
      "expire_date": null
    },
    {
      "name": "敷島堂　第２工場",
      "name_kana": "シキシマドウ　ダイニコウジョウ",
      "business_type": "⑪ 菓子製造業",
      "address": "岡山県瀬戸内市邑久町尾張1153ｰ1",
      "lat": 34.663864,
      "lng": 134.102641,
      "geocoding_level": null,
      "phone": "0869-22-0145",
      "license_no": "岡山県指令 備前保 第370194号",
      "license_date": "2025-09-24",
      "expire_date": "2030-12-31"
    },
    {
      "name": "竹久夢二本舗敷島堂株式会社",
      "name_kana": "タケヒサユメジホンポシキシマドウカブシキガイシャ",
      "business_type": "⑪ 菓子製造業",
      "address": "岡山県瀬戸内市邑久町尾張1153-1",
      "lat": 34.663864,
      "lng": 134.102641,
      "geocoding_level": null,
      "phone": "0869-22-0145",
      "license_no": "岡山県指令　備前保　第370303号",
      "license_date": "2025-12-15",
      "expire_date": "2031-12-31"
    },
    {
      "name": "楽善青果",
      "name_kana": "ラクゼンセイカ",
      "business_type": "⑦ 野菜果物販売業",
      "address": "岡山県瀬戸内市牛窓町鹿忍６２５－１",
      "lat": 34.616693,
      "lng": 134.139739,
      "geocoding_level": null,
      "phone": "0869-34-3415",
      "license_no": "",
      "license_date": null,
      "expire_date": null
    },
    {
      "name": "HUTTE トキドキパンヤサン",
      "name_kana": "ヒュッテ　トキドキパンヤサン",
      "business_type": "⑬ その他の食料・飲料販売業",
      "address": "岡山県瀬戸内市県内一円",
      "lat": 34.664951,
      "lng": 134.092687,
      "geocoding_level": null,
      "phone": "090-1684-1596",
      "license_no": "",
      "license_date": null,
      "expire_date": null
    },
    {
      "name": "ファミリーマート長船服部店",
      "name_kana": "ファミリーマートオサフネハットリテン",
      "business_type": "⑩ コンビニエンスストア",
      "address": "岡山県瀬戸内市長船町服部２７２－２",
      "lat": 34.710247,
      "lng": 134.100301,
      "geocoding_level": null,
      "phone": "0869-26-8120",
      "license_no": "",
      "license_date": null,
      "expire_date": null
    },
    {
      "name": "医療法人仁誠会 瀬戸内記念病院",
      "name_kana": "イリョウホウジンジンセイカイ セトウチキネンビョウイン",
      "business_type": "㉖ 集団給食施設",
      "address": "岡山県瀬戸内市長船町服部290番5",
      "lat": 34.712312,
      "lng": 134.103036,
      "geocoding_level": null,
      "phone": "0869-26-9910",
      "license_no": "",
      "license_date": null,
      "expire_date": null
    },
    {
      "name": "マンネン酢合資会社",
      "name_kana": "マンネンスゴウシカイシャ",
      "business_type": "⑭ 清涼飲料水製造業",
      "address": "岡山県瀬戸内市長船町福岡1480",
      "lat": 34.664903,
      "lng": 134.09284,
      "geocoding_level": null,
      "phone": "0869263590",
      "license_no": "岡山県指令　備前保　第330356号",
      "license_date": "2021-12-21",
      "expire_date": "2027-12-31"
    },
    {
      "name": "マンネン酢合資会社",
      "name_kana": "マンネンスゴウシカイシャ",
      "business_type": "㉚ 密封包装食品製造業",
      "address": "岡山県瀬戸内市長船町福岡1480",
      "lat": 34.664903,
      "lng": 134.09284,
      "geocoding_level": null,
      "phone": "0869263590",
      "license_no": "岡山県指令　備前保　第330357号",
      "license_date": "2021-12-21",
      "expire_date": "2027-12-31"
    },
    {
      "name": "ファミリーマート長船土師店",
      "name_kana": "ファミリーマートオサフネハジテン",
      "business_type": "⑩ コンビニエンスストア",
      "address": "岡山県瀬戸内市長船町土師４－１",
      "lat": 34.695293,
      "lng": 134.097238,
      "geocoding_level": null,
      "phone": "0869-26-8181",
      "license_no": "",
      "license_date": null,
      "expire_date": null
    },
    {
      "name": "いしぐろ農園",
      "name_kana": "イシグロノウエン",
      "business_type": "㉔ その他の食料品製造・加工業",
      "address": "岡山県瀬戸内市邑久町本庄5310",
      "lat": 34.669321,
      "lng": 134.122112,
      "geocoding_level": null,
      "phone": "0869223708",
      "license_no": "",
      "license_date": null,
      "expire_date": null
    },
    {
      "name": "錦海ソルト株式会社",
      "name_kana": "キンカイソルトカブシキカイシャ",
      "business_type": "⑱ 調味料製造・加工業",
      "address": "岡山県瀬戸内市邑久町尻海4382-121",
      "lat": 34.649524,
      "lng": 134.158972,
      "geocoding_level": null,
      "phone": "0869240111",
      "license_no": "",
      "license_date": null,
      "expire_date": null
    },
    {
      "name": "モリスケ",
      "name_kana": "モリスケ",
      "business_type": "⑪ 菓子製造業",
      "address": "岡山県瀬戸内市牛窓町牛窓４４４８ テレモーク内１F",
      "lat": 34.616211,
      "lng": 134.155091,
      "geocoding_level": null,
      "phone": "080-5811-7896",
      "license_no": "岡山県指令　備前保　第330041号",
      "license_date": "2021-06-01",
      "expire_date": "2026-09-30"
    },
    {
      "name": "テレモークカフェ",
      "name_kana": "テレモークカフェ",
      "business_type": "① 飲食店営業",
      "address": "岡山県瀬戸内市牛窓町牛窓４４４８－１",
      "lat": 34.615961,
      "lng": 134.155579,
      "geocoding_level": null,
      "phone": "0869-34-5877",
      "license_no": "岡山県指令　備前保　第330049号",
      "license_date": "2021-06-08",
      "expire_date": "2026-09-30"
    },
    {
      "name": "特別養護老人ホーム錦海荘",
      "name_kana": "トクベツヨウゴロウジンホームキンカイソウ",
      "business_type": "① 飲食店営業",
      "address": "岡山県瀬戸内市邑久町尻海５５１３－１",
      "lat": 34.656004,
      "lng": 134.182065,
      "geocoding_level": null,
      "phone": "0869-24-0478",
      "license_no": "岡山県指令　備前保　第330057号",
      "license_date": "2021-06-15",
      "expire_date": "2026-12-31"
    },
    {
      "name": "カフェイーズ",
      "name_kana": "カフェイーズ",
      "business_type": "① 飲食店営業",
      "address": "岡山県瀬戸内市牛窓町牛窓３９１１－１４",
      "lat": 34.617997,
      "lng": 134.160645,
      "geocoding_level": null,
      "phone": "090-6830-5556",
      "license_no": "岡山県指令　備前保　第330078号",
      "license_date": "2021-07-06",
      "expire_date": "2026-09-30"
    },
    {
      "name": "喫茶ありす",
      "name_kana": "キッサアリス",
      "business_type": "① 飲食店営業",
      "address": "岡山県瀬戸内市長船町土師３１５－７",
      "lat": 34.699572,
      "lng": 134.102956,
      "geocoding_level": null,
      "phone": "0869-26-5710",
      "license_no": "岡山県指令　備前保　第330076号",
      "license_date": "2021-06-30",
      "expire_date": "2026-12-31"
    },
    {
      "name": "国立療養所長島愛生園",
      "name_kana": "コクリツリョウヨウショナガシマアイセイエン",
      "business_type": "㉖ 集団給食施設",
      "address": "岡山県瀬戸内市邑久町虫明6539",
      "lat": 34.680678,
      "lng": 134.254902,
      "geocoding_level": null,
      "phone": "0869250321",
      "license_no": "",
      "license_date": null,
      "expire_date": null
    },
    {
      "name": "Ushimado Activity Center（風車小屋）",
      "name_kana": "ウシマドアクティビティセンターフウシャゴヤ",
      "business_type": "① 飲食店営業",
      "address": "岡山県瀬戸内市牛窓町牛窓３９０５－１ 風車小屋",
      "lat": 34.615848,
      "lng": 134.16359,
      "geocoding_level": null,
      "phone": "090-2292-9231",
      "license_no": "岡山県指令　備前保　第330129号",
      "license_date": "2021-08-04",
      "expire_date": "2026-09-30"
    },
    {
      "name": "たこ焼き　りく兵衛　２号店",
      "name_kana": "タコヤキ　リクベエ　ニゴウテン",
      "business_type": "① 飲食店営業",
      "address": "岡山県瀬戸内市長船町八日市５０７－１",
      "lat": 34.7138,
      "lng": 134.095784,
      "geocoding_level": null,
      "phone": "",
      "license_no": "岡山県指令　備前保　第370338号",
      "license_date": "2025-12-25",
      "expire_date": "2030-12-31"
    },
    {
      "name": "かいじゅうとたね",
      "name_kana": "カイジュウトタネ",
      "business_type": "① 飲食店営業",
      "address": "岡山県瀬戸内市長船町西須恵１２４９",
      "lat": 34.676107,
      "lng": 134.128607,
      "geocoding_level": null,
      "phone": "080-6808-2198",
      "license_no": "岡山県指令　備前保　第330134号",
      "license_date": "2021-08-17",
      "expire_date": "2026-12-31"
    },
    {
      "name": "かいじゅうとたね",
      "name_kana": "カイジュウトタネ",
      "business_type": "⑪ 菓子製造業",
      "address": "岡山県瀬戸内市長船町西須恵１２４９",
      "lat": 34.676107,
      "lng": 134.128607,
      "geocoding_level": null,
      "phone": "080-6808-2198",
      "license_no": "岡山県指令　備前保　第330135号",
      "license_date": "2021-08-17",
      "expire_date": "2026-12-31"
    },
    {
      "name": "株式会社すぎ茶屋 せとうち厨房",
      "name_kana": "カブシキガイシャスギチャヤ　セトウチチュウボウ",
      "business_type": "① 飲食店営業",
      "address": "岡山県瀬戸内市長船町服部290番5",
      "lat": 34.712367,
      "lng": 134.103086,
      "geocoding_level": null,
      "phone": "0869269118",
      "license_no": "備前保　第360012号",
      "license_date": "2024-04-15",
      "expire_date": "2029-12-31"
    },
    {
      "name": "原野商店",
      "name_kana": "ハラノショウテン",
      "business_type": "⑬ その他の食料・飲料販売業",
      "address": "岡山県瀬戸内市牛窓町長浜1144-1",
      "lat": 34.634437,
      "lng": 134.13501,
      "geocoding_level": null,
      "phone": "",
      "license_no": "",
      "license_date": null,
      "expire_date": null
    },
    {
      "name": "ゴダイドラッグ牛窓店",
      "name_kana": "ゴダイドラッグウシマドテン",
      "business_type": "⑬ その他の食料・飲料販売業",
      "address": "岡山県瀬戸内市牛窓町牛窓4537番",
      "lat": 34.619226,
      "lng": 134.15519,
      "geocoding_level": null,
      "phone": "0869-34-6255",
      "license_no": "",
      "license_date": null,
      "expire_date": null
    },
    {
      "name": "株式会社ＴＡＲＩ",
      "name_kana": "カブシキガイシャタリ",
      "business_type": "① 飲食店営業",
      "address": "岡山県瀬戸内市牛窓町（県内一円）",
      "lat": 34.621607,
      "lng": 134.157786,
      "geocoding_level": null,
      "phone": "",
      "license_no": "岡山県指令　備前保　第330248号",
      "license_date": "2021-10-12",
      "expire_date": "2027-09-30"
    },
    {
      "name": "株式会社ＴＡＲＩ",
      "name_kana": "カブシキガイシャタリ",
      "business_type": "① 飲食店営業",
      "address": "岡山県瀬戸内市鹿忍６４４９",
      "lat": 34.617356,
      "lng": 134.134079,
      "geocoding_level": null,
      "phone": "0869-34-5551",
      "license_no": "岡山県指令　備前保　第340104号",
      "license_date": "2022-06-29",
      "expire_date": "2027-09-30"
    },
    {
      "name": "すき家　瀬戸内邑久店",
      "name_kana": "スキヤ　セトウチオクテン",
      "business_type": "⑬ その他の食料・飲料販売業",
      "address": "岡山県瀬戸内市邑久町豊原90-3",
      "lat": 34.663186,
      "lng": 134.090285,
      "geocoding_level": null,
      "phone": "",
      "license_no": "",
      "license_date": null,
      "expire_date": null
    },
    {
      "name": "㈱白松　瀬戸内工場",
      "name_kana": "カブシキガイシャハクマツ　セトウチコウジョウ",
      "business_type": "⑱ 調味料製造・加工業",
      "address": "岡山県瀬戸内市邑久町尻海4382-121",
      "lat": 34.649301,
      "lng": 134.170684,
      "geocoding_level": null,
      "phone": "0869240311",
      "license_no": "",
      "license_date": null,
      "expire_date": null
    },
    {
      "name": "株式会社白松　瀬戸内工場",
      "name_kana": "カブシキガイシャハクマツ　セトウチコウジョウ",
      "business_type": "㉜ 添加物製造業",
      "address": "岡山県瀬戸内市邑久町尻海４３８２－１２１",
      "lat": 34.649301,
      "lng": 134.170684,
      "geocoding_level": null,
      "phone": "0869-24-0311",
      "license_no": "岡山県指令　備前保　第340148号",
      "license_date": "2022-07-27",
      "expire_date": "2027-12-31"
    },
    {
      "name": "ドラッグコスモス邑久店",
      "name_kana": "ドラッグコスモスオクテン",
      "business_type": "⑪ 百貨店、総合スーパー",
      "address": "岡山県瀬戸内市邑久町尾張123-1",
      "lat": 34.66424,
      "lng": 134.091648,
      "geocoding_level": null,
      "phone": "0869-22-5601",
      "license_no": "",
      "license_date": null,
      "expire_date": null
    },
    {
      "name": "ドラッグコスモス長船店",
      "name_kana": "ドラッグコスモスオサフネテン",
      "business_type": "⑪ 百貨店、総合スーパー",
      "address": "岡山県瀬戸内市長船町土師220-1",
      "lat": 34.70332,
      "lng": 134.102881,
      "geocoding_level": null,
      "phone": "0869-26-8780",
      "license_no": "",
      "license_date": null,
      "expire_date": null
    },
    {
      "name": "生活協同組合おかやまコープ　長船センター",
      "name_kana": "セイカツキョウドウクミアイオカヤマコープ　オサフネセンター",
      "business_type": "⑬ その他の食料・飲料販売業",
      "address": "岡山県瀬戸内市長船町福里171-1",
      "lat": 34.699429,
      "lng": 134.117379,
      "geocoding_level": null,
      "phone": "",
      "license_no": "",
      "license_date": null,
      "expire_date": null
    },
    {
      "name": "邑久保育園",
      "name_kana": "オクホイクエン",
      "business_type": "㉖ 集団給食施設",
      "address": "岡山県瀬戸内市邑久町尾張1159-1",
      "lat": 34.663744,
      "lng": 134.103829,
      "geocoding_level": null,
      "phone": "0869220089",
      "license_no": "",
      "license_date": null,
      "expire_date": null
    },
    {
      "name": "福田保育園",
      "name_kana": "フクダホイクエン",
      "business_type": "㉖ 集団給食施設",
      "address": "岡山県瀬戸内市邑久町福元671-1",
      "lat": 34.674154,
      "lng": 134.08864,
      "geocoding_level": null,
      "phone": "0869220457",
      "license_no": "",
      "license_date": null,
      "expire_date": null
    },
    {
      "name": "今城こども園",
      "name_kana": "イマギコドモエン",
      "business_type": "㉖ 集団給食施設",
      "address": "岡山県瀬戸内市邑久町向山588-6",
      "lat": 34.657631,
      "lng": 134.069173,
      "geocoding_level": null,
      "phone": "0869424351",
      "license_no": "",
      "license_date": null,
      "expire_date": null
    },
    {
      "name": "長船西保育園",
      "name_kana": "オサフネニシホイクエン",
      "business_type": "㉖ 集団給食施設",
      "address": "岡山県瀬戸内市長船町服部277",
      "lat": 34.664903,
      "lng": 134.09284,
      "geocoding_level": null,
      "phone": "0869-26-4401",
      "license_no": "",
      "license_date": null,
      "expire_date": null
    },
    {
      "name": "長船東保育園",
      "name_kana": "オサフネヒガシホイクエン",
      "business_type": "㉖ 集団給食施設",
      "address": "岡山県瀬戸内市長船町牛文729-1",
      "lat": 34.693084,
      "lng": 134.129696,
      "geocoding_level": null,
      "phone": "0869263326",
      "license_no": "",
      "license_date": null,
      "expire_date": null
    },
    {
      "name": "裳掛こども園",
      "name_kana": "モカケコドモエン",
      "business_type": "㉖ 集団給食施設",
      "address": "岡山県瀬戸内市邑久町虫明841-1",
      "lat": 34.681526,
      "lng": 134.201432,
      "geocoding_level": null,
      "phone": "0869-25-0769",
      "license_no": "",
      "license_date": null,
      "expire_date": null
    },
    {
      "name": "牛窓ショッピング",
      "name_kana": "ウシマドショッピング",
      "business_type": "⑬ その他の食料・飲料販売業",
      "address": "岡山県瀬戸内市牛窓町牛窓牛窓6421番地の1",
      "lat": 34.61978,
      "lng": 134.150164,
      "geocoding_level": null,
      "phone": "0869342089",
      "license_no": "",
      "license_date": null,
      "expire_date": null
    },
    {
      "name": "あいあい保育園",
      "name_kana": "アイアイホイクエン",
      "business_type": "㉖ 集団給食施設",
      "address": "岡山県瀬戸内市牛窓町鹿忍4455-1",
      "lat": 34.618083,
      "lng": 134.12317,
      "geocoding_level": null,
      "phone": "0869349330",
      "license_no": "",
      "license_date": null,
      "expire_date": null
    },
    {
      "name": "橋本屋",
      "name_kana": "ハシモトヤ",
      "business_type": "⑬ その他の食料・飲料販売業",
      "address": "岡山県瀬戸内市邑久町山田庄108-11",
      "lat": 34.673021,
      "lng": 134.09033,
      "geocoding_level": null,
      "phone": "0869-22-1618",
      "license_no": "",
      "license_date": null,
      "expire_date": null
    },
    {
      "name": "肉の藤原",
      "name_kana": "ニクノフジワラ",
      "business_type": "⑬ その他の食料・飲料販売業",
      "address": "岡山県瀬戸内市長船町服部695-1",
      "lat": 34.710053,
      "lng": 134.104632,
      "geocoding_level": null,
      "phone": "",
      "license_no": "",
      "license_date": null,
      "expire_date": null
    },
    {
      "name": "長島ショッピングセンター",
      "name_kana": "ナガシマショッピングセンター",
      "business_type": "⑪ 百貨店、総合スーパー",
      "address": "岡山県瀬戸内市邑久町虫明6539",
      "lat": 34.680678,
      "lng": 134.254902,
      "geocoding_level": null,
      "phone": "0869-25-0082",
      "license_no": "",
      "license_date": null,
      "expire_date": null
    },
    {
      "name": "松本商店",
      "name_kana": "マツモトショウテン",
      "business_type": "⑬ その他の食料・飲料販売業",
      "address": "岡山県瀬戸内市邑久町虫明６２５３－１",
      "lat": 34.671011,
      "lng": 134.22436,
      "geocoding_level": null,
      "phone": "0869-25-1279",
      "license_no": "",
      "license_date": null,
      "expire_date": null
    },
    {
      "name": "まるはストアー",
      "name_kana": "マルハストアー",
      "business_type": "⑬ その他の食料・飲料販売業",
      "address": "岡山県瀬戸内市長船町長船575-149",
      "lat": 34.718618,
      "lng": 134.105094,
      "geocoding_level": null,
      "phone": "0869-66-8433",
      "license_no": "",
      "license_date": null,
      "expire_date": null
    },
    {
      "name": "邑久センター",
      "name_kana": "オクセンター",
      "business_type": "⑬ その他の食料・飲料販売業",
      "address": "岡山県瀬戸内市邑久町山田庄112-4",
      "lat": 34.672996,
      "lng": 134.089847,
      "geocoding_level": null,
      "phone": "0869-22-0102",
      "license_no": "",
      "license_date": null,
      "expire_date": null
    },
    {
      "name": "瀬戸内市消防本部",
      "name_kana": "セトウチシショウボウホンブ",
      "business_type": "⑫ 自動販売機による販売業（コップ式自動販売機（自動洗浄・屋内設置）及び営業許可の対象となる自動販売機を除く）",
      "address": "岡山県瀬戸内市邑久町本庄1795番地",
      "lat": 34.660864,
      "lng": 134.125026,
      "geocoding_level": null,
      "phone": "",
      "license_no": "",
      "license_date": null,
      "expire_date": null
    },
    {
      "name": "ＪＡ岡山農産物直売所はなやか瀬戸内店",
      "name_kana": "ジェーエーオカヤマノウサンブツチョクバイショハナヤカセトウチテン",
      "business_type": "⑦ 野菜果物販売業",
      "address": "岡山県瀬戸内市邑久町豊原101-1",
      "lat": 34.66157,
      "lng": 134.089606,
      "geocoding_level": null,
      "phone": "0869-22-0714",
      "license_no": "",
      "license_date": null,
      "expire_date": null
    },
    {
      "name": "ＪＡ岡山農産物直売所一本松直売所",
      "name_kana": "ジェーエーオカヤマノウサンブツチョクバイショイッポンマツチョクバイショ",
      "business_type": "⑦ 野菜果物販売業",
      "address": "岡山県瀬戸内市邑久町尻海3539",
      "lat": 34.656551,
      "lng": 134.165318,
      "geocoding_level": null,
      "phone": "0869-22-1900",
      "license_no": "",
      "license_date": null,
      "expire_date": null
    },
    {
      "name": "ＪＡ岡山農産物直売所はなやか牛窓店",
      "name_kana": "ジェーエーオカヤマノウサンブツチョクバイショハナヤカウシマドテン",
      "business_type": "⑦ 野菜果物販売業",
      "address": "岡山県瀬戸内市牛窓町牛窓3911-44",
      "lat": 34.61777,
      "lng": 134.161087,
      "geocoding_level": null,
      "phone": "0869-34-4500",
      "license_no": "",
      "license_date": null,
      "expire_date": null
    },
    {
      "name": "ホームプラザナフコ　瀬戸内店",
      "name_kana": "ホームプラザナフコ　セトウチテン",
      "business_type": "⑧ 米穀類販売業",
      "address": "岡山県瀬戸内市邑久町豊原126-1",
      "lat": 34.658964,
      "lng": 134.088696,
      "geocoding_level": null,
      "phone": "0869-24-2721",
      "license_no": "",
      "license_date": null,
      "expire_date": null
    },
    {
      "name": "旬鮮市場　BASIC",
      "name_kana": "シュンセンイチバ　ベーシック",
      "business_type": "⑪ 百貨店、総合スーパー",
      "address": "岡山県瀬戸内市邑久町山田庄196-1",
      "lat": 34.668168,
      "lng": 134.092837,
      "geocoding_level": null,
      "phone": "0869-22-0022",
      "license_no": "",
      "license_date": null,
      "expire_date": null
    },
    {
      "name": "ひまわり養蜂園",
      "name_kana": "ヒマワリヨウホウエン",
      "business_type": "㉔ その他の食料品製造・加工業",
      "address": "岡山県瀬戸内市牛窓町鹿忍3578",
      "lat": 34.628615,
      "lng": 134.120823,
      "geocoding_level": null,
      "phone": "0869-34-5596",
      "license_no": "",
      "license_date": null,
      "expire_date": null
    },
    {
      "name": "株式会社オースターフーズ　瀬戸内工場",
      "name_kana": "カブシキガイシャオースターフーズ　セトウチコウジョウ",
      "business_type": "⑪ 菓子製造業",
      "address": "岡山県瀬戸内市邑久町向山130",
      "lat": 34.653682,
      "lng": 134.075782,
      "geocoding_level": null,
      "phone": "0869241415",
      "license_no": "岡山県指令　備前保　第340069号",
      "license_date": "2022-06-10",
      "expire_date": "2027-12-31"
    },
    {
      "name": "中華そば　あさひ",
      "name_kana": "チュウカソバ　アサヒ",
      "business_type": "① 飲食店営業",
      "address": "岡山県瀬戸内市邑久町山田庄３７１－２",
      "lat": 34.674613,
      "lng": 134.095325,
      "geocoding_level": null,
      "phone": "070-5420-0073",
      "license_no": "岡山県指令　備前保　第380026号",
      "license_date": "2026-05-11",
      "expire_date": "2031-12-31"
    },
    {
      "name": "セブンーイレブン瀬戸内市役所前店",
      "name_kana": "セブンイレブンセトウチシヤクショマエテン",
      "business_type": "⑩ コンビニエンスストア",
      "address": "岡山県瀬戸内市邑久町尾張３３８－１",
      "lat": 34.664927,
      "lng": 134.093635,
      "geocoding_level": null,
      "phone": "0869-24-0798",
      "license_no": "",
      "license_date": null,
      "expire_date": null
    },
    {
      "name": "セブン－イレブン瀬戸内市役所前店",
      "name_kana": "セブンーイレブンセトウチシヤクショマエテン",
      "business_type": "① 飲食店営業",
      "address": "岡山県瀬戸内市邑久町尾張３３８－１",
      "lat": 34.664927,
      "lng": 134.093635,
      "geocoding_level": null,
      "phone": "0869-24-0798",
      "license_no": "岡山県指令　備前保　第330368号",
      "license_date": "2021-12-23",
      "expire_date": "2026-12-31"
    },
    {
      "name": "La Pirata -ラ・ピラーター",
      "name_kana": "ラピラータ",
      "business_type": "㉔ その他の食料品製造・加工業",
      "address": "岡山県瀬戸内市邑久町豊原１７９－１",
      "lat": 34.660543,
      "lng": 134.087334,
      "geocoding_level": null,
      "phone": "0869-24-7648",
      "license_no": "",
      "license_date": null,
      "expire_date": null
    },
    {
      "name": "Ｌａ　Ｐｉｒａｔａ　－ラ・ピラータ－",
      "name_kana": "ラピラータ",
      "business_type": "① 飲食店営業",
      "address": "岡山県瀬戸内市邑久町豊原１７９－１",
      "lat": 34.660543,
      "lng": 134.087334,
      "geocoding_level": null,
      "phone": "0869-24-7648",
      "license_no": "岡山県指令　備前保　第330369号",
      "license_date": "2021-12-23",
      "expire_date": "2026-12-31"
    },
    {
      "name": "Ｌａ　Ｐｉｒａｔａ　－ラ・ピラータ－",
      "name_kana": "ラピラータ",
      "business_type": "⑪ 菓子製造業",
      "address": "岡山県瀬戸内市邑久町豊原１７９－１",
      "lat": 34.660543,
      "lng": 134.087334,
      "geocoding_level": null,
      "phone": "0869-24-7648",
      "license_no": "岡山県指令　備前保　第330458号",
      "license_date": "2022-02-25",
      "expire_date": "2027-12-31"
    },
    {
      "name": "有限会社曙の里おく",
      "name_kana": "ユウゲンガイシャアケボノノサトオク",
      "business_type": "⑬ その他の食料・飲料販売業",
      "address": "岡山県瀬戸内市邑久町虫明５１６５－１９６",
      "lat": 34.69356,
      "lng": 134.205441,
      "geocoding_level": null,
      "phone": "0869-25-0891",
      "license_no": "",
      "license_date": null,
      "expire_date": null
    },
    {
      "name": "有限会社曙の里おく",
      "name_kana": "ユウゲンガイシャアケボノノサトオク",
      "business_type": "① 飲食店営業",
      "address": "岡山県瀬戸内市邑久町虫明５１６５－１９６",
      "lat": 34.69356,
      "lng": 134.205441,
      "geocoding_level": null,
      "phone": "0869-25-0891",
      "license_no": "岡山県指令　備前保　第330361号",
      "license_date": "2021-12-22",
      "expire_date": "2027-12-31"
    },
    {
      "name": "道の駅　黒井山グリーンパーク",
      "name_kana": "ミチノエキ　クロイサングリーンパーク",
      "business_type": "① 飲食店営業",
      "address": "岡山県瀬戸内市邑久町虫明５１６５－１９６",
      "lat": 34.69356,
      "lng": 134.205441,
      "geocoding_level": null,
      "phone": "0869-25-0891",
      "license_no": "岡山県指令　備前保　第370020号",
      "license_date": "2025-04-25",
      "expire_date": "2030-12-31"
    },
    {
      "name": "カキ小屋",
      "name_kana": "カキゴヤ",
      "business_type": "① 飲食店営業",
      "address": "岡山県瀬戸内市邑久町虫明５１６５－１９６",
      "lat": 34.69356,
      "lng": 134.205441,
      "geocoding_level": null,
      "phone": "0869-24-8500",
      "license_no": "岡山県指令　備前保　第360331号",
      "license_date": "2024-12-23",
      "expire_date": "2029-12-31"
    },
    {
      "name": "セブンイレブン瀬戸内豆田店",
      "name_kana": "セブンイレブンセトウチマメタテン",
      "business_type": "⑩ コンビニエンスストア",
      "address": "岡山県瀬戸内市邑久町豆田１５６－４",
      "lat": 34.694075,
      "lng": 134.092075,
      "geocoding_level": null,
      "phone": "0869-24-2322",
      "license_no": "",
      "license_date": null,
      "expire_date": null
    },
    {
      "name": "セブンーイレブン瀬戸内土師店",
      "name_kana": "セブンイレブンセトウチハジテン",
      "business_type": "⑩ コンビニエンスストア",
      "address": "岡山県瀬戸内市長船町土師１３７－１",
      "lat": 34.701571,
      "lng": 134.100394,
      "geocoding_level": null,
      "phone": "0869-26-5866",
      "license_no": "",
      "license_date": null,
      "expire_date": null
    },
    {
      "name": "セブンイレブン瀬戸内豆田店",
      "name_kana": "セブンイレブンセトウチマメダテン",
      "business_type": "① 飲食店営業",
      "address": "岡山県瀬戸内市邑久町豆田１５６－４",
      "lat": 34.694075,
      "lng": 134.092075,
      "geocoding_level": null,
      "phone": "0869-24-2322",
      "license_no": "岡山県指令　備前保　第330358号",
      "license_date": "2021-12-22",
      "expire_date": "2026-12-31"
    },
    {
      "name": "セブン－イレブン瀬戸内土師店",
      "name_kana": "セブン　イレブンセトウチハジテン",
      "business_type": "① 飲食店営業",
      "address": "岡山県瀬戸内市長船町土師１３７－１",
      "lat": 34.701571,
      "lng": 134.100394,
      "geocoding_level": null,
      "phone": "0869-26-5866",
      "license_no": "岡山県指令　備前保　第330329号",
      "license_date": "2021-12-16",
      "expire_date": "2027-12-31"
    },
    {
      "name": "セブンーイレブン瀬戸内長船店",
      "name_kana": "セブンイレブンセトウチオサフネテン",
      "business_type": "⑩ コンビニエンスストア",
      "address": "岡山県瀬戸内市長船町長船２８６－１",
      "lat": 34.715607,
      "lng": 134.108823,
      "geocoding_level": null,
      "phone": "0869-66-8345",
      "license_no": "",
      "license_date": null,
      "expire_date": null
    },
    {
      "name": "セブン－イレブン瀬戸内長船店",
      "name_kana": "セブンーイレブンセトウチオサフネテン",
      "business_type": "① 飲食店営業",
      "address": "岡山県瀬戸内市長船町長船２８６－１",
      "lat": 34.715607,
      "lng": 134.108823,
      "geocoding_level": null,
      "phone": "0869-66-8345",
      "license_no": "岡山県指令　備前保　第330359号",
      "license_date": "2021-12-22",
      "expire_date": "2026-12-31"
    },
    {
      "name": "ローソン瀬戸内長船町店",
      "name_kana": "ローソンセトウチオサフネチョウテン",
      "business_type": "⑩ コンビニエンスストア",
      "address": "岡山県瀬戸内市長船町土師129-4",
      "lat": 34.700617,
      "lng": 134.100739,
      "geocoding_level": null,
      "phone": "0869266001",
      "license_no": "",
      "license_date": null,
      "expire_date": null
    },
    {
      "name": "ペンションくろしお丸",
      "name_kana": "ペンションクロシオマル",
      "business_type": "⑰ 農産保存食料品製造・加工業",
      "address": "岡山県瀬戸内市牛窓町鹿忍6550",
      "lat": 34.599358,
      "lng": 134.13217,
      "geocoding_level": null,
      "phone": "0869345755",
      "license_no": "",
      "license_date": null,
      "expire_date": null
    },
    {
      "name": "ローソン瀬戸内邑久町本庄",
      "name_kana": "ローソンセトウチオクホンジョウ",
      "business_type": "① 飲食店営業",
      "address": "岡山県瀬戸内市邑久町本庄２０８２ー３",
      "lat": 34.660421,
      "lng": 134.117659,
      "geocoding_level": null,
      "phone": "0869-22-2055",
      "license_no": "岡山県指令　備前保　第330251号",
      "license_date": "2021-10-28",
      "expire_date": "2026-12-31"
    },
    {
      "name": "ローソン瀬戸内邑久町本庄",
      "name_kana": "ローソンセトウチオクホンジョウ",
      "business_type": "⑩ コンビニエンスストア",
      "address": "岡山県瀬戸内市邑久町本庄２０８２ー３",
      "lat": 34.660421,
      "lng": 134.117659,
      "geocoding_level": null,
      "phone": "0869-22-2055",
      "license_no": "",
      "license_date": null,
      "expire_date": null
    },
    {
      "name": "有限会社服部水産",
      "name_kana": "ユウゲンガイシャハットリスイサン",
      "business_type": "⑯ 水産製品製造業",
      "address": "岡山県瀬戸内市牛窓町牛窓４４３３－１０",
      "lat": 34.615793,
      "lng": 134.157553,
      "geocoding_level": null,
      "phone": "0869-34-4788",
      "license_no": "岡山県指令　備前保　第330267号",
      "license_date": "2021-11-05",
      "expire_date": "2027-09-30"
    },
    {
      "name": "有限会社服部水産",
      "name_kana": "ユウゲンガイシャハットリスイサン",
      "business_type": "① 飲食店営業",
      "address": "岡山県瀬戸内市県内一円",
      "lat": 34.664903,
      "lng": 134.09284,
      "geocoding_level": null,
      "phone": "",
      "license_no": "岡山県指令 備前保 第370355号",
      "license_date": "2026-01-14",
      "expire_date": "2031-09-30"
    },
    {
      "name": "やきや",
      "name_kana": "ヤキヤ",
      "business_type": "① 飲食店営業",
      "address": "岡山県瀬戸内市邑久町尾張８８５－１",
      "lat": 34.664139,
      "lng": 134.097683,
      "geocoding_level": null,
      "phone": "",
      "license_no": "岡山県指令　備前保　第330305号",
      "license_date": "2021-12-03",
      "expire_date": "2026-12-31"
    },
    {
      "name": "いぶきのテイクアウト",
      "name_kana": "イブキノテイクアウト",
      "business_type": "① 飲食店営業",
      "address": "岡山県瀬戸内市長船町西須恵１１７８－２",
      "lat": 34.676917,
      "lng": 134.130129,
      "geocoding_level": null,
      "phone": "050-5357-0336",
      "license_no": "岡山県指令　備前保　第330306号",
      "license_date": "2021-12-06",
      "expire_date": "2026-12-31"
    },
    {
      "name": "いぶきの惣菜",
      "name_kana": "イブキノソウザイ",
      "business_type": "㉕ そうざい製造業",
      "address": "岡山県瀬戸内市長船町西須恵１１７８－２",
      "lat": 34.676917,
      "lng": 134.130129,
      "geocoding_level": null,
      "phone": "050-5357-0336",
      "license_no": "岡山県指令　備前保　第330443号",
      "license_date": "2022-02-04",
      "expire_date": "2027-12-31"
    },
    {
      "name": "８８８米粉研究所",
      "name_kana": "ミツバチコメコケンキュウショ",
      "business_type": "⑪ 菓子製造業",
      "address": "岡山県瀬戸内市牛窓町牛窓４５２８－５",
      "lat": 34.619266,
      "lng": 134.15391,
      "geocoding_level": null,
      "phone": "",
      "license_no": "岡山県指令　備前保　第330308号",
      "license_date": "2021-12-06",
      "expire_date": "2027-09-30"
    },
    {
      "name": "裳掛手づくり農産加工グループ",
      "name_kana": "モカケテヅクリノウサンカコウグループ",
      "business_type": "㉙ 漬物製造業",
      "address": "岡山県瀬戸内市邑久町虫明１４３１－１",
      "lat": 34.693912,
      "lng": 134.214721,
      "geocoding_level": null,
      "phone": "",
      "license_no": "岡山県指令　備前保　第340051号",
      "license_date": "2022-05-30",
      "expire_date": "2027-12-31"
    },
    {
      "name": "日清エフ・ディ食品株式会社",
      "name_kana": "ニッシンエフディショクヒンカブシキガイシャ",
      "business_type": "㉜ 添加物製造業",
      "address": "岡山県瀬戸内市長船町服部２５０",
      "lat": 34.720335,
      "lng": 134.100814,
      "geocoding_level": null,
      "phone": "0869-26-2331",
      "license_no": "岡山県指令　備前保　第330366号",
      "license_date": "2021-12-22",
      "expire_date": "2026-12-31"
    },
    {
      "name": "国立療養所　邑久光明園",
      "name_kana": "コクリツリョウヨウジョ　オクコウミョウエン",
      "business_type": "㉖ 集団給食施設",
      "address": "岡山県瀬戸内市邑久町虫明6253",
      "lat": 34.671011,
      "lng": 134.22436,
      "geocoding_level": null,
      "phone": "",
      "license_no": "",
      "license_date": null,
      "expire_date": null
    },
    {
      "name": "manma naturals",
      "name_kana": "マンマナチュラルズ",
      "business_type": "㉔ その他の食料品製造・加工業",
      "address": "岡山県瀬戸内市牛窓町長浜3290-1",
      "lat": 34.640021,
      "lng": 134.132671,
      "geocoding_level": null,
      "phone": "0869-24-8477",
      "license_no": "",
      "license_date": null,
      "expire_date": null
    },
    {
      "name": "青島",
      "name_kana": "アオシマ",
      "business_type": "① 飲食店営業",
      "address": "岡山県瀬戸内市牛窓町牛窓５４０５－２",
      "lat": 34.616043,
      "lng": 134.146788,
      "geocoding_level": null,
      "phone": "0869-34-4744",
      "license_no": "岡山県指令　備前保　第330236号",
      "license_date": "2021-10-01",
      "expire_date": "2026-09-30"
    },
    {
      "name": "溶接所の屋台",
      "name_kana": "ヨウセツショノヤタイ",
      "business_type": "① 飲食店営業",
      "address": "岡山県瀬戸内市（県内一円）",
      "lat": 34.664903,
      "lng": 134.09284,
      "geocoding_level": null,
      "phone": "0869-34-2431",
      "license_no": "岡山県指令　備前保　第330240号",
      "license_date": "2021-10-05",
      "expire_date": "2027-09-30"
    },
    {
      "name": "オリーブ園ガーデンマーケット",
      "name_kana": "オリーブエンガーデンマーケット",
      "business_type": "⑦ 野菜果物販売業",
      "address": "岡山県瀬戸内市瀬戸内市牛窓町牛窓４１２−１",
      "lat": 34.625853,
      "lng": 134.156368,
      "geocoding_level": null,
      "phone": "0869-34-2370",
      "license_no": "",
      "license_date": null,
      "expire_date": null
    },
    {
      "name": "岡山村田製作所　従業員食堂",
      "name_kana": "オカヤマムラタセイサクショ　ジュウギョウインショクドウ",
      "business_type": "① 飲食店営業",
      "address": "岡山県瀬戸内市邑久町福元77 岡山村田製作所R棟2階従業員食堂",
      "lat": 34.679469,
      "lng": 134.082162,
      "geocoding_level": null,
      "phone": "",
      "license_no": "岡山県指令 備前保 第360330号",
      "license_date": "2024-12-20",
      "expire_date": "2029-12-31"
    },
    {
      "name": "牛窓ショッピング",
      "name_kana": "ウシマドショッピング",
      "business_type": "① 魚介類販売業（包装済みの魚介類のみの販売）",
      "address": "岡山県瀬戸内市牛窓町牛窓6421-1",
      "lat": 34.61978,
      "lng": 134.150164,
      "geocoding_level": null,
      "phone": "0869-34-2089",
      "license_no": "",
      "license_date": null,
      "expire_date": null
    },
    {
      "name": "株式会社栄福堂（はなやか瀬戸内店）",
      "name_kana": "カブシキガイシャエイフクドウ　ハナヤカセトウチテン",
      "business_type": "㉕ そうざい製造業",
      "address": "岡山県瀬戸内市邑久町豊原１０１－１",
      "lat": 34.66157,
      "lng": 134.089606,
      "geocoding_level": null,
      "phone": "0869-22-0714",
      "license_no": "岡山県指令　備前保　第330346号",
      "license_date": "2021-12-21",
      "expire_date": "2027-12-31"
    },
    {
      "name": "金光薬局  邑久店",
      "name_kana": "カナミツヤッキョク  オクテン",
      "business_type": "⑪ 百貨店、総合スーパー",
      "address": "岡山県瀬戸内市邑久町北島494-1",
      "lat": 34.65053,
      "lng": 134.064844,
      "geocoding_level": null,
      "phone": "",
      "license_no": "",
      "license_date": null,
      "expire_date": null
    },
    {
      "name": "金光薬局  長船店",
      "name_kana": "カナミツヤッキョク　オサフネテン",
      "business_type": "⑪ 百貨店、総合スーパー",
      "address": "岡山県瀬戸内市長船町服部522-1",
      "lat": 34.664903,
      "lng": 134.09284,
      "geocoding_level": null,
      "phone": "",
      "license_no": "",
      "license_date": null,
      "expire_date": null
    },
    {
      "name": "岡山市農業協同組合　長船支所加工室",
      "name_kana": "オカヤマシノウギョウキョウドウクミアイ　オサフネシショカコウシツ",
      "business_type": "㉔ その他の食料品製造・加工業",
      "address": "岡山県瀬戸内市長船町福里142",
      "lat": 34.700524,
      "lng": 134.117695,
      "geocoding_level": null,
      "phone": "0869-26-2003",
      "license_no": "",
      "license_date": null,
      "expire_date": null
    },
    {
      "name": "岡山市農業協同組合　長船支所加工室",
      "name_kana": "オカヤマシノウギョウキョウドウクミアイ　オサフネシショカコウシツ",
      "business_type": "① 飲食店営業",
      "address": "岡山県瀬戸内市長船町福里１４２",
      "lat": 34.69916,
      "lng": 134.117472,
      "geocoding_level": null,
      "phone": "0869-26-2003",
      "license_no": "岡山県指令　備前保　第330379号",
      "license_date": "2021-12-27",
      "expire_date": "2027-12-31"
    },
    {
      "name": "岡山市農業協同組合　長船支所加工室",
      "name_kana": "オカヤマシノウギョウキョウドウクミアイ　オサフネシショカコウシツ",
      "business_type": "⑪ 菓子製造業",
      "address": "岡山県瀬戸内市長船町福里１４２",
      "lat": 34.69916,
      "lng": 134.117472,
      "geocoding_level": null,
      "phone": "0869-26-2003",
      "license_no": "岡山県指令　備前保　第330380号",
      "license_date": "2021-12-27",
      "expire_date": "2027-12-31"
    },
    {
      "name": "岡山市農業協同組合　長船支所加工室",
      "name_kana": "オカヤマシノウギョウキョウドウクミアイ　オサフネシショカコウシツ",
      "business_type": "㉒ 豆腐製造業",
      "address": "岡山県瀬戸内市長船町福里１４２",
      "lat": 34.69916,
      "lng": 134.117472,
      "geocoding_level": null,
      "phone": "0869-26-2003",
      "license_no": "岡山県指令　備前保　第330381号",
      "license_date": "2021-12-27",
      "expire_date": "2027-12-31"
    },
    {
      "name": "ローソン備前長船店",
      "name_kana": "ローソンビゼンオサフネテン",
      "business_type": "⑩ コンビニエンスストア",
      "address": "岡山県瀬戸内市長船町八日市５４２番地3",
      "lat": 34.664903,
      "lng": 134.09284,
      "geocoding_level": null,
      "phone": "0869-26-9830",
      "license_no": "",
      "license_date": null,
      "expire_date": null
    },
    {
      "name": "ローソン備前長船店",
      "name_kana": "ローソンビゼンオサフネテン",
      "business_type": "① 飲食店営業",
      "address": "岡山県瀬戸内市長船町八日市５４２－３",
      "lat": 34.714978,
      "lng": 134.096755,
      "geocoding_level": null,
      "phone": "0869-26-9830",
      "license_no": "岡山県指令　備前保　第340091号",
      "license_date": "2022-06-21",
      "expire_date": "2027-12-31"
    },
    {
      "name": "前島研修所",
      "name_kana": "マエジマケンシュウショ",
      "business_type": "㉖ 集団給食施設",
      "address": "岡山県瀬戸内市牛窓町牛窓6274-14",
      "lat": 34.605606,
      "lng": 134.177805,
      "geocoding_level": null,
      "phone": "0869248586",
      "license_no": "",
      "license_date": null,
      "expire_date": null
    },
    {
      "name": "Tohito",
      "name_kana": "トヒト",
      "business_type": "⑬ その他の食料・飲料販売業",
      "address": "岡山県瀬戸内市牛窓町牛窓5515-5",
      "lat": 34.621607,
      "lng": 134.157786,
      "geocoding_level": null,
      "phone": "080-6303-5129",
      "license_no": "",
      "license_date": null,
      "expire_date": null
    },
    {
      "name": "いこいファーム",
      "name_kana": "イコイファーム",
      "business_type": "㉔ その他の食料品製造・加工業",
      "address": "岡山県瀬戸内市邑久町本庄3968",
      "lat": 34.651577,
      "lng": 134.118488,
      "geocoding_level": null,
      "phone": "0869-22-2266",
      "license_no": "",
      "license_date": null,
      "expire_date": null
    },
    {
      "name": "牛窓オリーブガーデンマーケット",
      "name_kana": "ウシマドオリーブガーデンマーケット",
      "business_type": "⑬ その他の食料・飲料販売業",
      "address": "岡山県瀬戸内市（県内一円）",
      "lat": 34.664903,
      "lng": 134.09284,
      "geocoding_level": null,
      "phone": "",
      "license_no": "",
      "license_date": null,
      "expire_date": null
    },
    {
      "name": "卸売市場邑久町漁業魚市場",
      "name_kana": "オロシウリシジョウオクチョウギョギョウウオイチバ",
      "business_type": "⑤ 魚介類競り売り営業",
      "address": "岡山県瀬戸内市邑久町虫明4256",
      "lat": 34.683892,
      "lng": 134.212356,
      "geocoding_level": null,
      "phone": "0869-25-0231",
      "license_no": "岡山県指令　備前保　第370310号",
      "license_date": "2025-12-15",
      "expire_date": "2031-12-31"
    },
    {
      "name": "邑久町漁業協同組合冷蔵荷捌き施設",
      "name_kana": "オクチョウギョギョウキョウドウクミアイレイゾウニサバキシセツ",
      "business_type": "⑤ 魚介類競り売り営業",
      "address": "岡山県瀬戸内市邑久町虫明4255-2",
      "lat": 34.684197,
      "lng": 134.212243,
      "geocoding_level": null,
      "phone": "0869-25-0231",
      "license_no": "岡山県指令　備前保　第370380号",
      "license_date": "2026-02-19",
      "expire_date": "2031-12-31"
    },
    {
      "name": "特定非営利活動法人　あいあいの杜　わくわく保育園",
      "name_kana": "トクテイヒエイリカツドウホウジン　アイアイノモリ　ワクワクホイクエン",
      "business_type": "㉖ 集団給食施設",
      "address": "岡山県瀬戸内市長船町福岡８３３",
      "lat": 34.664903,
      "lng": 134.09284,
      "geocoding_level": null,
      "phone": "0869-24-8601",
      "license_no": "",
      "license_date": null,
      "expire_date": null
    },
    {
      "name": "株式会社フィールド",
      "name_kana": "カブシキガイシャフィールド",
      "business_type": "① 飲食店営業",
      "address": "岡山県瀬戸内市県下一円",
      "lat": 34.664903,
      "lng": 134.09284,
      "geocoding_level": null,
      "phone": "",
      "license_no": "岡山県指令　備前保　第350356号",
      "license_date": "2023-11-24",
      "expire_date": "2029-05-31"
    },
    {
      "name": "しばいぬクレープ",
      "name_kana": "シバイヌクレープ",
      "business_type": "① 飲食店営業",
      "address": "岡山県瀬戸内市牛窓町牛窓４８１０",
      "lat": 34.620753,
      "lng": 134.148615,
      "geocoding_level": null,
      "phone": "",
      "license_no": "岡山県指令　備前保 第340006号",
      "license_date": "2022-04-13",
      "expire_date": "2027-09-30"
    },
    {
      "name": "ＯＩＭＯ　ＮＯ　ＯＫＡＭＯＴＯ",
      "name_kana": "オイモ　ノ　オカモト",
      "business_type": "① 飲食店営業",
      "address": "岡山県瀬戸内市（県内一円）",
      "lat": 34.664903,
      "lng": 134.09284,
      "geocoding_level": null,
      "phone": "0869-93-4065",
      "license_no": "岡山県指令　備前保　第340007号",
      "license_date": "2022-04-14",
      "expire_date": "2027-09-30"
    },
    {
      "name": "ビレッジストア玉津",
      "name_kana": "ビレッジストアタマツ",
      "business_type": "④ 魚介類販売業",
      "address": "岡山県瀬戸内市邑久町尻海2820-1",
      "lat": 34.648631,
      "lng": 134.156189,
      "geocoding_level": null,
      "phone": "0869-24-1009",
      "license_no": "岡山県指令　備前保　第350209号",
      "license_date": "2023-09-20",
      "expire_date": "2028-12-31"
    },
    {
      "name": "ビレッジストア玉津",
      "name_kana": "ビレッジストアタマツ",
      "business_type": "① 飲食店営業",
      "address": "岡山県瀬戸内市邑久町尻海2820-1",
      "lat": 34.648631,
      "lng": 134.156189,
      "geocoding_level": null,
      "phone": "0869-24-1009",
      "license_no": "岡山県指令　備前保　第340174号",
      "license_date": "2022-08-19",
      "expire_date": "2027-12-31"
    },
    {
      "name": "牛窓食品加工センター",
      "name_kana": "ウシマドショクヒンカコウセンター",
      "business_type": "㉕ そうざい製造業",
      "address": "岡山県瀬戸内市牛窓町長浜6852-6",
      "lat": 34.64231,
      "lng": 134.143935,
      "geocoding_level": null,
      "phone": "",
      "license_no": "岡山県指令　備前保　第330371号",
      "license_date": "2021-12-24",
      "expire_date": "2027-09-30"
    },
    {
      "name": "牛窓食品加工センター",
      "name_kana": "ウシマドショクヒンカコウセンター",
      "business_type": "㉚ 密封包装食品製造業",
      "address": "岡山県瀬戸内市牛窓町長浜6852-6",
      "lat": 34.64231,
      "lng": 134.143935,
      "geocoding_level": null,
      "phone": "",
      "license_no": "岡山県指令　備前保　第330372号",
      "license_date": "2021-12-24",
      "expire_date": "2027-09-30"
    },
    {
      "name": "牛窓食品加工センター",
      "name_kana": "ウシマドショクヒンカコウセンター",
      "business_type": "㉕ そうざい製造業",
      "address": "岡山県瀬戸内市牛窓町長浜6852-6",
      "lat": 34.64231,
      "lng": 134.143935,
      "geocoding_level": null,
      "phone": "",
      "license_no": "岡山県指令　備前保　第330459号",
      "license_date": "2022-02-28",
      "expire_date": "2027-02-28"
    },
    {
      "name": "牛窓食品加工センター",
      "name_kana": "ウシマドショクヒンカコウセンター",
      "business_type": "㉗ 冷凍食品製造業",
      "address": "岡山県瀬戸内市牛窓町長浜6852-6",
      "lat": 34.64231,
      "lng": 134.143935,
      "geocoding_level": null,
      "phone": "",
      "license_no": "岡山県指令　備前保　第330460号",
      "license_date": "2022-02-28",
      "expire_date": "2027-02-28"
    },
    {
      "name": "ビレッジストア玉津",
      "name_kana": "ビレッジストアタマツ",
      "business_type": "⑩ コンビニエンスストア",
      "address": "岡山県瀬戸内市邑久町尻海2820-1",
      "lat": 34.648631,
      "lng": 134.156189,
      "geocoding_level": null,
      "phone": "0869-24-1009",
      "license_no": "",
      "license_date": null,
      "expire_date": null
    },
    {
      "name": "牛窓食品加工センター",
      "name_kana": "ウシマドショクヒンカコウセンター",
      "business_type": "⑪ 菓子製造業",
      "address": "岡山県瀬戸内市牛窓町長浜6852-6",
      "lat": 34.64231,
      "lng": 134.143935,
      "geocoding_level": null,
      "phone": "",
      "license_no": "岡山県指令　備前保　第340023号",
      "license_date": "2022-05-13",
      "expire_date": "2027-09-30"
    },
    {
      "name": "いもと養蜂園",
      "name_kana": "イモトヨウホウエン",
      "business_type": "㉔ その他の食料品製造・加工業",
      "address": "岡山県瀬戸内市牛窓町鹿忍2627-97",
      "lat": 34.625417,
      "lng": 134.128402,
      "geocoding_level": null,
      "phone": "",
      "license_no": "",
      "license_date": null,
      "expire_date": null
    },
    {
      "name": "ＳＣＨＮＡ",
      "name_kana": "シュナ",
      "business_type": "① 飲食店営業",
      "address": "岡山県瀬戸内市長船町土師１４２－１２",
      "lat": 34.702034,
      "lng": 134.100988,
      "geocoding_level": null,
      "phone": "0869-26-4037",
      "license_no": "岡山県指令　備前保　第340017号",
      "license_date": "2022-04-25",
      "expire_date": "2027-12-31"
    },
    {
      "name": "ミスターバーグ邑久店",
      "name_kana": "ミスターバーグオクテン",
      "business_type": "① 飲食店営業",
      "address": "岡山県瀬戸内市邑久町豊原１９８－１",
      "lat": 34.660858,
      "lng": 134.086652,
      "geocoding_level": null,
      "phone": "0869-22-1266",
      "license_no": "岡山県指令　備前保　第340050号",
      "license_date": "2022-05-30",
      "expire_date": "2027-12-31"
    },
    {
      "name": "ファミリーマート長船船山店",
      "name_kana": "ファミリーマートオサフネフナヤマテン",
      "business_type": "⑩ コンビニエンスストア",
      "address": "岡山県瀬戸内市長船町長船1082-1",
      "lat": 34.725784,
      "lng": 134.107876,
      "geocoding_level": null,
      "phone": "0869-66-6139",
      "license_no": "",
      "license_date": null,
      "expire_date": null
    },
    {
      "name": "ファミリーマート長船船山店",
      "name_kana": "ファミリーマートオサフネフナヤマテン",
      "business_type": "① 飲食店営業",
      "address": "岡山県瀬戸内市長船町長船１０８２－１",
      "lat": 34.725784,
      "lng": 134.107876,
      "geocoding_level": null,
      "phone": "0869-66-6139",
      "license_no": "岡山県指令　備前保　第350149号",
      "license_date": "2023-08-24",
      "expire_date": "2028-12-31"
    },
    {
      "name": "白十字　邑久店",
      "name_kana": "ハクジュウジ　オクテン",
      "business_type": "㉙ その他",
      "address": "岡山県瀬戸内市邑久町豊原97-1",
      "lat": 34.662574,
      "lng": 134.089587,
      "geocoding_level": null,
      "phone": "0869242525",
      "license_no": "",
      "license_date": null,
      "expire_date": null
    },
    {
      "name": "わたなべ生鮮館　瀬戸内インター店",
      "name_kana": "ワタナベセイセンカン　セトウチインターテン",
      "business_type": "⑪ 百貨店、総合スーパー",
      "address": "岡山県瀬戸内市邑久町豊原336番1",
      "lat": 34.65715,
      "lng": 134.089044,
      "geocoding_level": null,
      "phone": "0869-24-7753",
      "license_no": "",
      "license_date": null,
      "expire_date": null
    },
    {
      "name": "saramsaran",
      "name_kana": "サラムサラン",
      "business_type": "㉔ その他の食料品製造・加工業",
      "address": "岡山県瀬戸内市県内一円",
      "lat": 34.664903,
      "lng": 134.09284,
      "geocoding_level": null,
      "phone": "080-6249-2323",
      "license_no": "",
      "license_date": null,
      "expire_date": null
    },
    {
      "name": "９フルーツ",
      "name_kana": "ナインフルーツ",
      "business_type": "① 飲食店営業",
      "address": "岡山県瀬戸内市(県内一円）",
      "lat": 34.664903,
      "lng": 134.09284,
      "geocoding_level": null,
      "phone": "",
      "license_no": "岡山県指令　備前保　第340030号",
      "license_date": "2022-05-20",
      "expire_date": "2027-12-31"
    },
    {
      "name": "山銀商店",
      "name_kana": "ヤマギンショウテン",
      "business_type": "① 魚介類販売業（包装済みの魚介類のみの販売）",
      "address": "岡山県瀬戸内市邑久町虫明県内一円",
      "lat": 34.693912,
      "lng": 134.214721,
      "geocoding_level": null,
      "phone": "",
      "license_no": "",
      "license_date": null,
      "expire_date": null
    },
    {
      "name": "サトウキビ工房あづま",
      "name_kana": "サトウキビコウボウアヅマ",
      "business_type": "⑲ 糖類製造・加工業",
      "address": "岡山県瀬戸内市邑久町豆田県内一円",
      "lat": 34.68851,
      "lng": 134.084145,
      "geocoding_level": null,
      "phone": "",
      "license_no": "",
      "license_date": null,
      "expire_date": null
    },
    {
      "name": "民泊田舎暮らし",
      "name_kana": "ミンパクイナカグラシ",
      "business_type": "① 飲食店営業",
      "address": "岡山県瀬戸内市長船町長船２０２",
      "lat": 34.664903,
      "lng": 134.09284,
      "geocoding_level": null,
      "phone": "070-4410-7562",
      "license_no": "岡山県指令　備前保　第350367号",
      "license_date": "2023-12-04",
      "expire_date": "2028-12-31"
    },
    {
      "name": "カラオケスタジオももの花",
      "name_kana": "カラオケスタジオモモノハナ",
      "business_type": "① 飲食店営業",
      "address": "岡山県瀬戸内市長船町飯井６７２－１",
      "lat": 34.689432,
      "lng": 134.152447,
      "geocoding_level": null,
      "phone": "0869-26-6725",
      "license_no": "岡山県指令　備前保　第330327号",
      "license_date": "2021-12-16",
      "expire_date": "2027-12-31"
    },
    {
      "name": "長船カントリークラブ",
      "name_kana": "オサフネカントリークラブ",
      "business_type": "① 飲食店営業",
      "address": "岡山県瀬戸内市長船町福岡４９－１",
      "lat": 34.708614,
      "lng": 134.092057,
      "geocoding_level": null,
      "phone": "0869-26-2261",
      "license_no": "岡山県指令　備前保　第330330号",
      "license_date": "2021-12-16",
      "expire_date": "2027-12-31"
    },
    {
      "name": "舎和",
      "name_kana": "トワ",
      "business_type": "① 飲食店営業",
      "address": "岡山県瀬戸内市長船町福岡３４４－６",
      "lat": 34.703359,
      "lng": 134.099837,
      "geocoding_level": null,
      "phone": "0869-26-2633",
      "license_no": "岡山県指令　備前保　第330332号",
      "license_date": "2021-12-16",
      "expire_date": "2027-12-31"
    },
    {
      "name": "マルヨシ",
      "name_kana": "マルヨシ",
      "business_type": "① 飲食店営業",
      "address": "岡山県瀬戸内市長船町長船１１４－２",
      "lat": 34.726432,
      "lng": 134.108637,
      "geocoding_level": null,
      "phone": "0869-66-9298",
      "license_no": "岡山県指令　備前保　第330335号",
      "license_date": "2021-12-16",
      "expire_date": "2027-12-31"
    },
    {
      "name": "招き猫とら",
      "name_kana": "マネキネコトラ",
      "business_type": "① 飲食店営業",
      "address": "岡山県瀬戸内市長船町服部３９７－１",
      "lat": 34.712985,
      "lng": 134.106298,
      "geocoding_level": null,
      "phone": "0869-26-5541",
      "license_no": "岡山県指令　備前保　第330336号",
      "license_date": "2021-12-16",
      "expire_date": "2027-12-31"
    },
    {
      "name": "肉の藤原",
      "name_kana": "ニクノフジワラ",
      "business_type": "③ 食肉販売業",
      "address": "岡山県瀬戸内市長船町服部６９５－１",
      "lat": 34.710053,
      "lng": 134.104632,
      "geocoding_level": null,
      "phone": "0869-26-2070",
      "license_no": "岡山県指令　備前保　第330337号",
      "license_date": "2021-12-16",
      "expire_date": "2027-12-31"
    },
    {
      "name": "長船ビジネスホテルＳＴＫ",
      "name_kana": "オサフネビジネスホテルエスティケイ",
      "business_type": "① 飲食店営業",
      "address": "岡山県瀬戸内市長船町服部３６４－２",
      "lat": 34.713917,
      "lng": 134.106781,
      "geocoding_level": null,
      "phone": "0869-26-2080",
      "license_no": "岡山県指令　備前保　第330339号",
      "license_date": "2021-12-16",
      "expire_date": "2027-12-31"
    },
    {
      "name": "千扇",
      "name_kana": "チセン",
      "business_type": "① 飲食店営業",
      "address": "岡山県瀬戸内市長船町服部３６４－２",
      "lat": 34.713917,
      "lng": 134.106781,
      "geocoding_level": null,
      "phone": "0869-26-2080",
      "license_no": "岡山県指令　備前保　第330343号",
      "license_date": "2021-12-21",
      "expire_date": "2027-12-31"
    },
    {
      "name": "しもふり亭",
      "name_kana": "シモフリテイ",
      "business_type": "① 飲食店営業",
      "address": "岡山県瀬戸内市邑久町豊原９９－７",
      "lat": 34.661868,
      "lng": 134.089141,
      "geocoding_level": null,
      "phone": "0869-24-0766",
      "license_no": "岡山県指令　備前保　第330348号",
      "license_date": "2021-12-21",
      "expire_date": "2027-12-31"
    },
    {
      "name": "食べ処　彩肴",
      "name_kana": "タベドコロ　サキ",
      "business_type": "① 飲食店営業",
      "address": "岡山県瀬戸内市邑久町福元６０８－３２５",
      "lat": 34.673156,
      "lng": 134.088956,
      "geocoding_level": null,
      "phone": "0869-24-1799",
      "license_no": "岡山県指令　備前保　第330349号",
      "license_date": "2021-12-21",
      "expire_date": "2027-12-31"
    },
    {
      "name": "牡蠣の家しおかぜ",
      "name_kana": "カキノイエシオカゼ",
      "business_type": "㉕ そうざい製造業",
      "address": "岡山県瀬戸内市邑久町虫明３９０１－１",
      "lat": 34.682307,
      "lng": 134.219888,
      "geocoding_level": null,
      "phone": "090-7500-8786",
      "license_no": "岡山県指令　備前保　第330353号",
      "license_date": "2021-12-21",
      "expire_date": "2027-12-31"
    },
    {
      "name": "三愛加工センター",
      "name_kana": "サンアイカコウセンター",
      "business_type": "⑨ 食肉処理業",
      "address": "岡山県瀬戸内市邑久町山田庄146-1",
      "lat": 34.668695,
      "lng": 134.089294,
      "geocoding_level": null,
      "phone": "0869-22-0563",
      "license_no": "岡山県指令　備前保　第370307号",
      "license_date": "2025-12-15",
      "expire_date": "2031-12-31"
    },
    {
      "name": "日清医療食品　にじいろスクエア事業所",
      "name_kana": "ニッシンイリョウショクヒン　ニジイロスクエアジギョウショ",
      "business_type": "① 飲食店営業",
      "address": "岡山県瀬戸内市邑久町山田庄８７３－１",
      "lat": 34.665368,
      "lng": 134.101536,
      "geocoding_level": null,
      "phone": "0869-24-7067",
      "license_no": "岡山県指令　備前保　第330382号",
      "license_date": "2021-12-27",
      "expire_date": "2027-12-31"
    },
    {
      "name": "港の中のキッサテン",
      "name_kana": "ミナトノナカノキッサテン",
      "business_type": "① 飲食店営業",
      "address": "岡山県瀬戸内市牛窓町牛窓５４１４－７",
      "lat": 34.612433,
      "lng": 134.146399,
      "geocoding_level": null,
      "phone": "0869-24-8970",
      "license_no": "岡山県指令　備前保　第370158号",
      "license_date": "2025-09-16",
      "expire_date": "2031-09-30"
    },
    {
      "name": "キッチン　かいぞく",
      "name_kana": "キッチン　カイゾク",
      "business_type": "① 飲食店営業",
      "address": "岡山県瀬戸内市（県内一円）",
      "lat": 34.664903,
      "lng": 134.09284,
      "geocoding_level": null,
      "phone": "0869-34-4741",
      "license_no": "岡山県指令　備前保　第330084号",
      "license_date": "2021-07-16",
      "expire_date": "2026-09-30"
    },
    {
      "name": "牛窓朝市",
      "name_kana": "ウシマドアサイチ",
      "business_type": "① 飲食店営業",
      "address": "岡山県瀬戸内市牛窓町牛窓綾浦島緑地",
      "lat": 34.616073,
      "lng": 134.157398,
      "geocoding_level": null,
      "phone": "",
      "license_no": "岡山県指令　備前保　第330100号",
      "license_date": "2021-07-26",
      "expire_date": "2026-09-30"
    },
    {
      "name": "畑丈",
      "name_kana": "ハタケ",
      "business_type": "① 飲食店営業",
      "address": "岡山県瀬戸内市（県内一円）",
      "lat": 34.664903,
      "lng": 134.09284,
      "geocoding_level": null,
      "phone": "",
      "license_no": "岡山県指令　備前保　第330113号",
      "license_date": "2021-07-28",
      "expire_date": "2026-12-31"
    },
    {
      "name": "サブ",
      "name_kana": "サブ",
      "business_type": "① 飲食店営業",
      "address": "岡山県瀬戸内市牛窓町鹿忍９７１－２",
      "lat": 34.616911,
      "lng": 134.13868,
      "geocoding_level": null,
      "phone": "0869-34-6012",
      "license_no": "岡山県指令　備前保　第330172号",
      "license_date": "2021-09-14",
      "expire_date": "2027-09-30"
    },
    {
      "name": "ｃｙｏｉ－ｃｙｏｉ　Ｓｔｙｌｅ",
      "name_kana": "チョイ　チョイ　スタイル",
      "business_type": "① 飲食店営業",
      "address": "岡山県瀬戸内市牛窓町鹿忍６３４８－１６",
      "lat": 34.602633,
      "lng": 134.131798,
      "geocoding_level": null,
      "phone": "",
      "license_no": "岡山県指令　備前保　第330173号",
      "license_date": "2021-09-14",
      "expire_date": "2027-09-30"
    },
    {
      "name": "珈琲べるまーど",
      "name_kana": "コーヒーベルマード",
      "business_type": "① 飲食店営業",
      "address": "岡山県瀬戸内市牛窓町鹿忍２６２７－４６",
      "lat": 34.625398,
      "lng": 134.128013,
      "geocoding_level": null,
      "phone": "",
      "license_no": "岡山県指令　備前保　第330174号",
      "license_date": "2021-09-14",
      "expire_date": "2027-09-30"
    },
    {
      "name": "ヒロタ",
      "name_kana": "ヒロタ",
      "business_type": "⑪ 菓子製造業",
      "address": "岡山県瀬戸内市牛窓町鹿忍７３１５",
      "lat": 34.590372,
      "lng": 134.116636,
      "geocoding_level": null,
      "phone": "0869-34-3026",
      "license_no": "岡山県指令　備前保　第330175号",
      "license_date": "2021-09-14",
      "expire_date": "2027-09-30"
    },
    {
      "name": "牛転",
      "name_kana": "ウシマロビ",
      "business_type": "① 飲食店営業",
      "address": "岡山県瀬戸内市牛窓町牛窓３０６１",
      "lat": 34.615776,
      "lng": 134.164517,
      "geocoding_level": null,
      "phone": "",
      "license_no": "岡山県指令　備前保　第330176号",
      "license_date": "2021-09-14",
      "expire_date": "2027-09-30"
    },
    {
      "name": "瀬戸の華",
      "name_kana": "セトノハナ",
      "business_type": "① 飲食店営業",
      "address": "岡山県瀬戸内市牛窓町牛窓１６０５－９",
      "lat": 34.627745,
      "lng": 134.176898,
      "geocoding_level": null,
      "phone": "0869-34-5411",
      "license_no": "岡山県指令　備前保　第330179号",
      "license_date": "2021-09-14",
      "expire_date": "2027-09-30"
    },
    {
      "name": "潤",
      "name_kana": "ジュン",
      "business_type": "① 飲食店営業",
      "address": "岡山県瀬戸内市牛窓町長浜６８８５",
      "lat": 34.628853,
      "lng": 134.139988,
      "geocoding_level": null,
      "phone": "0869-34-4253",
      "license_no": "岡山県指令　備前保　第330181号",
      "license_date": "2021-09-14",
      "expire_date": "2027-09-30"
    },
    {
      "name": "中光商店",
      "name_kana": "ナカミツショウテン",
      "business_type": "⑯ 水産製品製造業",
      "address": "岡山県瀬戸内市牛窓町牛窓３９１１",
      "lat": 34.617671,
      "lng": 134.159807,
      "geocoding_level": null,
      "phone": "0869-34-2159",
      "license_no": "岡山県指令　備前保　第330203号",
      "license_date": "2021-09-21",
      "expire_date": "2027-09-30"
    },
    {
      "name": "中光商店",
      "name_kana": "ナカミツショウテン",
      "business_type": "① 飲食店営業",
      "address": "岡山県瀬戸内市牛窓町牛窓３９１１",
      "lat": 34.617671,
      "lng": 134.159807,
      "geocoding_level": null,
      "phone": "0869-34-2159",
      "license_no": "岡山県指令　備前保　第330204号",
      "license_date": "2021-09-21",
      "expire_date": "2027-09-30"
    },
    {
      "name": "牛窓町漁業協同組合",
      "name_kana": "ウシマドチョウギョウキョウドウクミアイ",
      "business_type": "④ 魚介類販売業",
      "address": "岡山県瀬戸内市牛窓町牛窓３９０９－１",
      "lat": 34.616892,
      "lng": 134.160716,
      "geocoding_level": null,
      "phone": "0869-34-3065",
      "license_no": "岡山県指令　備前保　第330205号",
      "license_date": "2021-09-21",
      "expire_date": "2027-09-30"
    },
    {
      "name": "牛窓魚市場",
      "name_kana": "ウシマドウオイチバ",
      "business_type": "⑤ 魚介類競り売り営業",
      "address": "岡山県瀬戸内市牛窓町牛窓３９０９－１",
      "lat": 34.616892,
      "lng": 134.160716,
      "geocoding_level": null,
      "phone": "0869-34-3065",
      "license_no": "岡山県指令　備前保　第330206号",
      "license_date": "2021-09-21",
      "expire_date": "2027-09-30"
    },
    {
      "name": "並樹路",
      "name_kana": "アベニュー",
      "business_type": "① 飲食店営業",
      "address": "岡山県瀬戸内市６３２５－１",
      "lat": 34.664903,
      "lng": 134.09284,
      "geocoding_level": null,
      "phone": "0869-34-5959",
      "license_no": "岡山県指令　備前保　第330207号",
      "license_date": "2021-09-21",
      "expire_date": "2027-09-30"
    },
    {
      "name": "カラオケ喫茶　花どけい",
      "name_kana": "カラオケキッサ　ハナドケイ",
      "business_type": "① 飲食店営業",
      "address": "岡山県瀬戸内市邑久町尾張１８４－１",
      "lat": 34.667672,
      "lng": 134.091815,
      "geocoding_level": null,
      "phone": "",
      "license_no": "岡山県指令　備前保　第340172号",
      "license_date": "2022-08-15",
      "expire_date": "2027-12-31"
    },
    {
      "name": "甘薯屋ＩＭＯＭＩ",
      "name_kana": "カンショヤイモミ",
      "business_type": "① 飲食店営業",
      "address": "岡山県瀬戸内市（県内一円）",
      "lat": 34.664903,
      "lng": 134.09284,
      "geocoding_level": null,
      "phone": "",
      "license_no": "岡山県指令　備前保　第340175号",
      "license_date": "2022-08-29",
      "expire_date": "2027-12-31"
    },
    {
      "name": "Ｔｈｅ　アイランド",
      "name_kana": "ザ　アイランド",
      "business_type": "① 飲食店営業",
      "address": "岡山県瀬戸内市牛窓町鹿忍６７１０－１",
      "lat": 34.597864,
      "lng": 134.126176,
      "geocoding_level": null,
      "phone": "",
      "license_no": "岡山県指令　備前保　第340194号",
      "license_date": "2022-09-15",
      "expire_date": "2027-09-30"
    },
    {
      "name": "干し肉ひとはら",
      "name_kana": "ホシニクヒトハラ",
      "business_type": "⑮ 食肉製品製造業",
      "address": "岡山県瀬戸内市牛窓町鹿忍６７１０－１",
      "lat": 34.597864,
      "lng": 134.126176,
      "geocoding_level": null,
      "phone": "",
      "license_no": "岡山県指令　備前保　第340195号",
      "license_date": "2022-09-15",
      "expire_date": "2027-09-30"
    },
    {
      "name": "民宿　味惣",
      "name_kana": "ミンシュク　アジソウ",
      "business_type": "① 飲食店営業",
      "address": "岡山県瀬戸内市牛窓町牛窓２２５５－２",
      "lat": 34.619333,
      "lng": 134.171322,
      "geocoding_level": null,
      "phone": "0869-34-4683",
      "license_no": "岡山県指令　備前保　第340222号",
      "license_date": "2022-09-22",
      "expire_date": "2028-09-30"
    },
    {
      "name": "レストラン新月",
      "name_kana": "レストランシンゲツ",
      "business_type": "① 飲食店営業",
      "address": "岡山県瀬戸内市牛窓町牛窓２２２２－４",
      "lat": 34.618935,
      "lng": 134.169931,
      "geocoding_level": null,
      "phone": "0869-34-4506",
      "license_no": "岡山県指令　備前保　第340223号",
      "license_date": "2022-09-22",
      "expire_date": "2028-09-30"
    },
    {
      "name": "うしまど茶屋　潮菜",
      "name_kana": "ウシマドチャヤ　シオサイ",
      "business_type": "① 飲食店営業",
      "address": "岡山県瀬戸内市牛窓町牛窓２４４８",
      "lat": 34.616563,
      "lng": 134.170506,
      "geocoding_level": null,
      "phone": "0869-34-2636",
      "license_no": "岡山県指令　備前保　第340224号",
      "license_date": "2022-09-22",
      "expire_date": "2028-09-30"
    },
    {
      "name": "寿司勝",
      "name_kana": "スシカツ",
      "business_type": "① 飲食店営業",
      "address": "岡山県瀬戸内市牛窓町牛窓３０１８－１",
      "lat": 34.614564,
      "lng": 134.165362,
      "geocoding_level": null,
      "phone": "0869-34-3152",
      "license_no": "岡山県指令　備前保　第340225号",
      "license_date": "2022-09-22",
      "expire_date": "2028-09-30"
    },
    {
      "name": "中山精肉店",
      "name_kana": "ナカヤマセイニクテン",
      "business_type": "③ 食肉販売業",
      "address": "岡山県瀬戸内市牛窓町牛窓４１７５",
      "lat": 34.617686,
      "lng": 134.15929,
      "geocoding_level": null,
      "phone": "0869-34-2293",
      "license_no": "岡山県指令　備前保　第340226号",
      "license_date": "2022-09-22",
      "expire_date": "2028-09-30"
    },
    {
      "name": "福岡屋旅館",
      "name_kana": "フクオカヤリョカン",
      "business_type": "① 飲食店営業",
      "address": "岡山県瀬戸内市牛窓町牛窓４３７４",
      "lat": 34.617885,
      "lng": 134.157703,
      "geocoding_level": null,
      "phone": "0869-34-2016",
      "license_no": "岡山県指令　備前保　第340227号",
      "license_date": "2022-09-22",
      "expire_date": "2028-09-30"
    },
    {
      "name": "コピオ",
      "name_kana": "コピオ",
      "business_type": "① 飲食店営業",
      "address": "岡山県瀬戸内市牛窓町牛窓４７９－４",
      "lat": 34.626132,
      "lng": 134.160305,
      "geocoding_level": null,
      "phone": "0869-34-6446",
      "license_no": "岡山県指令　備前保　第340229号",
      "license_date": "2022-09-22",
      "expire_date": "2028-09-30"
    },
    {
      "name": "コピオ",
      "name_kana": "コピオ",
      "business_type": "⑫ アイスクリーム類製造業",
      "address": "岡山県瀬戸内市牛窓町牛窓４７９－４",
      "lat": 34.626132,
      "lng": 134.160305,
      "geocoding_level": null,
      "phone": "0869-34-6446",
      "license_no": "岡山県指令　備前保　第340230号",
      "license_date": "2022-09-22",
      "expire_date": "2028-09-30"
    },
    {
      "name": "日本オリーブ(株)工場",
      "name_kana": "ニッポンオリーブカブシキガイシャコウジョウ",
      "business_type": "⑲ 食用油脂製造業",
      "address": "岡山県瀬戸内市牛窓町牛窓３８１４－１",
      "lat": 34.619019,
      "lng": 134.162793,
      "geocoding_level": null,
      "phone": "0869-34-9112",
      "license_no": "岡山県指令　備前保　第340241号",
      "license_date": "2022-09-28",
      "expire_date": "2028-09-30"
    },
    {
      "name": "唐琴荘",
      "name_kana": "カラコトソウ",
      "business_type": "① 飲食店営業",
      "address": "岡山県瀬戸内市牛窓町牛窓５７８２－２",
      "lat": 34.610996,
      "lng": 134.172248,
      "geocoding_level": null,
      "phone": "0869-34-2191",
      "license_no": "岡山県指令　備前保　第340243号",
      "license_date": "2022-09-28",
      "expire_date": "2028-09-30"
    },
    {
      "name": "おふくろの家",
      "name_kana": "オフクロノイエ",
      "business_type": "① 飲食店営業",
      "address": "岡山県瀬戸内市牛窓町牛窓６０５１",
      "lat": 34.605537,
      "lng": 134.171507,
      "geocoding_level": null,
      "phone": "0869-34-2190",
      "license_no": "岡山県指令　備前保　第340244号",
      "license_date": "2022-09-28",
      "expire_date": "2028-09-30"
    },
    {
      "name": "南風荘",
      "name_kana": "ナンプウソウ",
      "business_type": "① 飲食店営業",
      "address": "岡山県瀬戸内市牛窓町牛窓６０９０",
      "lat": 34.605329,
      "lng": 134.174374,
      "geocoding_level": null,
      "phone": "0869-34-3381",
      "license_no": "岡山県指令　備前保　第340245号",
      "license_date": "2022-09-28",
      "expire_date": "2028-09-30"
    },
    {
      "name": "ペンション　アンフォーラ",
      "name_kana": "ペンション　アンフォーラ",
      "business_type": "① 飲食店営業",
      "address": "岡山県瀬戸内市牛窓町鹿忍６１０１－１７",
      "lat": 34.603728,
      "lng": 134.121221,
      "geocoding_level": null,
      "phone": "0869-34-5688",
      "license_no": "岡山県指令　備前保　第340246号",
      "license_date": "2022-09-28",
      "expire_date": "2028-09-30"
    },
    {
      "name": "ポッケ",
      "name_kana": "ポッケ",
      "business_type": "① 飲食店営業",
      "address": "岡山県瀬戸内市牛窓町鹿忍６１０１－２５",
      "lat": 34.603559,
      "lng": 134.121017,
      "geocoding_level": null,
      "phone": "0869-34-5434",
      "license_no": "岡山県指令　備前保　第340247号",
      "license_date": "2022-09-28",
      "expire_date": "2028-09-30"
    },
    {
      "name": "オーベルジュ・はまだ",
      "name_kana": "オーベルジュ・ハマダ",
      "business_type": "① 飲食店営業",
      "address": "岡山県瀬戸内市牛窓町長浜３２４３－１",
      "lat": 34.640906,
      "lng": 134.131593,
      "geocoding_level": null,
      "phone": "0869-34-9031",
      "license_no": "岡山県指令　備前保　第340250号",
      "license_date": "2022-09-28",
      "expire_date": "2028-09-30"
    },
    {
      "name": "マルナカ長船店",
      "name_kana": "マルナカオサフネテン",
      "business_type": "⑪ 百貨店、総合スーパー",
      "address": "岡山県瀬戸内市長船町服部390-1",
      "lat": 34.712775,
      "lng": 134.106799,
      "geocoding_level": null,
      "phone": "0869-26-5335",
      "license_no": "",
      "license_date": null,
      "expire_date": null
    },
    {
      "name": "マルナカ長船店",
      "name_kana": "マルナカオサフネテン",
      "business_type": "① 飲食店営業",
      "address": "岡山県瀬戸内市長船町服部390-1",
      "lat": 34.712775,
      "lng": 134.106799,
      "geocoding_level": null,
      "phone": "086-926-5335",
      "license_no": "岡山県指令　備前保　第350068号",
      "license_date": "2023-06-13",
      "expire_date": "2028-12-31"
    },
    {
      "name": "マルナカ長船店",
      "name_kana": "マルナカオサフネテン",
      "business_type": "③ 食肉販売業",
      "address": "岡山県瀬戸内市長船町服部390-1",
      "lat": 34.712775,
      "lng": 134.106799,
      "geocoding_level": null,
      "phone": "0869-26-5335",
      "license_no": "岡山県指令　備前保　第370299号",
      "license_date": "2025-12-15",
      "expire_date": "2031-12-31"
    },
    {
      "name": "マルナカ長船店",
      "name_kana": "マルナカオサフネテン",
      "business_type": "④ 魚介類販売業",
      "address": "岡山県瀬戸内市長船町服部390-1",
      "lat": 34.712775,
      "lng": 134.106799,
      "geocoding_level": null,
      "phone": "0869-26-5335",
      "license_no": "岡山県指令　備前保　第370298号",
      "license_date": "2025-12-15",
      "expire_date": "2031-12-31"
    },
    {
      "name": "マルナカ長船店",
      "name_kana": "マルナカオサフネテン",
      "business_type": "⑪ 菓子製造業",
      "address": "岡山県瀬戸内市長船町服部390-1",
      "lat": 34.712775,
      "lng": 134.106799,
      "geocoding_level": null,
      "phone": "0869-26-5335",
      "license_no": "岡山県指令　備前保　第370300号",
      "license_date": "2025-12-15",
      "expire_date": "2031-12-31"
    },
    {
      "name": "CHONTO",
      "name_kana": "チョント",
      "business_type": "⑯ コーヒー製造・加工業（飲料の製造を除く。）",
      "address": "岡山県瀬戸内市牛窓町牛窓3069-1",
      "lat": 34.615466,
      "lng": 134.165059,
      "geocoding_level": null,
      "phone": "090-1247-7602",
      "license_no": "",
      "license_date": null,
      "expire_date": null
    },
    {
      "name": "浜の屋",
      "name_kana": "ハマンシャ",
      "business_type": "⑬ その他の食料・飲料販売業",
      "address": "岡山県瀬戸内市牛窓町牛窓1052-1",
      "lat": 34.632099,
      "lng": 134.17021,
      "geocoding_level": null,
      "phone": "",
      "license_no": "",
      "license_date": null,
      "expire_date": null
    },
    {
      "name": "（株）アイリー",
      "name_kana": "カブシキガイシャアイリー",
      "business_type": "⑬ その他の食料・飲料販売業",
      "address": "岡山県瀬戸内市邑久町豊原９４－１",
      "lat": 34.662776,
      "lng": 134.090061,
      "geocoding_level": null,
      "phone": "0869-22-0206",
      "license_no": "",
      "license_date": null,
      "expire_date": null
    },
    {
      "name": "toita",
      "name_kana": "トイタ",
      "business_type": "㉔ その他の食料品製造・加工業",
      "address": "岡山県瀬戸内市邑久町尻海4396",
      "lat": 34.652737,
      "lng": 134.169931,
      "geocoding_level": null,
      "phone": "",
      "license_no": "",
      "license_date": null,
      "expire_date": null
    },
    {
      "name": "㈱自然共生牛窓工場",
      "name_kana": "カブシキカイシャシゼンキョウセイウシマドコウジョウ",
      "business_type": "⑰ 農産保存食料品製造・加工業",
      "address": "岡山県瀬戸内市牛窓町鹿忍7736-1",
      "lat": 34.602706,
      "lng": 134.118352,
      "geocoding_level": null,
      "phone": "0869-34-9629",
      "license_no": "",
      "license_date": null,
      "expire_date": null
    },
    {
      "name": "邑久小学校区学童保育所ゆめっこクラブ1組",
      "name_kana": "オクショウガッコウクガクドウホイクショユメッコクラブイチクミ",
      "business_type": "㉖ 集団給食施設",
      "address": "岡山県瀬戸内市邑久町山田庄813-2",
      "lat": 34.665923,
      "lng": 134.097405,
      "geocoding_level": null,
      "phone": "0869-24-2702",
      "license_no": "",
      "license_date": null,
      "expire_date": null
    },
    {
      "name": "邑久小学校区学童保育所ゆめっこクラブ2組",
      "name_kana": "オクショウガッコウクガクドウホイクショユメッコクラブニクミ",
      "business_type": "㉖ 集団給食施設",
      "address": "岡山県瀬戸内市邑久町山田庄813-2",
      "lat": 34.665923,
      "lng": 134.097405,
      "geocoding_level": null,
      "phone": "0869-24-2702",
      "license_no": "",
      "license_date": null,
      "expire_date": null
    },
    {
      "name": "邑久小学校区学童保育所ゆめっこクラブ3組",
      "name_kana": "オクショウガッコウクガクドウホイクショユメッコクラブサンクミ",
      "business_type": "㉖ 集団給食施設",
      "address": "岡山県瀬戸内市邑久町山田庄813-2",
      "lat": 34.665923,
      "lng": 134.097405,
      "geocoding_level": null,
      "phone": "0869-24-2702",
      "license_no": "",
      "license_date": null,
      "expire_date": null
    },
    {
      "name": "（株）備前の夢",
      "name_kana": "カブビゼンノユメ",
      "business_type": "① 飲食店営業",
      "address": "岡山県瀬戸内市（県内一円）",
      "lat": 34.664903,
      "lng": 134.09284,
      "geocoding_level": null,
      "phone": "",
      "license_no": "岡山県指令　備前保　第350577号",
      "license_date": "2024-03-26",
      "expire_date": "2029-12-31"
    },
    {
      "name": "ほっともっと邑久町店",
      "name_kana": "ホットモットオクチョウテン",
      "business_type": "① 飲食店営業",
      "address": "岡山県瀬戸内市邑久町山田庄３６９",
      "lat": 34.674983,
      "lng": 134.095016,
      "geocoding_level": null,
      "phone": "0869-22-9611",
      "license_no": "岡山県指令　備前保　第370157号",
      "license_date": "2025-09-12",
      "expire_date": "2030-12-31"
    },
    {
      "name": "一般財団法人岡山県牛窓海洋スポーツ振興会",
      "name_kana": "イッパンザイダンホウジンオカヤマケンウシマドカイヨウスポーツシンコウカイ",
      "business_type": "⑫ 自動販売機による販売業（コップ式自動販売機（自動洗浄・屋内設置）及び営業許可の対象となる自動販売機を除く）",
      "address": "岡山県瀬戸内市牛窓町牛窓5414-7",
      "lat": 34.612433,
      "lng": 134.146399,
      "geocoding_level": null,
      "phone": "086-934-5160",
      "license_no": "",
      "license_date": null,
      "expire_date": null
    },
    {
      "name": "デイサービスセンターすずらん",
      "name_kana": "デイサービスセンタースズラン",
      "business_type": "㉖ 集団給食施設",
      "address": "岡山県瀬戸内市邑久町上笠加145-8",
      "lat": 34.685033,
      "lng": 134.098025,
      "geocoding_level": null,
      "phone": "0869-22-5507",
      "license_no": "",
      "license_date": null,
      "expire_date": null
    },
    {
      "name": "第１ひまわりクラブ",
      "name_kana": "ダイイチヒマワリクラブ",
      "business_type": "㉖ 集団給食施設",
      "address": "岡山県瀬戸内市長船町福里853",
      "lat": 34.696507,
      "lng": 134.11646,
      "geocoding_level": null,
      "phone": "0869-26-6621",
      "license_no": "",
      "license_date": null,
      "expire_date": null
    },
    {
      "name": "第２ひまわりクラブ",
      "name_kana": "ダイニヒマワリクラブ",
      "business_type": "㉖ 集団給食施設",
      "address": "岡山県瀬戸内市長船町福里853",
      "lat": 34.696507,
      "lng": 134.11646,
      "geocoding_level": null,
      "phone": "0869-26-6621",
      "license_no": "",
      "license_date": null,
      "expire_date": null
    },
    {
      "name": "パン工房むくむく",
      "name_kana": "パンコウボウムクムク",
      "business_type": "③ 乳類販売業",
      "address": "岡山県瀬戸内市長船町土師5-1",
      "lat": 34.694935,
      "lng": 134.097121,
      "geocoding_level": null,
      "phone": "",
      "license_no": "",
      "license_date": null,
      "expire_date": null
    },
    {
      "name": "瀬戸内フルーツガーデン",
      "name_kana": "セトウチフルーツガーデン",
      "business_type": "⑬ その他の食料・飲料販売業",
      "address": "岡山県瀬戸内市長船町長船723-1",
      "lat": 34.715877,
      "lng": 134.100617,
      "geocoding_level": null,
      "phone": "",
      "license_no": "",
      "license_date": null,
      "expire_date": null
    },
    {
      "name": "天下鳥ます",
      "name_kana": "テンカトリマス",
      "business_type": "① 飲食店営業",
      "address": "岡山県瀬戸内市（県内一円）",
      "lat": 34.664903,
      "lng": 134.09284,
      "geocoding_level": null,
      "phone": "",
      "license_no": "岡山県指令　備前保　第350468号",
      "license_date": "2023-12-22",
      "expire_date": "2028-12-31"
    },
    {
      "name": "七二七　ｉｎｌｅｔ",
      "name_kana": "ナフナ　インレット",
      "business_type": "① 飲食店営業",
      "address": "岡山県瀬戸内市牛窓町鹿忍６３１６－１１",
      "lat": 34.601224,
      "lng": 134.136585,
      "geocoding_level": null,
      "phone": "",
      "license_no": "岡山県指令　備前保　第350521号",
      "license_date": "2024-02-15",
      "expire_date": "2029-09-30"
    },
    {
      "name": "傘屋　邑久店",
      "name_kana": "カサヤ　オクテン",
      "business_type": "① 飲食店営業",
      "address": "岡山県瀬戸内市邑久町山田庄１９５－６",
      "lat": 34.668033,
      "lng": 134.092558,
      "geocoding_level": null,
      "phone": "0869-22-2100",
      "license_no": "岡山県指令　備前保　第350463号",
      "license_date": "2023-12-21",
      "expire_date": "2029-12-31"
    },
    {
      "name": "ゆめタウン邑久ベーカリー",
      "name_kana": "ユメタウンオクベーカリー",
      "business_type": "⑪ 菓子製造業",
      "address": "岡山県瀬戸内市邑久町尾張２６８",
      "lat": 34.666544,
      "lng": 134.092803,
      "geocoding_level": null,
      "phone": "0869-24-1900",
      "license_no": "岡山県指令　備前保　第350452号",
      "license_date": "2023-12-14",
      "expire_date": "2029-12-31"
    },
    {
      "name": "ゆめタウン邑久",
      "name_kana": "ユメタウンオク",
      "business_type": "① 飲食店営業",
      "address": "岡山県瀬戸内市邑久町尾張２６８",
      "lat": 34.666544,
      "lng": 134.092803,
      "geocoding_level": null,
      "phone": "0869-24-1900",
      "license_no": "岡山県指令　備前保　第370195号",
      "license_date": "2025-09-24",
      "expire_date": "2030-12-31"
    },
    {
      "name": "まなまな食堂",
      "name_kana": "マナマナショクドウ",
      "business_type": "① 飲食店営業",
      "address": "岡山県瀬戸内市牛窓町牛窓３９１１－２０",
      "lat": 34.617693,
      "lng": 134.160715,
      "geocoding_level": null,
      "phone": "",
      "license_no": "岡山県指令　備前保　第370009号",
      "license_date": "2025-04-14",
      "expire_date": "2030-09-30"
    },
    {
      "name": "お菓子の家ひだまり",
      "name_kana": "オカシノイエヒダマリ",
      "business_type": "⑪ 菓子製造業",
      "address": "岡山県瀬戸内市邑久町百田３０８－３",
      "lat": 34.665141,
      "lng": 134.085296,
      "geocoding_level": null,
      "phone": "",
      "license_no": "岡山県指令　備前保　第350059号",
      "license_date": "2023-05-30",
      "expire_date": "2028-12-31"
    },
    {
      "name": "お菓子の家ひだまり",
      "name_kana": "オカシノイエヒダマリ",
      "business_type": "① 飲食店営業",
      "address": "岡山県瀬戸内市（県内一円）",
      "lat": 34.664903,
      "lng": 134.09284,
      "geocoding_level": null,
      "phone": "",
      "license_no": "岡山県指令　備前保　第370032号",
      "license_date": "2025-05-19",
      "expire_date": "2030-12-31"
    },
    {
      "name": "株式会社アドバンス",
      "name_kana": "アドバンス",
      "business_type": "⑰ 農産保存食料品製造・加工業",
      "address": "岡山県瀬戸内市長船町八日市11-2",
      "lat": 34.711147,
      "lng": 134.100106,
      "geocoding_level": null,
      "phone": "0869268704",
      "license_no": "",
      "license_date": null,
      "expire_date": null
    },
    {
      "name": "",
      "name_kana": "",
      "business_type": "① 飲食店営業",
      "address": "岡山県瀬戸内市（県内一円）",
      "lat": 34.664903,
      "lng": 134.09284,
      "geocoding_level": null,
      "phone": "",
      "license_no": "岡山県指令　備前保　第370061号",
      "license_date": "2025-06-13",
      "expire_date": "2030-09-30"
    },
    {
      "name": "",
      "name_kana": "",
      "business_type": "㉔ その他の食料品製造・加工業",
      "address": "岡山県瀬戸内市（県内一円）",
      "lat": 34.664903,
      "lng": 134.09284,
      "geocoding_level": null,
      "phone": "",
      "license_no": "",
      "license_date": null,
      "expire_date": null
    },
    {
      "name": "コメリハードアンドグリーン長船店",
      "name_kana": "コメリハードアンドグリーンオサフネテン",
      "business_type": "⑧ 米穀類販売業",
      "address": "岡山県瀬戸内市長船町長船２９１番１",
      "lat": 34.715276,
      "lng": 134.10861,
      "geocoding_level": null,
      "phone": "0869-66-0115",
      "license_no": "",
      "license_date": null,
      "expire_date": null
    },
    {
      "name": "長船ふれあいのまちづくり館",
      "name_kana": "オサフネフレアイノマチヅクリカン",
      "business_type": "① 飲食店営業",
      "address": "岡山県瀬戸内市長船町長船９６６",
      "lat": 34.664903,
      "lng": 134.09284,
      "geocoding_level": null,
      "phone": "0869-66-7550",
      "license_no": "岡山県指令　備前保　第370084号",
      "license_date": "2025-07-09",
      "expire_date": "2030-12-31"
    },
    {
      "name": "長船ふれあいのまちづくり館",
      "name_kana": "オサフネフレアイノマチヅクリカン",
      "business_type": "⑬ その他の食料・飲料販売業",
      "address": "岡山県瀬戸内市長船町長船９６６",
      "lat": 34.664903,
      "lng": 134.09284,
      "geocoding_level": null,
      "phone": "0869-66-7550",
      "license_no": "",
      "license_date": null,
      "expire_date": null
    },
    {
      "name": "風待ち亭",
      "name_kana": "カゼマチテイ",
      "business_type": "① 飲食店営業",
      "address": "岡山県瀬戸内市牛窓町牛窓３０９０",
      "lat": 34.615014,
      "lng": 134.165889,
      "geocoding_level": null,
      "phone": "",
      "license_no": "岡山県指令　備前保　第370112号",
      "license_date": "2025-07-28",
      "expire_date": "2030-09-30"
    },
    {
      "name": "青木祐一郎",
      "name_kana": "アオキユウイチロウ",
      "business_type": "㉔ その他の食料品製造・加工業",
      "address": "岡山県瀬戸内市牛窓町牛窓2236－9",
      "lat": 34.618002,
      "lng": 134.169849,
      "geocoding_level": null,
      "phone": "08043442012",
      "license_no": "",
      "license_date": null,
      "expire_date": null
    },
    {
      "name": "",
      "name_kana": "",
      "business_type": "① 飲食店営業",
      "address": "岡山県瀬戸内市牛窓町牛窓５６６２－４",
      "lat": 34.607039,
      "lng": 134.165532,
      "geocoding_level": null,
      "phone": "0869-34-4356",
      "license_no": "岡山県指令　備前保　第370152号",
      "license_date": "2025-09-10",
      "expire_date": "2031-09-30"
    },
    {
      "name": "有限会社高祖鮮魚店",
      "name_kana": "ユウゲンガイシャコウソセンギョテン",
      "business_type": "① 魚介類販売業（包装済みの魚介類のみの販売）",
      "address": "岡山県瀬戸内市県内一円",
      "lat": 34.664903,
      "lng": 134.09284,
      "geocoding_level": null,
      "phone": "0869-34-2131",
      "license_no": "",
      "license_date": null,
      "expire_date": null
    },
    {
      "name": "株式会社名刀味噌本舗",
      "name_kana": "カブシキガイシャメイトウミソホンポ",
      "business_type": "⑳ みそ又はしょうゆ製造業",
      "address": "岡山県瀬戸内市長船町土師１１－１",
      "lat": 34.695306,
      "lng": 134.098101,
      "geocoding_level": null,
      "phone": "0869-26-2065",
      "license_no": "岡山県指令　備前保　第370285号",
      "license_date": "2025-12-05",
      "expire_date": "2030-12-31"
    },
    {
      "name": "株式会社名刀味噌本舗",
      "name_kana": "カブシキガイシャメイトウミソホンポ",
      "business_type": "㉚ 密封包装食品製造業",
      "address": "岡山県瀬戸内市長船町土師１１－１",
      "lat": 34.695306,
      "lng": 134.098101,
      "geocoding_level": null,
      "phone": "0869-26-2065",
      "license_no": "岡山県指令　備前保　第370286号",
      "license_date": "2025-12-05",
      "expire_date": "2030-12-31"
    },
    {
      "name": "株式会社名刀味噌本舗",
      "name_kana": "カブシキガイシャメイトウミソホンポ",
      "business_type": "⑧ 米穀類販売業",
      "address": "岡山県瀬戸内市長船町土師14-3",
      "lat": 34.695665,
      "lng": 134.098192,
      "geocoding_level": null,
      "phone": "0869-26-2065",
      "license_no": "",
      "license_date": null,
      "expire_date": null
    },
    {
      "name": "日宝綜合製本社員食堂",
      "name_kana": "ニッポウソウゴウセイホンシャインショクドウ",
      "business_type": "① 飲食店営業",
      "address": "岡山県瀬戸内市長船町服部321",
      "lat": 34.664903,
      "lng": 134.09284,
      "geocoding_level": null,
      "phone": "0869-26-4700",
      "license_no": "岡山県指令　備前保　第370301号",
      "license_date": "2025-12-15",
      "expire_date": "2031-12-31"
    },
    {
      "name": "畠山製菓豊原工場",
      "name_kana": "ハタケヤマセイカトヨハラコウジョウ",
      "business_type": "⑪ 菓子製造業",
      "address": "岡山県瀬戸内市邑久町豊原702",
      "lat": 34.649655,
      "lng": 134.086688,
      "geocoding_level": null,
      "phone": "0869-22-1913",
      "license_no": "岡山県指令　備前保　第370304号",
      "license_date": "2025-12-15",
      "expire_date": "2031-12-31"
    },
    {
      "name": "ベースビーチ",
      "name_kana": "ベースビーチ",
      "business_type": "① 飲食店営業",
      "address": "岡山県瀬戸内市（県内一円）",
      "lat": 34.664903,
      "lng": 134.09284,
      "geocoding_level": null,
      "phone": "0869-24-8418",
      "license_no": "岡山県指令　備前保　第340287号",
      "license_date": "2022-11-10",
      "expire_date": "2028-09-30"
    },
    {
      "name": "丸亀製麺邑久",
      "name_kana": "マルガメセイメンオク",
      "business_type": "① 飲食店営業",
      "address": "岡山県瀬戸内市邑久町尾張119",
      "lat": 34.664992,
      "lng": 134.091034,
      "geocoding_level": null,
      "phone": "0869-24-1071",
      "license_no": "岡山県指令　備前保　第380041号",
      "license_date": "2026-05-14",
      "expire_date": "2031-12-31"
    },
    {
      "name": "Ｓａｋｕ",
      "name_kana": "サク",
      "business_type": "⑪ 菓子製造業",
      "address": "岡山県瀬戸内市牛窓町牛窓２９５３",
      "lat": 34.621607,
      "lng": 134.157786,
      "geocoding_level": null,
      "phone": "080-5750-0311",
      "license_no": "岡山県指令　備前保　第380009号",
      "license_date": "2026-04-15",
      "expire_date": "2031-09-30"
    },
    {
      "name": "Ｓａｋｕ",
      "name_kana": "サク",
      "business_type": "⑬ その他の食料・飲料販売業",
      "address": "岡山県瀬戸内市牛窓町牛窓２９５３",
      "lat": 34.621607,
      "lng": 134.157786,
      "geocoding_level": null,
      "phone": "080-5750-0311",
      "license_no": "",
      "license_date": null,
      "expire_date": null
    },
    {
      "name": "株式会社ランテック岡山支店",
      "name_kana": "ランテックオカヤマシテン",
      "business_type": "㉙ その他",
      "address": "岡山県瀬戸内市長船町長船１１７７－２",
      "lat": 34.723698,
      "lng": 134.104401,
      "geocoding_level": null,
      "phone": "0869-66-0061",
      "license_no": "",
      "license_date": null,
      "expire_date": null
    }
  ]
}
