{
  "meta": {
    "updated": 1783568789,
    "sources": [
      {
        "source": "厚生労働省 食品衛生申請等システム（オープンデータ）",
        "license": "公共データ利用規約（第1.0版, PDL1.0）"
      }
    ]
  },
  "data": [
    {
      "name": "トップ卵ファーム株式会社 美里GPセンター",
      "name_kana": "トップランカブシキカイシャ　ミサトジーピーセンター",
      "business_type": "㉓ 卵選別包装業",
      "address": "熊本県下益城郡美里町大沢水1357-3",
      "lat": 32.655287,
      "lng": 130.794535,
      "geocoding_level": null,
      "phone": "0964464930",
      "license_no": "",
      "license_date": null,
      "expire_date": null
    },
    {
      "name": "美里リハビリテーションクリニック　売店",
      "name_kana": "ミサトリハビリテーションクリニック　バイテン",
      "business_type": "⑬ その他の食料・飲料販売業",
      "address": "熊本県下益城郡美里町洞岳1308",
      "lat": 32.635135,
      "lng": 130.922447,
      "geocoding_level": null,
      "phone": "0964480211",
      "license_no": "",
      "license_date": null,
      "expire_date": null
    },
    {
      "name": "ワークセンターゆきぞの",
      "name_kana": "ワークセンターユキゾノ",
      "business_type": "⑰ 農産保存食料品製造・加工業",
      "address": "熊本県下益城郡美里町土喰10-1 ワークセンターゆきぞの",
      "lat": 32.618017,
      "lng": 130.867253,
      "geocoding_level": null,
      "phone": "0964-47-2323",
      "license_no": "",
      "license_date": null,
      "expire_date": null
    },
    {
      "name": "障がい者総合支援センターゆきぞの",
      "name_kana": "ショウガイシャソウゴウシエンセンターユキゾノ",
      "business_type": "㉖ 集団給食施設",
      "address": "熊本県下益城郡美里町土喰148-1",
      "lat": 32.617827,
      "lng": 130.868132,
      "geocoding_level": null,
      "phone": "0964472371",
      "license_no": "",
      "license_date": null,
      "expire_date": null
    },
    {
      "name": "ワークセンターゆきぞの",
      "name_kana": "ワークセンターユキゾノ",
      "business_type": "⑬ その他の食料・飲料販売業",
      "address": "熊本県下益城郡美里町畝野(緑川ダム広場)",
      "lat": 32.630729,
      "lng": 130.907642,
      "geocoding_level": null,
      "phone": "",
      "license_no": "",
      "license_date": null,
      "expire_date": null
    },
    {
      "name": "ワークセンターゆきぞの",
      "name_kana": "ワークセンターユキゾノ",
      "business_type": "⑰ 農産保存食料品製造・加工業",
      "address": "熊本県下益城郡美里町栗崎字行園原564番地",
      "lat": 32.629448,
      "lng": 130.876594,
      "geocoding_level": null,
      "phone": "0964-47-2323",
      "license_no": "",
      "license_date": null,
      "expire_date": null
    },
    {
      "name": "パン工房　いちご一枝",
      "name_kana": "パンコウボウ　イチゴイチエ",
      "business_type": "① 飲食店営業",
      "address": "熊本県下益城郡美里町中郡１３３９－２",
      "lat": 32.641779,
      "lng": 130.800592,
      "geocoding_level": null,
      "phone": "0964464767",
      "license_no": "熊本県指令宇保第食1-1-1号",
      "license_date": "2021-06-01",
      "expire_date": "2027-05-31"
    },
    {
      "name": "パン工房　いちご一枝",
      "name_kana": "パンコウボウ　イチゴイチエ",
      "business_type": "⑪ 菓子製造業",
      "address": "熊本県下益城郡美里町中郡１３３９－２",
      "lat": 32.641779,
      "lng": 130.800592,
      "geocoding_level": null,
      "phone": "0964-46-4767",
      "license_no": "熊本県指令宇保第食11-15号",
      "license_date": "2025-10-31",
      "expire_date": "2031-11-30"
    },
    {
      "name": "上村由香里",
      "name_kana": "ウエムラ　ユカリ",
      "business_type": "③ 乳類販売業",
      "address": "熊本県下益城郡美里町甲佐平1237",
      "lat": 32.64658,
      "lng": 130.885427,
      "geocoding_level": null,
      "phone": "09095751909",
      "license_no": "",
      "license_date": null,
      "expire_date": null
    },
    {
      "name": "くし春",
      "name_kana": "クシハル",
      "business_type": "① 飲食店営業",
      "address": "熊本県下益城郡美里町永富３７５－５",
      "lat": 32.617839,
      "lng": 130.860659,
      "geocoding_level": null,
      "phone": "0964470377",
      "license_no": "熊本県指令宇保第食1-1-12号",
      "license_date": "2021-06-01",
      "expire_date": "2027-05-31"
    },
    {
      "name": "カラオケ春",
      "name_kana": "カラオケハル",
      "business_type": "① 飲食店営業",
      "address": "熊本県下益城郡美里町土喰１２８",
      "lat": 32.617556,
      "lng": 130.869396,
      "geocoding_level": null,
      "phone": "0964470773",
      "license_no": "熊本県指令宇保第食1-1-21号",
      "license_date": "2021-06-01",
      "expire_date": "2027-05-31"
    },
    {
      "name": "美里町やすらぎ交流体験施設　元気の森かじか",
      "name_kana": "ミサトマチヤスラギコウリュウタイケンシセツ　ゲンキノモリカジカ",
      "business_type": "⑰ 農産保存食料品製造・加工業",
      "address": "熊本県下益城郡美里町払川１６７５",
      "lat": 32.591946,
      "lng": 130.813326,
      "geocoding_level": null,
      "phone": "0964-46-3993",
      "license_no": "",
      "license_date": null,
      "expire_date": null
    },
    {
      "name": "美里町やすらぎ交流体験施設　元気の森かじか",
      "name_kana": "ミサトマチヤスラギコウリュウタイケンシセツ　ゲンキノモリカジカ",
      "business_type": "① 飲食店営業",
      "address": "熊本県下益城郡美里町払川１６７５番地",
      "lat": 32.591946,
      "lng": 130.813326,
      "geocoding_level": null,
      "phone": "0964-46-3393",
      "license_no": "熊本県指令宇保第食1-1-10号",
      "license_date": "2022-05-30",
      "expire_date": "2028-05-31"
    },
    {
      "name": "有限会社石段の郷中央",
      "name_kana": "ユウゲンガイシャイシダンノサトチュウオウ",
      "business_type": "⑬ その他の食料・飲料販売業",
      "address": "熊本県下益城郡美里町佐俣７０５",
      "lat": 32.623628,
      "lng": 130.822491,
      "geocoding_level": null,
      "phone": "",
      "license_no": "",
      "license_date": null,
      "expire_date": null
    },
    {
      "name": "石段の郷　佐俣の湯",
      "name_kana": "イシダンノサト　サマタノユ",
      "business_type": "① 飲食店営業",
      "address": "熊本県下益城郡美里町佐俣７０５",
      "lat": 32.623628,
      "lng": 130.822491,
      "geocoding_level": null,
      "phone": "0964-46-4111",
      "license_no": "熊本県指令宇保第食1-1-74号",
      "license_date": "2022-11-21",
      "expire_date": "2028-11-30"
    },
    {
      "name": "宝工房",
      "name_kana": "タカラコウボウ",
      "business_type": "① 飲食店営業",
      "address": "熊本県下益城郡美里町等（熊本県下一円）",
      "lat": 32.639689,
      "lng": 130.788769,
      "geocoding_level": null,
      "phone": "",
      "license_no": "熊本県指令宇保第食1-1-25号",
      "license_date": "2021-06-01",
      "expire_date": "2026-05-31"
    },
    {
      "name": "宝工房inMOTSUkitchen&cafe",
      "name_kana": "タカラコウボウインモツキッチンアンドカフェ",
      "business_type": "① 飲食店営業",
      "address": "熊本県下益城郡美里町等（熊本県下一円）熊本８３０せ８７７８",
      "lat": 32.941094,
      "lng": 130.606756,
      "geocoding_level": null,
      "phone": "",
      "license_no": "熊本県指令宇保第食1-1-42号",
      "license_date": "2023-07-27",
      "expire_date": "2028-08-31"
    },
    {
      "name": "宝工房",
      "name_kana": "タカラコウボウ",
      "business_type": "⑬ その他の食料・飲料販売業",
      "address": "熊本県下益城郡美里町等県下一円",
      "lat": 32.639689,
      "lng": 130.788769,
      "geocoding_level": null,
      "phone": "",
      "license_no": "",
      "license_date": null,
      "expire_date": null
    },
    {
      "name": "みやざき屋",
      "name_kana": "ミヤザキヤ",
      "business_type": "㉔ その他の食料品製造・加工業",
      "address": "熊本県下益城郡美里町畝野３３８５－５",
      "lat": 32.631066,
      "lng": 130.90598,
      "geocoding_level": null,
      "phone": "09043536185",
      "license_no": "",
      "license_date": null,
      "expire_date": null
    },
    {
      "name": "ＪＡ熊本うき砥用農産物直売所",
      "name_kana": "ジェイエイクマモトウキトモチノウサンブツチョクバイショ",
      "business_type": "① 魚介類販売業（包装済みの魚介類のみの販売）",
      "address": "熊本県下益城郡美里町三和224",
      "lat": 32.622681,
      "lng": 130.873375,
      "geocoding_level": null,
      "phone": "0964471784",
      "license_no": "",
      "license_date": null,
      "expire_date": null
    },
    {
      "name": "ＪＡ熊本うき砥用農産物直売所",
      "name_kana": "ジェイエイクマモトウキトモチノウサンブツチョクバイショ",
      "business_type": "② 食肉販売業（包装済みの食肉のみの販売）",
      "address": "熊本県下益城郡美里町三和224",
      "lat": 32.622681,
      "lng": 130.873375,
      "geocoding_level": null,
      "phone": "0964471784",
      "license_no": "",
      "license_date": null,
      "expire_date": null
    },
    {
      "name": "ＪＡ熊本うき砥用農産物直売所",
      "name_kana": "ジェイエイクマモトウキトモチノウサンブツチョクバイショ",
      "business_type": "③ 乳類販売業",
      "address": "熊本県下益城郡美里町三和224",
      "lat": 32.622681,
      "lng": 130.873375,
      "geocoding_level": null,
      "phone": "0964471784",
      "license_no": "",
      "license_date": null,
      "expire_date": null
    },
    {
      "name": "ＪＡ熊本うき砥用農産物直売所",
      "name_kana": "ジェイエイクマモトウキトモチノウサンブツチョクバイショ",
      "business_type": "⑥ 弁当販売業",
      "address": "熊本県下益城郡美里町三和224",
      "lat": 32.622681,
      "lng": 130.873375,
      "geocoding_level": null,
      "phone": "0964471784",
      "license_no": "",
      "license_date": null,
      "expire_date": null
    },
    {
      "name": "ＪＡ熊本うき砥用農産物直売所",
      "name_kana": "ジェイエイクマモトウキトモチノウサンブツチョクバイショ",
      "business_type": "⑦ 野菜果物販売業",
      "address": "熊本県下益城郡美里町三和224",
      "lat": 32.622681,
      "lng": 130.873375,
      "geocoding_level": null,
      "phone": "0964471784",
      "license_no": "",
      "license_date": null,
      "expire_date": null
    },
    {
      "name": "ＪＡ熊本うき砥用農産物直売所",
      "name_kana": "ジェイエイクマモトウキトモチノウサンブツチョクバイショ",
      "business_type": "⑧ 米穀類販売業",
      "address": "熊本県下益城郡美里町三和224",
      "lat": 32.622681,
      "lng": 130.873375,
      "geocoding_level": null,
      "phone": "0964471784",
      "license_no": "",
      "license_date": null,
      "expire_date": null
    },
    {
      "name": "ＪＡ熊本うき砥用農産物直売所",
      "name_kana": "ジェイエイクマモトウキトモチノウサンブツチョクバイショ",
      "business_type": "⑬ その他の食料・飲料販売業",
      "address": "熊本県下益城郡美里町三和224",
      "lat": 32.622681,
      "lng": 130.873375,
      "geocoding_level": null,
      "phone": "0964471784",
      "license_no": "",
      "license_date": null,
      "expire_date": null
    },
    {
      "name": "水上婦人部",
      "name_kana": "ミズカミフジンブ",
      "business_type": "㉔ その他の食料品製造・加工業",
      "address": "熊本県下益城郡美里町畝野１７８６",
      "lat": 32.63727,
      "lng": 130.91436,
      "geocoding_level": null,
      "phone": "0964480252",
      "license_no": "",
      "license_date": null,
      "expire_date": null
    },
    {
      "name": "石田牛乳販売店",
      "name_kana": "イシダギュウニュウハンバイテン",
      "business_type": "③ 乳類販売業",
      "address": "熊本県下益城郡美里町原町１４７",
      "lat": 32.618315,
      "lng": 130.86512,
      "geocoding_level": null,
      "phone": "0964472505",
      "license_no": "",
      "license_date": null,
      "expire_date": null
    },
    {
      "name": "里山交流体験センター輪",
      "name_kana": "サトヤマコウリュウタイケンセンターワ",
      "business_type": "㉖ 集団給食施設",
      "address": "熊本県下益城郡美里町畝野７０３－２",
      "lat": 32.640417,
      "lng": 130.916768,
      "geocoding_level": null,
      "phone": "0964480555",
      "license_no": "",
      "license_date": null,
      "expire_date": null
    },
    {
      "name": "スイーツ工房きこり",
      "name_kana": "スイーツコウボウキコリ",
      "business_type": "⑬ その他の食料・飲料販売業",
      "address": "熊本県下益城郡美里町等（県下一円）",
      "lat": 32.632704,
      "lng": 130.807456,
      "geocoding_level": null,
      "phone": "",
      "license_no": "",
      "license_date": null,
      "expire_date": null
    },
    {
      "name": "レストラン木香里",
      "name_kana": "レストランキコリ",
      "business_type": "② 食肉販売業（包装済みの食肉のみの販売）",
      "address": "熊本県下益城郡美里町二和田１１６６－１",
      "lat": 32.621251,
      "lng": 130.86675,
      "geocoding_level": null,
      "phone": "0964472211",
      "license_no": "",
      "license_date": null,
      "expire_date": null
    },
    {
      "name": "ファミリーマート美里町中央店",
      "name_kana": "ファミリーマートミサトマチチュウオウテン",
      "business_type": "⑩ コンビニエンスストア",
      "address": "熊本県下益城郡美里町馬場800",
      "lat": 32.643868,
      "lng": 130.786658,
      "geocoding_level": null,
      "phone": "0964347510",
      "license_no": "",
      "license_date": null,
      "expire_date": null
    },
    {
      "name": "ファミリーマート美里町中央店",
      "name_kana": "ファミリーマートミサトマチチュウオウテン",
      "business_type": "① 飲食店営業",
      "address": "熊本県下益城郡美里町馬場800番地",
      "lat": 32.643868,
      "lng": 130.786658,
      "geocoding_level": null,
      "phone": "0964-34-7510",
      "license_no": "熊本県指令宇保第食1-1-88号",
      "license_date": "2023-11-16",
      "expire_date": "2029-11-30"
    },
    {
      "name": "ファミリーマート熊本美里三和店",
      "name_kana": "ファミリーマートクマモトミサトミツワテン",
      "business_type": "⑩ コンビニエンスストア",
      "address": "熊本県下益城郡美里町三和150-1",
      "lat": 32.622348,
      "lng": 130.873928,
      "geocoding_level": null,
      "phone": "0964488255",
      "license_no": "",
      "license_date": null,
      "expire_date": null
    },
    {
      "name": "ファミリーマート熊本美里三和店",
      "name_kana": "ファミリーマートクマモトミサトミツワテン",
      "business_type": "① 飲食店営業",
      "address": "熊本県下益城郡美里町三和１５０－１",
      "lat": 32.622348,
      "lng": 130.873928,
      "geocoding_level": null,
      "phone": "0964-48-8255",
      "license_no": "熊本県指令宇保第食1-1-55号",
      "license_date": "2022-10-12",
      "expire_date": "2028-11-30"
    },
    {
      "name": "今田商店",
      "name_kana": "イマダショウテン",
      "business_type": "⑬ その他の食料・飲料販売業",
      "address": "熊本県下益城郡美里町今1165-4",
      "lat": 32.619939,
      "lng": 130.834315,
      "geocoding_level": null,
      "phone": "",
      "license_no": "",
      "license_date": null,
      "expire_date": null
    },
    {
      "name": "左座加工場",
      "name_kana": "ゾウザカコウジョウ",
      "business_type": "⑰ 農産保存食料品製造・加工業",
      "address": "熊本県下益城郡美里町永富2566-1",
      "lat": 32.60878,
      "lng": 130.86926,
      "geocoding_level": null,
      "phone": "0964470797",
      "license_no": "",
      "license_date": null,
      "expire_date": null
    },
    {
      "name": "左座加工場",
      "name_kana": "ゾウザカコウジョウ",
      "business_type": "㉕ そうざい製造業",
      "address": "熊本県下益城郡美里町永富２５６６－１",
      "lat": 32.60878,
      "lng": 130.86926,
      "geocoding_level": null,
      "phone": "",
      "license_no": "熊本県指令宇保第食25-6号",
      "license_date": "2022-10-14",
      "expire_date": "2028-11-30"
    },
    {
      "name": "藤﨑商店",
      "name_kana": "フジサキショウテン",
      "business_type": "⑬ その他の食料・飲料販売業",
      "address": "熊本県下益城郡美里町豊富1644-2",
      "lat": 32.629878,
      "lng": 130.888179,
      "geocoding_level": null,
      "phone": "",
      "license_no": "",
      "license_date": null,
      "expire_date": null
    },
    {
      "name": "谷口牛乳店",
      "name_kana": "タニグチギュウニュウテン",
      "business_type": "③ 乳類販売業",
      "address": "熊本県下益城郡美里町岩野1100-1",
      "lat": 32.611714,
      "lng": 130.819389,
      "geocoding_level": null,
      "phone": "",
      "license_no": "",
      "license_date": null,
      "expire_date": null
    },
    {
      "name": "食料品店　松浦",
      "name_kana": "ショクリョウヒンテン　マツウラ",
      "business_type": "⑬ その他の食料・飲料販売業",
      "address": "熊本県下益城郡美里町原町191",
      "lat": 32.618445,
      "lng": 130.865809,
      "geocoding_level": null,
      "phone": "",
      "license_no": "",
      "license_date": null,
      "expire_date": null
    },
    {
      "name": "美里町ガーデンプレイス・家族村",
      "name_kana": "ミサトマチガーデンプレイス　カゾクムラ",
      "business_type": "② 食肉販売業（包装済みの食肉のみの販売）",
      "address": "熊本県下益城郡美里町畝野２９９９－１",
      "lat": 32.632842,
      "lng": 130.909921,
      "geocoding_level": null,
      "phone": "0964480158",
      "license_no": "",
      "license_date": null,
      "expire_date": null
    },
    {
      "name": "有限会社森のぱんや",
      "name_kana": "ユウゲンガイシャモリノパンヤ",
      "business_type": "③ 乳類販売業",
      "address": "熊本県下益城郡美里町佐俣１０９０",
      "lat": 32.622494,
      "lng": 130.825246,
      "geocoding_level": null,
      "phone": "0964462037",
      "license_no": "",
      "license_date": null,
      "expire_date": null
    },
    {
      "name": "森のぱんや",
      "name_kana": "モリノパンヤ",
      "business_type": "⑪ 菓子製造業",
      "address": "熊本県下益城郡美里町佐俣1090番地",
      "lat": 32.622494,
      "lng": 130.825246,
      "geocoding_level": null,
      "phone": "0964-46-2037",
      "license_no": "熊本県指令宇保第食11-5号",
      "license_date": "2023-05-23",
      "expire_date": "2029-05-31"
    },
    {
      "name": "桑田商店",
      "name_kana": "クワダショウテン",
      "business_type": "⑬ その他の食料・飲料販売業",
      "address": "熊本県下益城郡美里町甲佐平７８",
      "lat": 32.644975,
      "lng": 130.894909,
      "geocoding_level": null,
      "phone": "0964472425",
      "license_no": "",
      "license_date": null,
      "expire_date": null
    },
    {
      "name": "マザーズ工房",
      "name_kana": "マザーズコウボウ",
      "business_type": "⑪ 菓子製造業",
      "address": "熊本県下益城郡美里町岩野３９３２",
      "lat": 32.612042,
      "lng": 130.823438,
      "geocoding_level": null,
      "phone": "",
      "license_no": "熊本県指令宇保第食11-3号",
      "license_date": "2021-09-01",
      "expire_date": "2027-08-31"
    },
    {
      "name": "ファミリーマートゆうき砥用店",
      "name_kana": "ファミリーマートユウキトモチテン",
      "business_type": "① 飲食店営業",
      "address": "熊本県下益城郡美里町大窪９１７ー１",
      "lat": 32.615415,
      "lng": 130.850571,
      "geocoding_level": null,
      "phone": "",
      "license_no": "熊本県指令宇保第食1-1-56号",
      "license_date": "2021-08-31",
      "expire_date": "2027-08-31"
    },
    {
      "name": "割烹さかぐち",
      "name_kana": "カッポウサカグチ",
      "business_type": "④ 氷雪販売業",
      "address": "熊本県下益城郡美里町土喰１９４",
      "lat": 32.617358,
      "lng": 130.870701,
      "geocoding_level": null,
      "phone": "0964472121",
      "license_no": "",
      "license_date": null,
      "expire_date": null
    },
    {
      "name": "里山交流体験センター輪",
      "name_kana": "サトヤマコウリュウタイケンセンターワ",
      "business_type": "㉗ 器具、容器包装の製造・加工業（合成樹脂が使用された器具又は容器包装の製造、加工に限る。）",
      "address": "熊本県下益城郡美里町畝野７０３－２",
      "lat": 32.640417,
      "lng": 130.916768,
      "geocoding_level": null,
      "phone": "0964480555",
      "license_no": "",
      "license_date": null,
      "expire_date": null
    },
    {
      "name": "熊本県畜産農業協同組合　城南支所",
      "name_kana": "クマモトケンチクサンノウギョウキョウドウクミアイ　ジョウナンシショ",
      "business_type": "② 食肉販売業（包装済みの食肉のみの販売）",
      "address": "熊本県下益城郡美里町中小路５００",
      "lat": 32.64326,
      "lng": 130.783745,
      "geocoding_level": null,
      "phone": "0964-46-2002",
      "license_no": "",
      "license_date": null,
      "expire_date": null
    },
    {
      "name": "北島農園",
      "name_kana": "キタジマノウエン",
      "business_type": "⑰ 農産保存食料品製造・加工業",
      "address": "熊本県下益城郡美里町川越１９９",
      "lat": 32.652144,
      "lng": 130.898845,
      "geocoding_level": null,
      "phone": "0964480048",
      "license_no": "",
      "license_date": null,
      "expire_date": null
    },
    {
      "name": "間部病院",
      "name_kana": "マベビョウイン",
      "business_type": "⑫ 自動販売機による販売業（コップ式自動販売機（自動洗浄・屋内設置）及び営業許可の対象となる自動販売機を除く）",
      "address": "熊本県下益城郡美里町永富３２８",
      "lat": 32.618009,
      "lng": 130.858631,
      "geocoding_level": null,
      "phone": "",
      "license_no": "",
      "license_date": null,
      "expire_date": null
    },
    {
      "name": "いわさきの野菜",
      "name_kana": "イワサキノヤサイ",
      "business_type": "⑰ 農産保存食料品製造・加工業",
      "address": "熊本県下益城郡美里町岩野３９３２",
      "lat": 32.612037,
      "lng": 130.823426,
      "geocoding_level": null,
      "phone": "09053810954",
      "license_no": "",
      "license_date": null,
      "expire_date": null
    },
    {
      "name": "たかしま園",
      "name_kana": "タカシマエン",
      "business_type": "⑬ その他の食料・飲料販売業",
      "address": "熊本県下益城郡美里町払川１５５－１",
      "lat": 32.589269,
      "lng": 130.808337,
      "geocoding_level": null,
      "phone": "0964463284",
      "license_no": "",
      "license_date": null,
      "expire_date": null
    },
    {
      "name": "仕出し宴会いわや",
      "name_kana": "シダシエンカイイワヤ",
      "business_type": "⑬ その他の食料・飲料販売業",
      "address": "熊本県下益城郡美里町佐俣１２３",
      "lat": 32.622823,
      "lng": 130.81735,
      "geocoding_level": null,
      "phone": "0964463711",
      "license_no": "",
      "license_date": null,
      "expire_date": null
    },
    {
      "name": "合同会社いわや",
      "name_kana": "ゴウドウガイシャイワヤ",
      "business_type": "④ 魚介類販売業",
      "address": "熊本県下益城郡美里町佐俣１２３",
      "lat": 32.622823,
      "lng": 130.81735,
      "geocoding_level": null,
      "phone": "",
      "license_no": "熊本県指令宇保第食4-2号",
      "license_date": "2022-11-01",
      "expire_date": "2028-11-30"
    },
    {
      "name": "いわや",
      "name_kana": "イワヤ",
      "business_type": "㉙ 漬物製造業",
      "address": "熊本県下益城郡美里町佐俣123番地",
      "lat": 32.622823,
      "lng": 130.81735,
      "geocoding_level": null,
      "phone": "0964-46-3711",
      "license_no": "熊本県指令宇保第食29-6号",
      "license_date": "2024-05-21",
      "expire_date": "2030-05-31"
    },
    {
      "name": "グリーンセンター砥用",
      "name_kana": "グリーンセンタートモチ",
      "business_type": "⑬ その他の食料・飲料販売業",
      "address": "熊本県下益城郡美里町三和226",
      "lat": 32.62265,
      "lng": 130.872379,
      "geocoding_level": null,
      "phone": "0964-47-1051",
      "license_no": "",
      "license_date": null,
      "expire_date": null
    },
    {
      "name": "グリーンセンター中央町",
      "name_kana": "グリーンセンターチュウオウマチ",
      "business_type": "⑬ その他の食料・飲料販売業",
      "address": "熊本県下益城郡美里町馬場178",
      "lat": 32.639743,
      "lng": 130.792882,
      "geocoding_level": null,
      "phone": "0964-46-2032",
      "license_no": "",
      "license_date": null,
      "expire_date": null
    },
    {
      "name": "株式会社米米農場　物産館",
      "name_kana": "カブシキガイシャコメコメノウジョウ　ブッサンカン",
      "business_type": "⑬ その他の食料・飲料販売業",
      "address": "熊本県下益城郡美里町佐俣４６４",
      "lat": 32.622337,
      "lng": 130.82263,
      "geocoding_level": null,
      "phone": "0964462939",
      "license_no": "",
      "license_date": null,
      "expire_date": null
    },
    {
      "name": "中津からあげとり嘉",
      "name_kana": "ナカツカラアゲトリヨシ",
      "business_type": "① 飲食店営業",
      "address": "熊本県下益城郡美里町等（熊本県下一円）",
      "lat": 32.639689,
      "lng": 130.788769,
      "geocoding_level": null,
      "phone": "",
      "license_no": "熊本県指令宇保第食1-1-55号",
      "license_date": "2021-09-01",
      "expire_date": "2026-08-31"
    },
    {
      "name": "中津からあげ　とり嘉",
      "name_kana": "ナカツアカラアゲ　トリヨシ",
      "business_type": "① 飲食店営業",
      "address": "熊本県下益城郡美里町等（熊本県下一円）熊本１００　そ　４１５５",
      "lat": 32.941094,
      "lng": 130.606756,
      "geocoding_level": null,
      "phone": "0964-48-0545",
      "license_no": "熊本県指令宇保第食1-1-102号",
      "license_date": "2023-11-28",
      "expire_date": "2028-11-30"
    },
    {
      "name": "河野商店",
      "name_kana": "カワノショウテン",
      "business_type": "⑰ 農産保存食料品製造・加工業",
      "address": "熊本県下益城郡美里町遠野１７４２",
      "lat": 32.642649,
      "lng": 130.931182,
      "geocoding_level": null,
      "phone": "0964480556",
      "license_no": "",
      "license_date": null,
      "expire_date": null
    },
    {
      "name": "きつねのてぶくろ",
      "name_kana": "キツネノテブクロ",
      "business_type": "① 飲食店営業",
      "address": "熊本県下益城郡美里町白石野６８５－１",
      "lat": 32.609114,
      "lng": 130.787873,
      "geocoding_level": null,
      "phone": "",
      "license_no": "熊本県指令宇保第食1-1-62号",
      "license_date": "2021-09-02",
      "expire_date": "2027-11-30"
    },
    {
      "name": "株式会社そのだ",
      "name_kana": "カブシキガイシャソノダ",
      "business_type": "⑦ 野菜果物販売業",
      "address": "熊本県下益城郡美里町中郡1504番地",
      "lat": 32.63733,
      "lng": 130.79678,
      "geocoding_level": null,
      "phone": "07040746919",
      "license_no": "",
      "license_date": null,
      "expire_date": null
    },
    {
      "name": "ホームプラザナフコ美里店",
      "name_kana": "ホームプラザミサトテン",
      "business_type": "⑬ その他の食料・飲料販売業",
      "address": "熊本県下益城郡美里町馬場912",
      "lat": 32.641497,
      "lng": 130.790357,
      "geocoding_level": null,
      "phone": "0964464171",
      "license_no": "",
      "license_date": null,
      "expire_date": null
    },
    {
      "name": "ロードステーションほたる",
      "name_kana": "ロードステーションホタル",
      "business_type": "⑦ 野菜果物販売業",
      "address": "熊本県下益城郡美里町二和田1303-1",
      "lat": 32.620255,
      "lng": 130.861208,
      "geocoding_level": null,
      "phone": "0964471022",
      "license_no": "",
      "license_date": null,
      "expire_date": null
    },
    {
      "name": "ロードステーションほたる",
      "name_kana": "ロードステーションホタル",
      "business_type": "⑬ その他の食料・飲料販売業",
      "address": "熊本県下益城郡美里町二和田1303-1",
      "lat": 32.620255,
      "lng": 130.861208,
      "geocoding_level": null,
      "phone": "0964471022",
      "license_no": "",
      "license_date": null,
      "expire_date": null
    },
    {
      "name": "ロードステーション　ほたる",
      "name_kana": "ロードステーション　ホタル",
      "business_type": "① 飲食店営業",
      "address": "熊本県下益城郡美里町二和田1303の1",
      "lat": 32.620246,
      "lng": 130.861193,
      "geocoding_level": null,
      "phone": "0964-47-1022",
      "license_no": "熊本県指令宇保第食1-1-136号",
      "license_date": "2025-02-20",
      "expire_date": "2031-02-28"
    },
    {
      "name": "はちす保育園",
      "name_kana": "ハチスホイクエン",
      "business_type": "㉖ 集団給食施設",
      "address": "熊本県下益城郡美里町土喰352",
      "lat": 32.619228,
      "lng": 130.871124,
      "geocoding_level": null,
      "phone": "0964472260",
      "license_no": "",
      "license_date": null,
      "expire_date": null
    },
    {
      "name": "わき出る泉",
      "name_kana": "ワキデルイズミ",
      "business_type": "㉕ そうざい製造業",
      "address": "熊本県下益城郡美里町佐俣７０５",
      "lat": 32.623628,
      "lng": 130.822491,
      "geocoding_level": null,
      "phone": "0964464111",
      "license_no": "熊本県指令宇保第食25-5号",
      "license_date": "2021-10-19",
      "expire_date": "2027-11-30"
    },
    {
      "name": "特別養護老人ホームこもれび",
      "name_kana": "トクベツヨウゴロウジンホームコモレビ",
      "business_type": "㉖ 集団給食施設",
      "address": "熊本県下益城郡美里町佐俣３３８",
      "lat": 32.621564,
      "lng": 130.820839,
      "geocoding_level": null,
      "phone": "0964476200",
      "license_no": "",
      "license_date": null,
      "expire_date": null
    },
    {
      "name": "後藤青果",
      "name_kana": "ゴトウセイカ",
      "business_type": "⑦ 野菜果物販売業",
      "address": "熊本県下益城郡美里町小筵７８８－２",
      "lat": 32.626348,
      "lng": 130.812995,
      "geocoding_level": null,
      "phone": "",
      "license_no": "",
      "license_date": null,
      "expire_date": null
    },
    {
      "name": "右田園",
      "name_kana": "ミギタエン",
      "business_type": "㉑ 製茶業",
      "address": "熊本県下益城郡美里町中郡７５５－２",
      "lat": 32.648665,
      "lng": 130.799307,
      "geocoding_level": null,
      "phone": "0964462336",
      "license_no": "",
      "license_date": null,
      "expire_date": null
    },
    {
      "name": "有佐スーパー砥用店",
      "name_kana": "アリサスーパートモチテン",
      "business_type": "⑪ 百貨店、総合スーパー",
      "address": "熊本県下益城郡美里町原町180",
      "lat": 32.61808,
      "lng": 130.865695,
      "geocoding_level": null,
      "phone": "0964-47-1005",
      "license_no": "",
      "license_date": null,
      "expire_date": null
    },
    {
      "name": "有佐スーパー中央店",
      "name_kana": "アリサスーパーチュウオウテン",
      "business_type": "㉙ 漬物製造業",
      "address": "熊本県下益城郡美里町馬場７８９－１",
      "lat": 32.643157,
      "lng": 130.788069,
      "geocoding_level": null,
      "phone": "0964463939",
      "license_no": "熊本県指令宇保第食29-11号",
      "license_date": "2023-02-27",
      "expire_date": "2029-02-28"
    },
    {
      "name": "有佐スーパー中央店",
      "name_kana": "アリサスーパーチュウオウテン",
      "business_type": "⑪ 百貨店、総合スーパー",
      "address": "熊本県下益城郡美里町馬場789-1",
      "lat": 32.643157,
      "lng": 130.788069,
      "geocoding_level": null,
      "phone": "0964-46-3939",
      "license_no": "",
      "license_date": null,
      "expire_date": null
    },
    {
      "name": "ファミリーフードありさ中央店",
      "name_kana": "ファミリーフードアリサチュウオウテン",
      "business_type": "④ 魚介類販売業",
      "address": "熊本県下益城郡美里町馬場789番地1",
      "lat": 32.643157,
      "lng": 130.788069,
      "geocoding_level": null,
      "phone": "0964-46-3939",
      "license_no": "熊本県指令宇保第食4-5号",
      "license_date": "2025-09-01",
      "expire_date": "2031-08-31"
    },
    {
      "name": "ファミリーフードありさ中央店",
      "name_kana": "ファミリーフードアリサチュウオウテン",
      "business_type": "③ 食肉販売業",
      "address": "熊本県下益城郡美里町馬場789番地1",
      "lat": 32.643157,
      "lng": 130.788069,
      "geocoding_level": null,
      "phone": "0964-46-3939",
      "license_no": "熊本県指令宇保第食3-5号",
      "license_date": "2025-09-01",
      "expire_date": "2031-08-31"
    },
    {
      "name": "ファミリーフードありさ中央店",
      "name_kana": "ファミリーフードアリサチュウオウテン",
      "business_type": "① 飲食店営業",
      "address": "熊本県下益城郡美里町馬場789番地1",
      "lat": 32.643157,
      "lng": 130.788069,
      "geocoding_level": null,
      "phone": "0964-46-3939",
      "license_no": "熊本県指令宇保第食1-1-72号",
      "license_date": "2025-09-01",
      "expire_date": "2031-08-31"
    },
    {
      "name": "なごみの里",
      "name_kana": "ナゴミノサト",
      "business_type": "① 飲食店営業",
      "address": "熊本県下益城郡美里町堅志田１９２－１",
      "lat": 32.646963,
      "lng": 130.790528,
      "geocoding_level": null,
      "phone": "",
      "license_no": "熊本県指令宇保第食1-1-87号",
      "license_date": "2021-11-09",
      "expire_date": "2027-11-30"
    },
    {
      "name": "美里リハビリテーション病院介護医療院事業所",
      "name_kana": "ミサトリハビリテーションビョウインカイゴイリョウインジギョウショ",
      "business_type": "① 飲食店営業",
      "address": "熊本県下益城郡美里町洞岳1308",
      "lat": 32.635405,
      "lng": 130.922853,
      "geocoding_level": null,
      "phone": "",
      "license_no": "熊本県指令宇保第食1-1-53号",
      "license_date": "2025-08-18",
      "expire_date": "2031-08-31"
    },
    {
      "name": "ドラッグコスモス美里店",
      "name_kana": "ドラッグコスモスミサトテン",
      "business_type": "⑪ 百貨店、総合スーパー",
      "address": "熊本県下益城郡美里町小筵920-1",
      "lat": 32.623663,
      "lng": 130.81382,
      "geocoding_level": null,
      "phone": "0964-34-7322",
      "license_no": "",
      "license_date": null,
      "expire_date": null
    },
    {
      "name": "石窯ＰＩＺＺＡ　ＨＡＲＶＥＳＴ",
      "name_kana": "イシガマピザ　ハーベスト",
      "business_type": "① 飲食店営業",
      "address": "熊本県下益城郡美里町等（熊本県下一円）",
      "lat": 32.639689,
      "lng": 130.788769,
      "geocoding_level": null,
      "phone": "",
      "license_no": "熊本県指令宇保第食1-1-89号",
      "license_date": "2021-11-09",
      "expire_date": "2026-11-30"
    },
    {
      "name": "NATTY’S",
      "name_kana": "ナッティズ",
      "business_type": "① 飲食店営業",
      "address": "熊本県下益城郡美里町等（熊本県下一円）　熊本４８０の５４８１",
      "lat": 32.639689,
      "lng": 130.788769,
      "geocoding_level": null,
      "phone": "",
      "license_no": "熊本県指令宇保第食1-1-138号",
      "license_date": "2023-02-22",
      "expire_date": "2028-02-28"
    },
    {
      "name": "美里町立砥用小学校",
      "name_kana": "ミサトチョウリツトモチショウガッコウ",
      "business_type": "㉖ 集団給食施設",
      "address": "熊本県下益城郡美里町土喰３３０",
      "lat": 32.619469,
      "lng": 130.871025,
      "geocoding_level": null,
      "phone": "0964470009",
      "license_no": "",
      "license_date": null,
      "expire_date": null
    },
    {
      "name": "美里町立励徳小学校",
      "name_kana": "ミサトチョウリツレイトクショウガッコウ",
      "business_type": "㉖ 集団給食施設",
      "address": "熊本県下益城郡美里町畝野１９４４",
      "lat": 32.63994,
      "lng": 130.91882,
      "geocoding_level": null,
      "phone": "0964480106",
      "license_no": "",
      "license_date": null,
      "expire_date": null
    },
    {
      "name": "美里町立中央小学校",
      "name_kana": "ミサトチョウリツチュウオウショウガッコウ",
      "business_type": "㉖ 集団給食施設",
      "address": "熊本県下益城郡美里町馬場５３７番地１",
      "lat": 32.645869,
      "lng": 130.791687,
      "geocoding_level": null,
      "phone": "0964462004",
      "license_no": "",
      "license_date": null,
      "expire_date": null
    },
    {
      "name": "今村なかよし会",
      "name_kana": "イマムラナカヨシカイ",
      "business_type": "⑰ 農産保存食料品製造・加工業",
      "address": "熊本県下益城郡美里町豊富530",
      "lat": 32.636191,
      "lng": 130.880386,
      "geocoding_level": null,
      "phone": "",
      "license_no": "",
      "license_date": null,
      "expire_date": null
    },
    {
      "name": "レーベン",
      "name_kana": "レーベン",
      "business_type": "⑬ その他の食料・飲料販売業",
      "address": "熊本県下益城郡美里町馬場728",
      "lat": 32.642358,
      "lng": 130.791184,
      "geocoding_level": null,
      "phone": "0964463908",
      "license_no": "",
      "license_date": null,
      "expire_date": null
    },
    {
      "name": "岩越酒店",
      "name_kana": "イワコシサケテン",
      "business_type": "⑬ その他の食料・飲料販売業",
      "address": "熊本県下益城郡美里町遠野1748-1",
      "lat": 32.643097,
      "lng": 130.93082,
      "geocoding_level": null,
      "phone": "0964480055",
      "license_no": "",
      "license_date": null,
      "expire_date": null
    },
    {
      "name": "ホームプラザナフコ　美里店",
      "name_kana": "ホームプラザナフコ　ミサトテン",
      "business_type": "⑬ その他の食料・飲料販売業",
      "address": "熊本県下益城郡美里町馬場９１２番",
      "lat": 32.641497,
      "lng": 130.790357,
      "geocoding_level": null,
      "phone": "0964-46-4171",
      "license_no": "",
      "license_date": null,
      "expire_date": null
    },
    {
      "name": "丸宮",
      "name_kana": "マルミヤ",
      "business_type": "㉙ 漬物製造業",
      "address": "熊本県下益城郡美里町涌井２１７８",
      "lat": 32.638681,
      "lng": 130.891014,
      "geocoding_level": null,
      "phone": "0964471890",
      "license_no": "熊本県指令宇保第食29-4号",
      "license_date": "2021-12-01",
      "expire_date": "2027-11-30"
    },
    {
      "name": "日置",
      "name_kana": "ヘキ",
      "business_type": "㉙ 漬物製造業",
      "address": "熊本県下益城郡美里町三和３２４",
      "lat": 32.623324,
      "lng": 130.871523,
      "geocoding_level": null,
      "phone": "",
      "license_no": "熊本県指令宇保第食29-6号",
      "license_date": "2021-12-01",
      "expire_date": "2027-11-30"
    },
    {
      "name": "三和りんどう",
      "name_kana": "ミワリンドウ",
      "business_type": "㉓ 納豆製造業",
      "address": "熊本県下益城郡美里町三和７４３",
      "lat": 32.626783,
      "lng": 130.87124,
      "geocoding_level": null,
      "phone": "",
      "license_no": "熊本県指令宇保第食23-1号",
      "license_date": "2021-12-01",
      "expire_date": "2027-11-30"
    },
    {
      "name": "真秀の郷",
      "name_kana": "マホロバノサト",
      "business_type": "⑪ 菓子製造業",
      "address": "熊本県下益城郡美里町萱野1346",
      "lat": 32.630442,
      "lng": 130.808027,
      "geocoding_level": null,
      "phone": "0964487070",
      "license_no": "熊本県指令宇保第食11-29号",
      "license_date": "2023-02-27",
      "expire_date": "2029-02-28"
    },
    {
      "name": "真秀の郷",
      "name_kana": "マホロバノサト",
      "business_type": "⑦ 野菜果物販売業",
      "address": "熊本県下益城郡美里町萱野1346",
      "lat": 32.630596,
      "lng": 130.808073,
      "geocoding_level": null,
      "phone": "0964487070",
      "license_no": "",
      "license_date": null,
      "expire_date": null
    },
    {
      "name": "真秀の郷",
      "name_kana": "マホロバノサト",
      "business_type": "㉙ 漬物製造業",
      "address": "熊本県下益城郡美里町萱野1346",
      "lat": 32.630442,
      "lng": 130.808027,
      "geocoding_level": null,
      "phone": "0964-48-7070",
      "license_no": "熊本県指令宇保第食29-4号",
      "license_date": "2024-02-28",
      "expire_date": "2030-02-28"
    },
    {
      "name": "にっ田や",
      "name_kana": "ニッタヤ",
      "business_type": "⑪ 菓子製造業",
      "address": "熊本県下益城郡美里町遠野３１００番地",
      "lat": 32.645119,
      "lng": 130.93496,
      "geocoding_level": null,
      "phone": "",
      "license_no": "熊本県指令宇保第食11-8号",
      "license_date": "2021-12-16",
      "expire_date": "2028-02-29"
    },
    {
      "name": "高津商店",
      "name_kana": "タカツショウテン",
      "business_type": "⑬ その他の食料・飲料販売業",
      "address": "熊本県下益城郡美里町畝野1657-1",
      "lat": 32.639574,
      "lng": 130.913591,
      "geocoding_level": null,
      "phone": "",
      "license_no": "",
      "license_date": null,
      "expire_date": null
    },
    {
      "name": "信合店",
      "name_kana": "シンゴウテン",
      "business_type": "⑬ その他の食料・飲料販売業",
      "address": "熊本県下益城郡美里町永富171",
      "lat": 32.620285,
      "lng": 130.85913,
      "geocoding_level": null,
      "phone": "0964470421",
      "license_no": "",
      "license_date": null,
      "expire_date": null
    },
    {
      "name": "THE　KEYSTONE　GARDEN",
      "name_kana": "ザ　キーストーン　ガーデン",
      "business_type": "⑬ その他の食料・飲料販売業",
      "address": "熊本県下益城郡美里町清水1161",
      "lat": 32.628763,
      "lng": 130.888142,
      "geocoding_level": null,
      "phone": "0964471775",
      "license_no": "",
      "license_date": null,
      "expire_date": null
    },
    {
      "name": "市川製茶園",
      "name_kana": "イチカワセイチャエン",
      "business_type": "㉙ 漬物製造業",
      "address": "熊本県下益城郡美里町払川２６０",
      "lat": 32.585897,
      "lng": 130.804666,
      "geocoding_level": null,
      "phone": "",
      "license_no": "熊本県指令宇保第食29-10号",
      "license_date": "2022-02-22",
      "expire_date": "2028-02-29"
    },
    {
      "name": "市川製茶園",
      "name_kana": "イチカワセイチャエン",
      "business_type": "⑬ その他の食料・飲料販売業",
      "address": "熊本県下益城郡美里町払川260",
      "lat": 32.585897,
      "lng": 130.804666,
      "geocoding_level": null,
      "phone": "090-1517-1135",
      "license_no": "",
      "license_date": null,
      "expire_date": null
    },
    {
      "name": "市川製茶園",
      "name_kana": "イチカワセイチャエン",
      "business_type": "㉑ 製茶業",
      "address": "熊本県下益城郡美里町払川260",
      "lat": 32.585897,
      "lng": 130.804666,
      "geocoding_level": null,
      "phone": "090-1517-1135",
      "license_no": "",
      "license_date": null,
      "expire_date": null
    },
    {
      "name": "g3farm　濱田翔眞",
      "name_kana": "ジースリーファーム　ハマダショウマ",
      "business_type": "⑬ その他の食料・飲料販売業",
      "address": "熊本県下益城郡美里町堅志田201-3",
      "lat": 32.646774,
      "lng": 130.790128,
      "geocoding_level": null,
      "phone": "",
      "license_no": "",
      "license_date": null,
      "expire_date": null
    },
    {
      "name": "g3farm　濱田翔眞",
      "name_kana": "ジースリーファーム　ハマダショウマ",
      "business_type": "⑰ 農産保存食料品製造・加工業",
      "address": "熊本県下益城郡美里町堅志田201-3",
      "lat": 32.646774,
      "lng": 130.790128,
      "geocoding_level": null,
      "phone": "",
      "license_no": "",
      "license_date": null,
      "expire_date": null
    },
    {
      "name": "吉美屋",
      "name_kana": "ヨシミヤ",
      "business_type": "㉙ 漬物製造業",
      "address": "熊本県下益城郡美里町遠野２５１番地１",
      "lat": 32.642516,
      "lng": 130.926096,
      "geocoding_level": null,
      "phone": "",
      "license_no": "熊本県指令宇保第食29-1号",
      "license_date": "2022-06-07",
      "expire_date": "2028-08-31"
    },
    {
      "name": "山屋",
      "name_kana": "ヤマヤ",
      "business_type": "① 飲食店営業",
      "address": "熊本県下益城郡美里町堅志田９８",
      "lat": 32.645726,
      "lng": 130.787006,
      "geocoding_level": null,
      "phone": "0964-46-2906",
      "license_no": "熊本県指令宇保第食1-1-9号",
      "license_date": "2022-05-30",
      "expire_date": "2028-05-31"
    },
    {
      "name": "ファミリーマート美里砥用",
      "name_kana": "ファミリーマートミサトトモチ",
      "business_type": "① 飲食店営業",
      "address": "熊本県下益城郡美里町大窪９１７－１",
      "lat": 32.615415,
      "lng": 130.850571,
      "geocoding_level": null,
      "phone": "0964-47-1139",
      "license_no": "熊本県指令宇保第食1-1-20号",
      "license_date": "2022-06-28",
      "expire_date": "2028-08-31"
    },
    {
      "name": "ファミリーマート美里砥用",
      "name_kana": "ファミリーマートミサトトモチ",
      "business_type": "⑩ コンビニエンスストア",
      "address": "熊本県下益城郡美里町大窪９１７－１",
      "lat": 32.615415,
      "lng": 130.850571,
      "geocoding_level": null,
      "phone": "",
      "license_no": "",
      "license_date": null,
      "expire_date": null
    },
    {
      "name": "石山漬物店",
      "name_kana": "イシヤマツケモノテン",
      "business_type": "㉙ 漬物製造業",
      "address": "熊本県下益城郡美里町岩野３６４４",
      "lat": 32.609612,
      "lng": 130.822222,
      "geocoding_level": null,
      "phone": "",
      "license_no": "熊本県指令宇保第食29-4号",
      "license_date": "2022-08-18",
      "expire_date": "2028-08-31"
    },
    {
      "name": "石山つけもの店",
      "name_kana": "イシヤマツケモノテン",
      "business_type": "⑰ 農産保存食料品製造・加工業",
      "address": "熊本県下益城郡美里町岩野3644",
      "lat": 32.609612,
      "lng": 130.822222,
      "geocoding_level": null,
      "phone": "0964-46-3830",
      "license_no": "",
      "license_date": null,
      "expire_date": null
    },
    {
      "name": "濱田農園",
      "name_kana": "ハマダノウエン",
      "business_type": "㉙ 漬物製造業",
      "address": "熊本県下益城郡美里町中郡５４８",
      "lat": 32.653805,
      "lng": 130.798261,
      "geocoding_level": null,
      "phone": "0964-46-2326",
      "license_no": "熊本県指令宇保第食29-6号",
      "license_date": "2022-08-23",
      "expire_date": "2028-08-31"
    },
    {
      "name": "たかしま園",
      "name_kana": "タカシマエン",
      "business_type": "① 飲食店営業",
      "address": "熊本県下益城郡美里町等（熊本県下一円）",
      "lat": 32.639689,
      "lng": 130.788769,
      "geocoding_level": null,
      "phone": "",
      "license_no": "熊本県指令宇保第食1-1-53号",
      "license_date": "2022-10-12",
      "expire_date": "2028-11-30"
    },
    {
      "name": "たかしま園",
      "name_kana": "タカシマエン",
      "business_type": "⑫ アイスクリーム類製造業",
      "address": "熊本県下益城郡美里町払川１５４－１",
      "lat": 32.589033,
      "lng": 130.808054,
      "geocoding_level": null,
      "phone": "",
      "license_no": "熊本県指令宇保第食12-1号",
      "license_date": "2022-11-04",
      "expire_date": "2028-11-30"
    },
    {
      "name": "たかしま園",
      "name_kana": "タカシマエン",
      "business_type": "⑪ 菓子製造業",
      "address": "熊本県下益城郡美里町払川１５０",
      "lat": 32.589005,
      "lng": 130.808148,
      "geocoding_level": null,
      "phone": "0964-46-3284",
      "license_no": "熊本県指令宇保第食11-11号",
      "license_date": "2022-11-04",
      "expire_date": "2028-11-30"
    },
    {
      "name": "たかしま園",
      "name_kana": "タカシマエン",
      "business_type": "㉕ そうざい製造業",
      "address": "熊本県下益城郡美里町払川１５０",
      "lat": 32.589005,
      "lng": 130.808148,
      "geocoding_level": null,
      "phone": "",
      "license_no": "熊本県指令宇保第食25-8号",
      "license_date": "2022-11-04",
      "expire_date": "2028-11-30"
    },
    {
      "name": "喫茶去たかしま園",
      "name_kana": "キッサコタカシマエン",
      "business_type": "① 飲食店営業",
      "address": "熊本県下益城郡美里町払川155-1",
      "lat": 32.58923,
      "lng": 130.808395,
      "geocoding_level": null,
      "phone": "",
      "license_no": "熊本県指令宇保第食1-1-27号",
      "license_date": "2025-05-30",
      "expire_date": "2031-05-31"
    },
    {
      "name": "たまゆら",
      "name_kana": "タマユラ",
      "business_type": "⑪ 菓子製造業",
      "address": "熊本県下益城郡美里町名越谷１４２９",
      "lat": 32.63549,
      "lng": 130.849543,
      "geocoding_level": null,
      "phone": "",
      "license_no": "熊本県指令宇保第食11-20号",
      "license_date": "2022-11-22",
      "expire_date": "2028-11-30"
    },
    {
      "name": "みやざき屋",
      "name_kana": "ミヤザキヤ",
      "business_type": "⑰ 農産保存食料品製造・加工業",
      "address": "熊本県下益城郡美里町川越4226-7",
      "lat": 32.645969,
      "lng": 130.896095,
      "geocoding_level": null,
      "phone": "",
      "license_no": "",
      "license_date": null,
      "expire_date": null
    },
    {
      "name": "岡崎物産",
      "name_kana": "オカザキブッサン",
      "business_type": "⑪ 菓子製造業",
      "address": "熊本県下益城郡美里町三和４６８",
      "lat": 32.623912,
      "lng": 130.86933,
      "geocoding_level": null,
      "phone": "",
      "license_no": "熊本県指令宇保第食11-8号",
      "license_date": "2022-10-14",
      "expire_date": "2028-11-30"
    },
    {
      "name": "ボードゲームカフェ　メレニ",
      "name_kana": "ボードゲームカフェ　メレニ",
      "business_type": "① 飲食店営業",
      "address": "熊本県下益城郡美里町馬場808-1",
      "lat": 32.645002,
      "lng": 130.786722,
      "geocoding_level": null,
      "phone": "",
      "license_no": "熊本県指令宇保第食1-1-115号",
      "license_date": "2023-01-19",
      "expire_date": "2029-02-28"
    },
    {
      "name": "やまめ茶屋",
      "name_kana": "ヤマメチャヤ",
      "business_type": "① 飲食店営業",
      "address": "熊本県下益城郡美里町早楠１９５１番地",
      "lat": 32.592751,
      "lng": 130.887088,
      "geocoding_level": null,
      "phone": "0964-47-1239",
      "license_no": "熊本県指令宇保第食1-1-73号",
      "license_date": "2022-11-18",
      "expire_date": "2028-11-30"
    },
    {
      "name": "マイキッチン",
      "name_kana": "マイキッチン",
      "business_type": "① 飲食店営業",
      "address": "熊本県下益城郡美里町二和田１３２２－１",
      "lat": 32.620778,
      "lng": 130.861959,
      "geocoding_level": null,
      "phone": "0964-47-1936",
      "license_no": "熊本県指令宇保第食1-1-80号",
      "license_date": "2022-12-14",
      "expire_date": "2029-02-28"
    },
    {
      "name": "株式会社きこり",
      "name_kana": "カブシキガイシャキコリ",
      "business_type": "㉕ そうざい製造業",
      "address": "熊本県下益城郡美里町畝野３４５３",
      "lat": 32.628376,
      "lng": 130.908548,
      "geocoding_level": null,
      "phone": "0964-47-1919",
      "license_no": "熊本県指令宇保第食25-11号",
      "license_date": "2022-11-28",
      "expire_date": "2028-11-30"
    },
    {
      "name": "きこり",
      "name_kana": "キコリ",
      "business_type": "① 飲食店営業",
      "address": "熊本県下益城郡美里町等（熊本県下一円）",
      "lat": 32.639689,
      "lng": 130.788769,
      "geocoding_level": null,
      "phone": "",
      "license_no": "熊本県指令宇保第食1-1-119号",
      "license_date": "2024-02-01",
      "expire_date": "2029-02-28"
    },
    {
      "name": "みさと会",
      "name_kana": "ミサトカイ",
      "business_type": "⑳ みそ又はしょうゆ製造業",
      "address": "熊本県下益城郡美里町佐俣705",
      "lat": 32.623628,
      "lng": 130.822491,
      "geocoding_level": null,
      "phone": "",
      "license_no": "熊本県指令宇保第食20-1号",
      "license_date": "2024-02-28",
      "expire_date": "2030-02-28"
    },
    {
      "name": "スイーツ工房きこり",
      "name_kana": "スイーツコウボウキコリ",
      "business_type": "① 飲食店営業",
      "address": "熊本県下益城郡美里町畝野3453",
      "lat": 32.628376,
      "lng": 130.908548,
      "geocoding_level": null,
      "phone": "",
      "license_no": "熊本県指令宇保第食1-1-57号",
      "license_date": "2024-08-23",
      "expire_date": "2030-08-31"
    },
    {
      "name": "みさと会",
      "name_kana": "ミサトカイ",
      "business_type": "㉙ 漬物製造業",
      "address": "熊本県下益城郡美里町佐俣705",
      "lat": 32.623628,
      "lng": 130.822491,
      "geocoding_level": null,
      "phone": "",
      "license_no": "熊本県指令宇保第食29-15号",
      "license_date": "2024-12-11",
      "expire_date": "2031-02-28"
    },
    {
      "name": "Little Farmer's Bakery GOTO",
      "name_kana": "リトルファーマーズベーカリーゴトウ",
      "business_type": "① 飲食店営業",
      "address": "熊本県下益城郡美里町松野原７０番地",
      "lat": 32.609391,
      "lng": 130.802969,
      "geocoding_level": null,
      "phone": "",
      "license_no": "熊本県指令宇保第食1-1-131号",
      "license_date": "2023-02-13",
      "expire_date": "2029-02-28"
    },
    {
      "name": "Little Farmer's Bakery GOTO",
      "name_kana": "リトルファーマーズベーカリーゴトウ",
      "business_type": "⑪ 菓子製造業",
      "address": "熊本県下益城郡美里町松野原７０番地",
      "lat": 32.609391,
      "lng": 130.802969,
      "geocoding_level": null,
      "phone": "",
      "license_no": "熊本県指令宇保第食11-27号",
      "license_date": "2023-02-13",
      "expire_date": "2029-02-28"
    },
    {
      "name": "割烹さかぐち",
      "name_kana": "カッポウサカグチ",
      "business_type": "① 飲食店営業",
      "address": "熊本県下益城郡美里町土喰１９４",
      "lat": 32.617358,
      "lng": 130.870701,
      "geocoding_level": null,
      "phone": "0964-47-2121",
      "license_no": "熊本県指令宇保第食1-1-128号",
      "license_date": "2023-02-13",
      "expire_date": "2029-02-28"
    },
    {
      "name": "割烹さかぐち",
      "name_kana": "カッポウサカグチ",
      "business_type": "④ 魚介類販売業",
      "address": "熊本県下益城郡美里町土喰１９４",
      "lat": 32.617358,
      "lng": 130.870701,
      "geocoding_level": null,
      "phone": "0964-47-2121",
      "license_no": "熊本県指令宇保第食4-6号",
      "license_date": "2023-02-13",
      "expire_date": "2029-02-28"
    },
    {
      "name": "割烹さかぐち",
      "name_kana": "カッポウサカグチ",
      "business_type": "④ 氷雪販売業",
      "address": "熊本県下益城郡美里町土喰１９４",
      "lat": 32.617358,
      "lng": 130.870701,
      "geocoding_level": null,
      "phone": "0964-47-2121",
      "license_no": "",
      "license_date": null,
      "expire_date": null
    },
    {
      "name": "七滝元気組",
      "name_kana": "ナナタキゲンキグミ",
      "business_type": "⑳ みそ又はしょうゆ製造業",
      "address": "熊本県下益城郡美里町佐俣７０５",
      "lat": 32.623628,
      "lng": 130.822491,
      "geocoding_level": null,
      "phone": "",
      "license_no": "熊本県指令宇保第食20-1号",
      "license_date": "2023-03-06",
      "expire_date": "2029-05-31"
    },
    {
      "name": "百笑庵　あぜつ",
      "name_kana": "ヒャクショウアン　アゼツ",
      "business_type": "① 飲食店営業",
      "address": "熊本県下益城郡美里町等（熊本県下一円）",
      "lat": 32.639689,
      "lng": 130.788769,
      "geocoding_level": null,
      "phone": "",
      "license_no": "熊本県指令宇保第食1-1-146号",
      "license_date": "2023-03-07",
      "expire_date": "2028-05-31"
    },
    {
      "name": "百笑庵　あぜつ",
      "name_kana": "ヒャクショウアン　アゼツ",
      "business_type": "① 飲食店営業",
      "address": "熊本県下益城郡美里町涌井１８７０",
      "lat": 32.63743,
      "lng": 130.891566,
      "geocoding_level": null,
      "phone": "",
      "license_no": "熊本県指令宇保第食1-1-139号",
      "license_date": "2026-02-05",
      "expire_date": "2032-02-29"
    },
    {
      "name": "百笑庵　あぜつ",
      "name_kana": "ヒャクショウアン　アゼツ",
      "business_type": "㉙ 漬物製造業",
      "address": "熊本県下益城郡美里町涌井１８７０",
      "lat": 32.63743,
      "lng": 130.891566,
      "geocoding_level": null,
      "phone": "",
      "license_no": "熊本県指令宇保第食29-2号",
      "license_date": "2026-02-05",
      "expire_date": "2032-02-29"
    },
    {
      "name": "カラオケ　みやこ",
      "name_kana": "カラオケ　ミヤコ",
      "business_type": "① 飲食店営業",
      "address": "熊本県下益城郡美里町払川106-1",
      "lat": 32.59003,
      "lng": 130.808871,
      "geocoding_level": null,
      "phone": "0964-46-3291",
      "license_no": "熊本県指令宇保第食1-1-1号",
      "license_date": "2023-04-11",
      "expire_date": "2029-05-31"
    },
    {
      "name": "ほっ",
      "name_kana": "ホッ",
      "business_type": "⑪ 菓子製造業",
      "address": "熊本県下益城郡美里町大沢水28",
      "lat": 32.644787,
      "lng": 130.784439,
      "geocoding_level": null,
      "phone": "",
      "license_no": "熊本県指令宇保第食11-1号",
      "license_date": "2023-04-11",
      "expire_date": "2029-05-31"
    },
    {
      "name": "肉の本田",
      "name_kana": "ニクノホンダ",
      "business_type": "③ 食肉販売業",
      "address": "熊本県下益城郡美里町佐俣72-5",
      "lat": 32.622512,
      "lng": 130.819057,
      "geocoding_level": null,
      "phone": "0964-46-2766",
      "license_no": "熊本県指令宇保第食3-3号",
      "license_date": "2023-06-01",
      "expire_date": "2029-05-31"
    },
    {
      "name": "デリカ・ウィム",
      "name_kana": "デリカ・ウィム",
      "business_type": "⑨ 食肉処理業",
      "address": "熊本県下益城郡美里町中郡2139-1",
      "lat": 32.63585,
      "lng": 130.79581,
      "geocoding_level": null,
      "phone": "",
      "license_no": "熊本県指令宇保第食9-1号",
      "license_date": "2023-05-22",
      "expire_date": "2029-05-31"
    },
    {
      "name": "くるま",
      "name_kana": "クルマ",
      "business_type": "⑬ その他の食料・飲料販売業",
      "address": "熊本県下益城郡美里町坂本2547番地3",
      "lat": 32.577214,
      "lng": 130.82148,
      "geocoding_level": null,
      "phone": "",
      "license_no": "",
      "license_date": null,
      "expire_date": null
    },
    {
      "name": "三千段の民宿　幸登里",
      "name_kana": "サンゼンダンノミンシュク　コトリ",
      "business_type": "① 飲食店営業",
      "address": "熊本県下益城郡美里町坂本450",
      "lat": 32.57815,
      "lng": 130.818172,
      "geocoding_level": null,
      "phone": "0964-46-3248",
      "license_no": "熊本県指令宇保第食1-1-127号",
      "license_date": "2025-02-18",
      "expire_date": "2031-02-28"
    },
    {
      "name": "２１８",
      "name_kana": "ニーイチハチ",
      "business_type": "① 飲食店営業",
      "address": "熊本県下益城郡美里町三和259-3",
      "lat": 32.621413,
      "lng": 130.871153,
      "geocoding_level": null,
      "phone": "",
      "license_no": "熊本県指令宇保第食1-1-120号",
      "license_date": "2024-02-06",
      "expire_date": "2030-02-28"
    },
    {
      "name": "中央青葉保育園",
      "name_kana": "チュウオウアオバホイクエン",
      "business_type": "㉖ 集団給食施設",
      "address": "熊本県下益城郡美里町萱野1007番地",
      "lat": 32.63699,
      "lng": 130.805911,
      "geocoding_level": null,
      "phone": "0964-46-3709",
      "license_no": "",
      "license_date": null,
      "expire_date": null
    },
    {
      "name": "YAMAME WORLD",
      "name_kana": "ヤマメ　ワールド",
      "business_type": "① 飲食店営業",
      "address": "熊本県下益城郡美里町三加440-1",
      "lat": 32.629161,
      "lng": 130.848186,
      "geocoding_level": null,
      "phone": "090-8661-1614",
      "license_no": "熊本県指令宇保第食1-1-86号",
      "license_date": "2023-11-15",
      "expire_date": "2029-11-30"
    },
    {
      "name": "松本商店",
      "name_kana": "マツモトショウテン",
      "business_type": "⑪ 菓子製造業",
      "address": "熊本県下益城郡美里町畝野3827-1",
      "lat": 32.634447,
      "lng": 130.902522,
      "geocoding_level": null,
      "phone": "090-1169-8672",
      "license_no": "熊本県指令宇保第食11-19号",
      "license_date": "2023-11-28",
      "expire_date": "2029-11-30"
    },
    {
      "name": "石田農産",
      "name_kana": "イシダノウサン",
      "business_type": "⑪ 菓子製造業",
      "address": "熊本県下益城郡美里町長尾野89",
      "lat": 32.616716,
      "lng": 130.80948,
      "geocoding_level": null,
      "phone": "",
      "license_no": "熊本県指令宇保第食11-20号",
      "license_date": "2023-11-28",
      "expire_date": "2029-11-30"
    },
    {
      "name": "吉竹ライスセンター",
      "name_kana": "ヨシタケライスセンター",
      "business_type": "⑳ 精穀・製粉業",
      "address": "熊本県下益城郡美里町三加3594",
      "lat": 32.622866,
      "lng": 130.845565,
      "geocoding_level": null,
      "phone": "",
      "license_no": "",
      "license_date": null,
      "expire_date": null
    },
    {
      "name": "めぐみ食品株式会社",
      "name_kana": "メグミショクヒンカブシキガイシャ",
      "business_type": "㉕ そうざい製造業",
      "address": "熊本県下益城郡美里町萱野21-1",
      "lat": 32.634267,
      "lng": 130.802824,
      "geocoding_level": null,
      "phone": "0964-27-5018",
      "license_no": "熊本県指令宇保第食25-14号",
      "license_date": "2023-12-20",
      "expire_date": "2030-02-28"
    },
    {
      "name": "めぐみ食品株式会社",
      "name_kana": "メグミショクヒンカブシキガイシャ",
      "business_type": "⑬ その他の食料・飲料販売業",
      "address": "熊本県下益城郡美里町萱野21-1",
      "lat": 32.634267,
      "lng": 130.802824,
      "geocoding_level": null,
      "phone": "0964-27-5018",
      "license_no": "",
      "license_date": null,
      "expire_date": null
    },
    {
      "name": "Niji Terrace",
      "name_kana": "ニジ　テラス",
      "business_type": "① 飲食店営業",
      "address": "熊本県下益城郡美里町坂本2547番3",
      "lat": 32.577214,
      "lng": 130.82148,
      "geocoding_level": null,
      "phone": "090-7580-5348",
      "license_no": "熊本県指令宇保第食1-1-115号",
      "license_date": "2023-12-20",
      "expire_date": "2030-02-28"
    },
    {
      "name": "Niji Terrace",
      "name_kana": "ニジ　テラス",
      "business_type": "⑬ その他の食料・飲料販売業",
      "address": "熊本県下益城郡美里町坂本2547番地3",
      "lat": 32.577214,
      "lng": 130.82148,
      "geocoding_level": null,
      "phone": "090-7580-5348",
      "license_no": "",
      "license_date": null,
      "expire_date": null
    },
    {
      "name": "おもひ・や～る",
      "name_kana": "オモヒ・ヤール",
      "business_type": "㉕ そうざい製造業",
      "address": "熊本県下益城郡美里町大窪523",
      "lat": 32.615423,
      "lng": 130.849314,
      "geocoding_level": null,
      "phone": "090-7460-9713",
      "license_no": "熊本県指令宇保第食24-15号",
      "license_date": "2025-02-20",
      "expire_date": "2031-02-28"
    },
    {
      "name": "セブンイレブン美里町中郡店",
      "name_kana": "セブンイレブンミサトマチナカゴオリテン",
      "business_type": "① 飲食店営業",
      "address": "熊本県下益城郡美里町中郡字上新谷1700番1",
      "lat": 32.627588,
      "lng": 130.794383,
      "geocoding_level": null,
      "phone": "",
      "license_no": "熊本県指令宇保第食1-1-123号",
      "license_date": "2024-02-21",
      "expire_date": "2030-02-28"
    },
    {
      "name": "漬物の吉田",
      "name_kana": "ツケモノノヨシダ",
      "business_type": "㉙ 漬物製造業",
      "address": "熊本県下益城郡美里町洞岳804",
      "lat": 32.627795,
      "lng": 130.920443,
      "geocoding_level": null,
      "phone": "0964-48-0128",
      "license_no": "熊本県指令宇保第食29-3号",
      "license_date": "2024-02-28",
      "expire_date": "2030-02-28"
    },
    {
      "name": "そば処　そばの実",
      "name_kana": "ソバドコロ　ソバノミ",
      "business_type": "① 飲食店営業",
      "address": "熊本県下益城郡美里町洞岳804",
      "lat": 32.627795,
      "lng": 130.920443,
      "geocoding_level": null,
      "phone": "0964-48-0128",
      "license_no": "熊本県指令宇保第食1-1-138号",
      "license_date": "2024-02-28",
      "expire_date": "2030-02-28"
    },
    {
      "name": "美里町屋内ゲートボール場（アートクラフト手作り展）（令和6年3月23日～3月24日）",
      "name_kana": "ミサトマチオクナイゲートボールジョウ",
      "business_type": "⑦ 野菜果物販売業",
      "address": "熊本県下益城郡美里町萱野3701-1",
      "lat": 32.633036,
      "lng": 130.804508,
      "geocoding_level": null,
      "phone": "",
      "license_no": "",
      "license_date": null,
      "expire_date": null
    },
    {
      "name": "雁俣源流の里",
      "name_kana": "カリマタゲンリュウノサト",
      "business_type": "① 飲食店営業",
      "address": "熊本県下益城郡美里町等（熊本県下一円）",
      "lat": 32.639689,
      "lng": 130.788769,
      "geocoding_level": null,
      "phone": "",
      "license_no": "熊本県指令宇保第食1-1-20号",
      "license_date": "2024-05-23",
      "expire_date": "2029-05-31"
    },
    {
      "name": "TEL.Me.",
      "name_kana": "テルミー",
      "business_type": "① 飲食店営業",
      "address": "熊本県下益城郡美里町堅志田22-1",
      "lat": 32.643816,
      "lng": 130.788082,
      "geocoding_level": null,
      "phone": "",
      "license_no": "熊本県指令宇保第食1-1-29号",
      "license_date": "2024-05-31",
      "expire_date": "2030-05-31"
    },
    {
      "name": "ミサトベース",
      "name_kana": "ミサトベース",
      "business_type": "① 飲食店営業",
      "address": "熊本県下益城郡美里町馬場1469-1",
      "lat": 32.634645,
      "lng": 130.791392,
      "geocoding_level": null,
      "phone": "",
      "license_no": "熊本県指令宇保第食1-1-33号",
      "license_date": "2024-06-12",
      "expire_date": "2030-08-31"
    },
    {
      "name": "ミサトベース",
      "name_kana": "ミサトベース",
      "business_type": "⑦ 野菜果物販売業",
      "address": "熊本県下益城郡美里町馬場1469-1",
      "lat": 32.634645,
      "lng": 130.791392,
      "geocoding_level": null,
      "phone": "",
      "license_no": "",
      "license_date": null,
      "expire_date": null
    },
    {
      "name": "木香館",
      "name_kana": "モクコカン",
      "business_type": "① 飲食店営業",
      "address": "熊本県下益城郡美里町中小路835",
      "lat": 32.640548,
      "lng": 130.779275,
      "geocoding_level": null,
      "phone": "",
      "license_no": "熊本県指令宇保第食1-1-58号",
      "license_date": "2024-08-23",
      "expire_date": "2030-08-31"
    },
    {
      "name": "やまめ茶屋",
      "name_kana": "ヤマメチャヤ",
      "business_type": "㉕ そうざい製造業",
      "address": "熊本県下益城郡美里町早楠1951",
      "lat": 32.592751,
      "lng": 130.887088,
      "geocoding_level": null,
      "phone": "",
      "license_no": "熊本県指令宇保第食25-9号",
      "license_date": "2024-08-27",
      "expire_date": "2030-08-31"
    },
    {
      "name": "美里商店",
      "name_kana": "ミサトショウテン",
      "business_type": "⑧ 米穀類販売業",
      "address": "熊本県下益城郡美里町三和420",
      "lat": 32.621699,
      "lng": 130.868763,
      "geocoding_level": null,
      "phone": "0964-27-9850",
      "license_no": "",
      "license_date": null,
      "expire_date": null
    },
    {
      "name": "Kitchen car 1184",
      "name_kana": "キッチンカー　イイハシ",
      "business_type": "① 飲食店営業",
      "address": "熊本県下益城郡美里町等（熊本県下一円）熊本８３０　さ　１１８４",
      "lat": 32.639689,
      "lng": 130.788769,
      "geocoding_level": null,
      "phone": "",
      "license_no": "熊本県指令宇保第食1-1-76号",
      "license_date": "2024-10-30",
      "expire_date": "2029-11-30"
    },
    {
      "name": "食彩館　あ助",
      "name_kana": "ショクサイカン　アスケ",
      "business_type": "① 飲食店営業",
      "address": "熊本県下益城郡美里町萱野1456番地",
      "lat": 32.632462,
      "lng": 130.807103,
      "geocoding_level": null,
      "phone": "",
      "license_no": "熊本県指令宇保第食1-1-81号",
      "license_date": "2024-11-12",
      "expire_date": "2030-11-30"
    },
    {
      "name": "カウベルン",
      "name_kana": "カウベルン",
      "business_type": "⑪ 菓子製造業",
      "address": "熊本県下益城郡美里町大沢水592-7",
      "lat": 32.652672,
      "lng": 130.783351,
      "geocoding_level": null,
      "phone": "",
      "license_no": "熊本県指令宇保第食11-12号",
      "license_date": "2024-11-28",
      "expire_date": "2030-11-30"
    },
    {
      "name": "吉住豆腐店",
      "name_kana": "ヨシズミトウフテン",
      "business_type": "㉒ 豆腐製造業",
      "address": "熊本県下益城郡美里町佐俣1830",
      "lat": 32.621183,
      "lng": 130.819281,
      "geocoding_level": null,
      "phone": "",
      "license_no": "熊本県指令宇保第食22-2号",
      "license_date": "2025-02-18",
      "expire_date": "2031-02-28"
    },
    {
      "name": "吉住豆腐店",
      "name_kana": "ヨシズミトウフテン",
      "business_type": "㉕ そうざい製造業",
      "address": "熊本県下益城郡美里町佐俣1830",
      "lat": 32.621183,
      "lng": 130.819281,
      "geocoding_level": null,
      "phone": "",
      "license_no": "熊本県指令宇保第食25-12号",
      "license_date": "2025-02-18",
      "expire_date": "2031-02-28"
    },
    {
      "name": "ホテルA-スタイル",
      "name_kana": "ホテルエースタイル",
      "business_type": "① 飲食店営業",
      "address": "熊本県下益城郡美里町大沢水255",
      "lat": 32.646054,
      "lng": 130.782728,
      "geocoding_level": null,
      "phone": "0964-46-2400",
      "license_no": "熊本県指令宇保第食1-1-135号",
      "license_date": "2025-02-18",
      "expire_date": "2031-02-28"
    },
    {
      "name": "三浦屋",
      "name_kana": "ミウラヤ",
      "business_type": "① 飲食店営業",
      "address": "熊本県下益城郡美里町堅志田70番地",
      "lat": 32.64515,
      "lng": 130.789446,
      "geocoding_level": null,
      "phone": "0964-46-2007",
      "license_no": "熊本県指令宇保第食1-1-134号",
      "license_date": "2025-02-18",
      "expire_date": "2031-02-28"
    },
    {
      "name": "杉本精肉店",
      "name_kana": "スギモトセイニクテン",
      "business_type": "③ 食肉販売業",
      "address": "熊本県下益城郡美里町原町17",
      "lat": 32.617383,
      "lng": 130.864887,
      "geocoding_level": null,
      "phone": "0964-47-2439",
      "license_no": "熊本県指令宇保第食3-6号",
      "license_date": "2025-02-20",
      "expire_date": "2031-02-28"
    },
    {
      "name": "SAUSAGE FEST",
      "name_kana": "ソーセージ　フェスト",
      "business_type": "⑮ 食肉製品製造業",
      "address": "熊本県下益城郡美里町佐俣705",
      "lat": 32.623628,
      "lng": 130.822491,
      "geocoding_level": null,
      "phone": "",
      "license_no": "熊本県指令宇保第食15-1号",
      "license_date": "2025-02-27",
      "expire_date": "2031-02-28"
    },
    {
      "name": "居酒屋べっぴん",
      "name_kana": "イザカヤベッピン",
      "business_type": "① 飲食店営業",
      "address": "熊本県下益城郡美里町二和田1291-1",
      "lat": 32.620164,
      "lng": 130.860248,
      "geocoding_level": null,
      "phone": "0964-47-2480",
      "license_no": "熊本県指令宇保第食1-1-146号",
      "license_date": "2025-02-28",
      "expire_date": "2031-02-28"
    },
    {
      "name": "田上　ゆかり",
      "name_kana": "タノウエ　ユカリ",
      "business_type": "⑰ 農産保存食料品製造・加工業",
      "address": "熊本県下益城郡美里町涌井2162",
      "lat": 32.639182,
      "lng": 130.890344,
      "geocoding_level": null,
      "phone": "0964-47-1889",
      "license_no": "",
      "license_date": null,
      "expire_date": null
    },
    {
      "name": "スナック　サファイア",
      "name_kana": "スナック　サファイア",
      "business_type": "① 飲食店営業",
      "address": "熊本県下益城郡美里町土喰170-3",
      "lat": 32.617891,
      "lng": 130.870425,
      "geocoding_level": null,
      "phone": "0964-47-0909",
      "license_no": "熊本県指令宇保第食1-1-8号",
      "license_date": "2025-05-20",
      "expire_date": "2031-05-31"
    },
    {
      "name": "美里物産館　よんなっせ",
      "name_kana": "ミサトブッサンカン　ヨンナッセ",
      "business_type": "② 食肉販売業（包装済みの食肉のみの販売）",
      "address": "熊本県下益城郡美里町畝野632番地5",
      "lat": 32.642461,
      "lng": 130.917554,
      "geocoding_level": null,
      "phone": "0964-48-1221",
      "license_no": "",
      "license_date": null,
      "expire_date": null
    },
    {
      "name": "美里物産館　よんなっせ",
      "name_kana": "ミサトブッサンカン　ヨンナッセ",
      "business_type": "⑬ その他の食料・飲料販売業",
      "address": "熊本県下益城郡美里町畝野632番地5",
      "lat": 32.642461,
      "lng": 130.917554,
      "geocoding_level": null,
      "phone": "0964-48-1221",
      "license_no": "",
      "license_date": null,
      "expire_date": null
    },
    {
      "name": "美里物産館　よんなっせ",
      "name_kana": "ミサトブッサンカン　ヨンナッセ",
      "business_type": "① 飲食店営業",
      "address": "熊本県下益城郡美里町畝野632番地5",
      "lat": 32.642461,
      "lng": 130.917554,
      "geocoding_level": null,
      "phone": "0964-48-1221",
      "license_no": "熊本県指令宇保第食1-1-28号",
      "license_date": "2025-06-17",
      "expire_date": "2031-08-31"
    },
    {
      "name": "美里物産館　よんなっせ",
      "name_kana": "ミサトブッサンカン　ヨンナッセ",
      "business_type": "㉕ そうざい製造業",
      "address": "熊本県下益城郡美里町畝野632番地5",
      "lat": 32.642461,
      "lng": 130.917554,
      "geocoding_level": null,
      "phone": "0964-48-1221",
      "license_no": "熊本県指令宇保第食25-6号",
      "license_date": "2025-06-17",
      "expire_date": "2031-08-31"
    },
    {
      "name": "Tika Scone＆Cafe’",
      "name_kana": "ティーカ　スコーンアンドカフェ",
      "business_type": "① 飲食店営業",
      "address": "熊本県下益城郡美里町佐俣105-2",
      "lat": 32.623277,
      "lng": 130.816308,
      "geocoding_level": null,
      "phone": "",
      "license_no": "熊本県指令宇保第食1-1-31号",
      "license_date": "2025-07-08",
      "expire_date": "2031-08-31"
    },
    {
      "name": "Tika Scone＆Cafe’",
      "name_kana": "ティーカ　スコーンアンドカフェ",
      "business_type": "⑪ 菓子製造業",
      "address": "熊本県下益城郡美里町佐俣105-2",
      "lat": 32.623277,
      "lng": 130.816308,
      "geocoding_level": null,
      "phone": "",
      "license_no": "熊本県指令宇保第食11-3号",
      "license_date": "2025-07-08",
      "expire_date": "2031-08-31"
    },
    {
      "name": "湯の華",
      "name_kana": "ユノハナ",
      "business_type": "① 飲食店営業",
      "address": "熊本県下益城郡美里町安部１０５６－１",
      "lat": 32.60784,
      "lng": 130.883556,
      "geocoding_level": null,
      "phone": "0964-47-1789",
      "license_no": "熊本県指令宇保第食1-1-7号",
      "license_date": "2022-05-30",
      "expire_date": "2028-05-31"
    },
    {
      "name": "虹",
      "name_kana": "ニジ",
      "business_type": "① 飲食店営業",
      "address": "熊本県下益城郡美里町畝野3797-2",
      "lat": 32.634224,
      "lng": 130.901849,
      "geocoding_level": null,
      "phone": "0964-48-1060",
      "license_no": "熊本県指令宇保第食1-1-98号",
      "license_date": "2025-10-31",
      "expire_date": "2031-11-30"
    },
    {
      "name": "住宅型有料老人ホーム　そうめい館",
      "name_kana": "ジュウタクガタユウリョウロウジンホーム　ソウメイカン",
      "business_type": "㉖ 集団給食施設",
      "address": "熊本県下益城郡美里町中郡985",
      "lat": 32.641563,
      "lng": 130.803421,
      "geocoding_level": null,
      "phone": "0964-46-3810",
      "license_no": "",
      "license_date": null,
      "expire_date": null
    },
    {
      "name": "美里の台所",
      "name_kana": "ミサトノダイドコロ",
      "business_type": "⑪ 菓子製造業",
      "address": "熊本県下益城郡美里町安部１７６－１",
      "lat": 32.617541,
      "lng": 130.878112,
      "geocoding_level": null,
      "phone": "0964-42-7177",
      "license_no": "熊本県指令宇保第食11-24号",
      "license_date": "2026-01-30",
      "expire_date": "2032-02-29"
    },
    {
      "name": "美里の台所",
      "name_kana": "ミサトノダイドコロ",
      "business_type": "㉕ そうざい製造業",
      "address": "熊本県下益城郡美里町安部１７６－１",
      "lat": 32.617541,
      "lng": 130.878112,
      "geocoding_level": null,
      "phone": "0964-42-7177",
      "license_no": "熊本県指令宇保第食25-18号",
      "license_date": "2026-01-30",
      "expire_date": "2032-02-29"
    },
    {
      "name": "信合店",
      "name_kana": "シンゴウテン",
      "business_type": "⑪ 菓子製造業",
      "address": "熊本県下益城郡美里町永富小字此受１７１番地",
      "lat": 32.604507,
      "lng": 130.865218,
      "geocoding_level": null,
      "phone": "",
      "license_no": "熊本県指令宇保第食11-27号",
      "license_date": "2026-02-12",
      "expire_date": "2032-02-29"
    },
    {
      "name": "おやつ Cafe さと",
      "name_kana": "オヤツ カフェ サト",
      "business_type": "⑪ 菓子製造業",
      "address": "熊本県下益城郡美里町堅志田２３３－１",
      "lat": 32.648347,
      "lng": 130.788065,
      "geocoding_level": null,
      "phone": "0964-46-3780",
      "license_no": "熊本県指令宇保第食11-30号",
      "license_date": "2026-03-27",
      "expire_date": "2032-05-31"
    },
    {
      "name": "Flower of Earth",
      "name_kana": "フラワーオブアース",
      "business_type": "⑪ 菓子製造業",
      "address": "熊本県下益城郡美里町境２７－１",
      "lat": 32.614431,
      "lng": 130.843355,
      "geocoding_level": null,
      "phone": "",
      "license_no": "熊本県指令宇保第食11-1号",
      "license_date": "2026-05-20",
      "expire_date": "2032-05-31"
    },
    {
      "name": "Flower of Earth",
      "name_kana": "フラワーオブアース",
      "business_type": "㉕ そうざい製造業",
      "address": "熊本県下益城郡美里町境２７－１",
      "lat": 32.614431,
      "lng": 130.843355,
      "geocoding_level": null,
      "phone": "",
      "license_no": "熊本県指令宇保第食25-3号",
      "license_date": "2026-05-20",
      "expire_date": "2032-05-31"
    }
  ]
}
