{
  "meta": {
    "updated": 1783568789,
    "sources": [
      {
        "source": "厚生労働省 食品衛生申請等システム（オープンデータ）",
        "license": "公共データ利用規約（第1.0版, PDL1.0）"
      }
    ]
  },
  "data": [
    {
      "name": "One Note Coffee Roaster",
      "name_kana": "ワンノートコーヒーロースター",
      "business_type": "⑯ コーヒー製造・加工業（飲料の製造を除く。）",
      "address": "山梨県都留市大幡77-1",
      "lat": 35.563954,
      "lng": 138.879619,
      "geocoding_level": null,
      "phone": "",
      "license_no": "",
      "license_date": null,
      "expire_date": null
    },
    {
      "name": "ダイソー　山梨都留店",
      "name_kana": "ダイソー　ヤマナシツルテン",
      "business_type": "⑬ その他の食料・飲料販売業",
      "address": "山梨県都留市つる１丁目１６－２４",
      "lat": 35.559809,
      "lng": 138.908528,
      "geocoding_level": null,
      "phone": "",
      "license_no": "",
      "license_date": null,
      "expire_date": null
    },
    {
      "name": "ダイソー　都留田野倉店",
      "name_kana": "ダイソー　ツルタノクラテン",
      "business_type": "⑬ その他の食料・飲料販売業",
      "address": "山梨県都留市田野倉３０８",
      "lat": 35.594061,
      "lng": 138.937916,
      "geocoding_level": null,
      "phone": "",
      "license_no": "",
      "license_date": null,
      "expire_date": null
    },
    {
      "name": "ツルハドラッグ都留赤坂店",
      "name_kana": "ツルハドラッグツルアカサカテン",
      "business_type": "⑪ 百貨店、総合スーパー",
      "address": "山梨県都留市四日市場129",
      "lat": 35.565037,
      "lng": 138.917797,
      "geocoding_level": null,
      "phone": "0554-20-8268",
      "license_no": "",
      "license_date": null,
      "expire_date": null
    },
    {
      "name": "ツルハドラッグ都留文大駅前店",
      "name_kana": "ツルハドラッグツルブンダイエキマエテン",
      "business_type": "③ 乳類販売業",
      "address": "山梨県都留市田原2丁目1107番",
      "lat": 35.541758,
      "lng": 138.895232,
      "geocoding_level": null,
      "phone": "0554-45-0268",
      "license_no": "",
      "license_date": null,
      "expire_date": null
    },
    {
      "name": "ツルハドラッグ都留文大駅前店",
      "name_kana": "ツルハドラッグツルブンダイエキマエテン",
      "business_type": "⑪ 百貨店、総合スーパー",
      "address": "山梨県都留市田原2丁目1107番",
      "lat": 35.541758,
      "lng": 138.895232,
      "geocoding_level": null,
      "phone": "0554-45-0268",
      "license_no": "",
      "license_date": null,
      "expire_date": null
    },
    {
      "name": "ツルハドラッグ都留文大駅前店",
      "name_kana": "ツルハドラッグツルブンダイエキマエテン",
      "business_type": "⑫ 自動販売機による販売業（コップ式自動販売機（自動洗浄・屋内設置）及び営業許可の対象となる自動販売機を除く）",
      "address": "山梨県都留市田原2丁目1107番",
      "lat": 35.541758,
      "lng": 138.895232,
      "geocoding_level": null,
      "phone": "0554-45-0268",
      "license_no": "",
      "license_date": null,
      "expire_date": null
    },
    {
      "name": "ドラッグセイムス都留店",
      "name_kana": "ドラッグセイムスツルテン",
      "business_type": "③ 乳類販売業",
      "address": "山梨県都留市田野倉461",
      "lat": 35.598037,
      "lng": 138.930713,
      "geocoding_level": null,
      "phone": "0554-45-0700",
      "license_no": "",
      "license_date": null,
      "expire_date": null
    },
    {
      "name": "中央都留カントリー倶楽部",
      "name_kana": "チュウオウツルカントリークラブ",
      "business_type": "⑦ 野菜果物販売業",
      "address": "山梨県都留市大幡舟井沢3036",
      "lat": 35.570251,
      "lng": 138.86409,
      "geocoding_level": null,
      "phone": "0554451261",
      "license_no": "",
      "license_date": null,
      "expire_date": null
    },
    {
      "name": "中央都留カントリー倶楽部",
      "name_kana": "チュウオウツルカントリークラブ",
      "business_type": "⑧ 米穀類販売業",
      "address": "山梨県都留市大幡舟井沢3036",
      "lat": 35.570251,
      "lng": 138.86409,
      "geocoding_level": null,
      "phone": "0554451261",
      "license_no": "",
      "license_date": null,
      "expire_date": null
    },
    {
      "name": "株式会社ＮＢＣメッシュテックＧカフェ",
      "name_kana": "カブシキガイシャエヌビーシーメッシュテックジーカフェ",
      "business_type": "⑤ コップ式自動販売機（自動洗浄・屋内設置）",
      "address": "山梨県都留市井倉７５７",
      "lat": 35.564127,
      "lng": 138.934023,
      "geocoding_level": null,
      "phone": "0554-43-4325",
      "license_no": "",
      "license_date": null,
      "expire_date": null
    },
    {
      "name": "バーミヤン 都留店",
      "name_kana": "バーミヤン　ツルテン",
      "business_type": "① 飲食店営業",
      "address": "山梨県都留市桂町１１８５－１",
      "lat": 35.537968,
      "lng": 138.877224,
      "geocoding_level": null,
      "phone": "0554-20-8055",
      "license_no": "山梨県指令富東福第4621号",
      "license_date": "2023-08-29",
      "expire_date": "2029-08-31"
    },
    {
      "name": "バーミヤン 都留",
      "name_kana": "バーミヤンツル",
      "business_type": "⑬ その他の食料・飲料販売業",
      "address": "山梨県都留市桂町１１８５－１",
      "lat": 35.537968,
      "lng": 138.877224,
      "geocoding_level": null,
      "phone": "0554-20-8055",
      "license_no": "",
      "license_date": null,
      "expire_date": null
    },
    {
      "name": "ガスト 都留店",
      "name_kana": "ガストツルテン",
      "business_type": "⑬ その他の食料・飲料販売業",
      "address": "山梨県都留市桂町７９３－１",
      "lat": 35.536328,
      "lng": 138.873036,
      "geocoding_level": null,
      "phone": "0554-20-3505",
      "license_no": "",
      "license_date": null,
      "expire_date": null
    },
    {
      "name": "夢庵　都留店",
      "name_kana": "ユメアンツルテン",
      "business_type": "① 飲食店営業",
      "address": "山梨県都留市上谷４丁目２－８",
      "lat": 35.547381,
      "lng": 138.904207,
      "geocoding_level": null,
      "phone": "0554-43-7621",
      "license_no": "山梨県指令富東福第7171号",
      "license_date": "2023-11-28",
      "expire_date": "2029-11-30"
    },
    {
      "name": "夢庵　都留店",
      "name_kana": "ユメアンツルテン",
      "business_type": "⑬ その他の食料・飲料販売業",
      "address": "山梨県都留市上谷４丁目２－８",
      "lat": 35.547381,
      "lng": 138.904207,
      "geocoding_level": null,
      "phone": "0554-43-7621",
      "license_no": "",
      "license_date": null,
      "expire_date": null
    },
    {
      "name": "中央自動車道谷村パーキングエリア上り",
      "name_kana": "チュウオウジドウシャドウヤムラパーキングエリアノボリ",
      "business_type": "② 調理機能を有する自動販売機（要許可）",
      "address": "山梨県都留市川棚字弁材480-1",
      "lat": 35.550075,
      "lng": 138.897618,
      "geocoding_level": null,
      "phone": "",
      "license_no": "山梨県指令富東福第10710号",
      "license_date": "2026-02-27",
      "expire_date": "2031-02-28"
    },
    {
      "name": "ファミリーマート都留文科大入口店",
      "name_kana": "ファミリーマートツルブンカダイイリグチテン",
      "business_type": "① 魚介類販売業（包装済みの魚介類のみの販売）",
      "address": "山梨県都留市田原4-612-1",
      "lat": 35.541001,
      "lng": 138.892898,
      "geocoding_level": null,
      "phone": "0554-46-5350",
      "license_no": "",
      "license_date": null,
      "expire_date": null
    },
    {
      "name": "ファミリーマート都留文科大入口店",
      "name_kana": "ファミリーマートツルブンカダイイリグチテン",
      "business_type": "② 食肉販売業（包装済みの食肉のみの販売）",
      "address": "山梨県都留市田原4-612-1",
      "lat": 35.541001,
      "lng": 138.892898,
      "geocoding_level": null,
      "phone": "0554-46-5350",
      "license_no": "",
      "license_date": null,
      "expire_date": null
    },
    {
      "name": "ファミリーマート都留文科大入口店",
      "name_kana": "ファミリーマートツルブンカダイイリグチテン",
      "business_type": "③ 乳類販売業",
      "address": "山梨県都留市田原4-612-1",
      "lat": 35.541001,
      "lng": 138.892898,
      "geocoding_level": null,
      "phone": "0554-46-5350",
      "license_no": "",
      "license_date": null,
      "expire_date": null
    },
    {
      "name": "ファミリーマート都留文科大入口店",
      "name_kana": "ファミリーマートツルブンカダイイリグチテン",
      "business_type": "⑩ コンビニエンスストア",
      "address": "山梨県都留市田原4-612-1",
      "lat": 35.541001,
      "lng": 138.892898,
      "geocoding_level": null,
      "phone": "0554-46-5350",
      "license_no": "",
      "license_date": null,
      "expire_date": null
    },
    {
      "name": "ファミリーマート都留文科大入口店",
      "name_kana": "ファミリーマートツルブンカダイイリグチテン",
      "business_type": "① 飲食店営業",
      "address": "山梨県都留市田原4-612-1",
      "lat": 35.541001,
      "lng": 138.892898,
      "geocoding_level": null,
      "phone": "0554-46-5350",
      "license_no": "山梨県指令富東福第4460号",
      "license_date": "2022-08-29",
      "expire_date": "2028-08-31"
    },
    {
      "name": "魚楽",
      "name_kana": "ウオラク",
      "business_type": "④ 魚介類販売業",
      "address": "山梨県都留市田原2-13-19",
      "lat": 35.541029,
      "lng": 138.894924,
      "geocoding_level": null,
      "phone": "0554-45-8177",
      "license_no": "山梨県指令富東福第3172号",
      "license_date": "2021-07-02",
      "expire_date": "2027-08-31"
    },
    {
      "name": "ワーケーションリゾート THE  FOREST",
      "name_kana": "ワーケーションリゾート　ザ　フォレスト",
      "business_type": "① 飲食店営業",
      "address": "山梨県都留市戸沢1068",
      "lat": 35.53518,
      "lng": 138.955556,
      "geocoding_level": null,
      "phone": "0554-43-8811",
      "license_no": "山梨県指令富東福第3643号",
      "license_date": "2021-07-16",
      "expire_date": "2027-11-30"
    },
    {
      "name": "（有）エルフィン・インターナショナル",
      "name_kana": "ユウゲンガイシャエルフィン・インターナショナル",
      "business_type": "⑳ 精穀・製粉業",
      "address": "山梨県都留市法能710-3",
      "lat": 35.551031,
      "lng": 138.923647,
      "geocoding_level": null,
      "phone": "0554-45-3215",
      "license_no": "",
      "license_date": null,
      "expire_date": null
    },
    {
      "name": "大板屋",
      "name_kana": "オオイタヤ",
      "business_type": "㉙ 漬物製造業",
      "address": "山梨県都留市朝日曽雌1424",
      "lat": 35.561029,
      "lng": 138.985975,
      "geocoding_level": null,
      "phone": "0554-48-2121",
      "license_no": "山梨県指令富東福第3904号",
      "license_date": "2021-07-28",
      "expire_date": "2028-05-31"
    },
    {
      "name": "ジャパンフード株式会社 竹中土木都留内食堂",
      "name_kana": "ジャパンフードカブシキガイシャ タケナカドボクツルナイショクドウ",
      "business_type": "① 飲食店営業",
      "address": "山梨県都留市田野倉808-4 杉田マンション",
      "lat": 35.591159,
      "lng": 138.931657,
      "geocoding_level": null,
      "phone": "",
      "license_no": "山梨県指令富東福第8136号",
      "license_date": "2024-01-05",
      "expire_date": "2030-05-31"
    },
    {
      "name": "西東京ゴルフ倶楽部",
      "name_kana": "ニシトウキョウゴルフクラブ",
      "business_type": "① 飲食店営業",
      "address": "山梨県都留市十日市場字日向山2108番地",
      "lat": 35.548352,
      "lng": 138.881015,
      "geocoding_level": null,
      "phone": "0554-45-7211",
      "license_no": "山梨県指令富東福第4100号",
      "license_date": "2021-08-03",
      "expire_date": "2027-08-31"
    },
    {
      "name": "えびすや",
      "name_kana": "エビスヤ",
      "business_type": "① 飲食店営業",
      "address": "山梨県都留市桂町814-4",
      "lat": 35.534669,
      "lng": 138.87227,
      "geocoding_level": null,
      "phone": "0554-43-0654",
      "license_no": "山梨県指令富東福第4391号",
      "license_date": "2021-08-17",
      "expire_date": "2027-08-31"
    },
    {
      "name": "愛知屋菓子店",
      "name_kana": "アイチヤカシテン",
      "business_type": "⑪ 菓子製造業",
      "address": "山梨県都留市桂町1132",
      "lat": 35.53473,
      "lng": 138.868643,
      "geocoding_level": null,
      "phone": "0554-43-3658",
      "license_no": "山梨県指令富東福第4432号",
      "license_date": "2021-08-18",
      "expire_date": "2026-08-31"
    },
    {
      "name": "天浜",
      "name_kana": "テンハマ",
      "business_type": "① 飲食店営業",
      "address": "山梨県都留市田原3-2-30",
      "lat": 35.541051,
      "lng": 138.898503,
      "geocoding_level": null,
      "phone": "0554-43-3000",
      "license_no": "山梨県指令富東福第4434号",
      "license_date": "2021-08-18",
      "expire_date": "2027-08-31"
    },
    {
      "name": "食事処　呑み処　粋心",
      "name_kana": "ショクジドコロ　ノミドコロ　スイシン",
      "business_type": "① 飲食店営業",
      "address": "山梨県都留市下谷3-1278-1",
      "lat": 35.56284,
      "lng": 138.913356,
      "geocoding_level": null,
      "phone": "0554-45-8774",
      "license_no": "山梨県指令富東福第4463号",
      "license_date": "2021-08-19",
      "expire_date": "2027-08-31"
    },
    {
      "name": "ガスト都留店",
      "name_kana": "ガストツルテン",
      "business_type": "① 飲食店営業",
      "address": "山梨県都留市桂町793-1",
      "lat": 35.536328,
      "lng": 138.873036,
      "geocoding_level": null,
      "phone": "0554-20-3505",
      "license_no": "山梨県指令富東福第4446号",
      "license_date": "2021-08-18",
      "expire_date": "2027-08-31"
    },
    {
      "name": "サンワフーズ株式会社　回生堂病院内厨房",
      "name_kana": "サンワフーズカブシキガイシャ　カイセイドウビョウインナイチュウボウ",
      "business_type": "① 飲食店営業",
      "address": "山梨県都留市四日市場270",
      "lat": 35.567478,
      "lng": 138.913307,
      "geocoding_level": null,
      "phone": "0554-56-9510",
      "license_no": "山梨県指令富東福第9019号",
      "license_date": "2023-02-22",
      "expire_date": "2029-02-28"
    },
    {
      "name": "山梨中央銀行　桂寮",
      "name_kana": "ヤマナシチュウオウギンコウ　カツラリョウ",
      "business_type": "① 飲食店営業",
      "address": "山梨県都留市桂町1172",
      "lat": 35.536563,
      "lng": 138.874449,
      "geocoding_level": null,
      "phone": "0554-43-8420",
      "license_no": "山梨県指令富東福第4517号",
      "license_date": "2021-08-20",
      "expire_date": "2027-08-31"
    },
    {
      "name": "ファミリーマート　都留インター店",
      "name_kana": "ファミリーマート　ツルインターテン",
      "business_type": "① 飲食店営業",
      "address": "山梨県都留市つる一丁目1464番1他3筆",
      "lat": 35.559001,
      "lng": 138.909579,
      "geocoding_level": null,
      "phone": "0554-46-4006",
      "license_no": "山梨県指令富東福第9866号",
      "license_date": "2022-02-14",
      "expire_date": "2027-02-28"
    },
    {
      "name": "ウエルシア都留店",
      "name_kana": "ウエルシアツルテン",
      "business_type": "⑪ 百貨店、総合スーパー",
      "address": "山梨県都留市上谷6-13-1",
      "lat": 35.54196,
      "lng": 138.90049,
      "geocoding_level": null,
      "phone": "0554-20-3811",
      "license_no": "",
      "license_date": null,
      "expire_date": null
    },
    {
      "name": "ふじやまファーム株式会社",
      "name_kana": "フジヤマファームカブシキガイシャ",
      "business_type": "㉔ その他の食料品製造・加工業",
      "address": "山梨県都留市つる1-12-1",
      "lat": 35.556848,
      "lng": 138.907729,
      "geocoding_level": null,
      "phone": "0554-45-4178",
      "license_no": "",
      "license_date": null,
      "expire_date": null
    },
    {
      "name": "（株）NBCメッシュテック　山梨都留工場社員食堂",
      "name_kana": "カブシキガイシャエヌビーシーメッシュテック　ヤマナシツルコウジョウシャインショクドウ",
      "business_type": "① 飲食店営業",
      "address": "山梨県都留市井倉757番地",
      "lat": 35.564127,
      "lng": 138.934023,
      "geocoding_level": null,
      "phone": "0554-43-6784",
      "license_no": "山梨県指令富東福第308号",
      "license_date": "2024-05-24",
      "expire_date": "2030-05-31"
    },
    {
      "name": "ウェルシア都留田野倉店",
      "name_kana": "ウェルシアツルタノクラテン",
      "business_type": "⑪ 百貨店、総合スーパー",
      "address": "山梨県都留市田野倉158-2",
      "lat": 35.601203,
      "lng": 138.935204,
      "geocoding_level": null,
      "phone": "0554466280",
      "license_no": "",
      "license_date": null,
      "expire_date": null
    },
    {
      "name": "健康ランド＆ホテルスターらんど １Ｆ売店自販機コーナー",
      "name_kana": "ケンコウランドアンドホテルスターランドイチエフバイテンジハンキコーナー",
      "business_type": "⑫ 自動販売機による販売業（コップ式自動販売機（自動洗浄・屋内設置）及び営業許可の対象となる自動販売機を除く）",
      "address": "山梨県都留市下谷2450-1",
      "lat": 35.559192,
      "lng": 138.920322,
      "geocoding_level": null,
      "phone": "",
      "license_no": "",
      "license_date": null,
      "expire_date": null
    },
    {
      "name": "芭蕉月待ちの湯",
      "name_kana": "バショウツキマチノユ",
      "business_type": "⑫ 自動販売機による販売業（コップ式自動販売機（自動洗浄・屋内設置）及び営業許可の対象となる自動販売機を除く）",
      "address": "山梨県都留市戸沢874",
      "lat": 35.547619,
      "lng": 138.956945,
      "geocoding_level": null,
      "phone": "",
      "license_no": "",
      "license_date": null,
      "expire_date": null
    },
    {
      "name": "すき家　139号都留桂店",
      "name_kana": "スキヤ　ヒャクサンジュウキュウゴウツルカツラテン",
      "business_type": "① 飲食店営業",
      "address": "山梨県都留市桂町876-1",
      "lat": 35.535878,
      "lng": 138.871538,
      "geocoding_level": null,
      "phone": "",
      "license_no": "山梨県指令富東福第3710号",
      "license_date": "2023-08-30",
      "expire_date": "2029-08-31"
    },
    {
      "name": "すき家　139号都留桂店",
      "name_kana": "スキヤ　ヒャクサンジュウキュウゴウツルカツラテン",
      "business_type": "⑬ その他の食料・飲料販売業",
      "address": "山梨県都留市桂町876-1",
      "lat": 35.535878,
      "lng": 138.871538,
      "geocoding_level": null,
      "phone": "",
      "license_no": "",
      "license_date": null,
      "expire_date": null
    },
    {
      "name": "すき家　139号都留田野倉店",
      "name_kana": "スキヤ　ヒャクサンジュウキュウゴウツルタノクラテン",
      "business_type": "⑬ その他の食料・飲料販売業",
      "address": "山梨県都留市田野倉102番",
      "lat": 35.601769,
      "lng": 138.937101,
      "geocoding_level": null,
      "phone": "",
      "license_no": "",
      "license_date": null,
      "expire_date": null
    },
    {
      "name": "すき家　139号都留田野倉店",
      "name_kana": "スキヤ　ヒャクサンジュウキュウゴウツルタノクラテン",
      "business_type": "① 飲食店営業",
      "address": "山梨県都留市田野倉102番",
      "lat": 35.601769,
      "lng": 138.937101,
      "geocoding_level": null,
      "phone": "",
      "license_no": "山梨県指令富東福第1406号",
      "license_date": "2022-05-19",
      "expire_date": "2028-05-31"
    },
    {
      "name": "さぽーちゆう",
      "name_kana": "サポーチユウ",
      "business_type": "㉙ 漬物製造業",
      "address": "山梨県都留市川棚662-8",
      "lat": 35.553366,
      "lng": 138.898984,
      "geocoding_level": null,
      "phone": "",
      "license_no": "山梨県指令富東福第5690号",
      "license_date": "2021-10-01",
      "expire_date": "2028-02-29"
    },
    {
      "name": "さぽーちゅう",
      "name_kana": "サポーチユウ",
      "business_type": "⑰ 農産保存食料品製造・加工業",
      "address": "山梨県都留市川棚662-8",
      "lat": 35.553435,
      "lng": 138.899045,
      "geocoding_level": null,
      "phone": "",
      "license_no": "",
      "license_date": null,
      "expire_date": null
    },
    {
      "name": "手打ち　山もとうどん",
      "name_kana": "テウチ　ヤマモトウドン",
      "business_type": "① 飲食店営業",
      "address": "山梨県都留市古川渡397-1",
      "lat": 35.572302,
      "lng": 138.925025,
      "geocoding_level": null,
      "phone": "0554-45-8733",
      "license_no": "山梨県指令富東福第5786号",
      "license_date": "2021-10-04",
      "expire_date": "2028-05-31"
    },
    {
      "name": "ツルハドラッグ都留赤坂店",
      "name_kana": "ツルハドラッグツルアカサカテン",
      "business_type": "② 食肉販売業（包装済みの食肉のみの販売）",
      "address": "山梨県都留市四日市場129",
      "lat": 35.565037,
      "lng": 138.917797,
      "geocoding_level": null,
      "phone": "0554-20-8268",
      "license_no": "",
      "license_date": null,
      "expire_date": null
    },
    {
      "name": "就労支援A型事業所　さくら",
      "name_kana": "シュウロウシエンエーガタジギョウショ　サクラ",
      "business_type": "⑪ 菓子製造業",
      "address": "山梨県都留市中央2-4-12",
      "lat": 35.554771,
      "lng": 138.909775,
      "geocoding_level": null,
      "phone": "0554-67-8739",
      "license_no": "山梨県指令富東福第5921号",
      "license_date": "2021-10-07",
      "expire_date": "2027-11-30"
    },
    {
      "name": "スーパー公正屋　都留店",
      "name_kana": "スーパーコウセイヤ　ツルテン",
      "business_type": "⑪ 百貨店、総合スーパー",
      "address": "山梨県都留市四日市場３７－４",
      "lat": 35.565512,
      "lng": 138.916098,
      "geocoding_level": null,
      "phone": "0554-45-1900",
      "license_no": "",
      "license_date": null,
      "expire_date": null
    },
    {
      "name": "スーパー公正屋　田野倉店",
      "name_kana": "スーパーコウセイヤ　タノクラテン",
      "business_type": "⑪ 百貨店、総合スーパー",
      "address": "山梨県都留市田野倉198-1",
      "lat": 35.600728,
      "lng": 138.934216,
      "geocoding_level": null,
      "phone": "0554-43-2777",
      "license_no": "",
      "license_date": null,
      "expire_date": null
    },
    {
      "name": "ツルハドラッグ都留文大駅前店",
      "name_kana": "ツルハドラッグツルブンダイエキマエテン",
      "business_type": "② 食肉販売業（包装済みの食肉のみの販売）",
      "address": "山梨県都留市田原2丁目1107番",
      "lat": 35.542404,
      "lng": 138.896989,
      "geocoding_level": null,
      "phone": "0554-45-0268",
      "license_no": "",
      "license_date": null,
      "expire_date": null
    },
    {
      "name": "Spriest",
      "name_kana": "スプライスト",
      "business_type": "② 食肉販売業（包装済みの食肉のみの販売）",
      "address": "山梨県都留市加畑166",
      "lat": 35.546723,
      "lng": 138.867413,
      "geocoding_level": null,
      "phone": "08088721646",
      "license_no": "",
      "license_date": null,
      "expire_date": null
    },
    {
      "name": "小僧寿し田野倉店",
      "name_kana": "コゾウズシタノクラテン",
      "business_type": "⑬ その他の食料・飲料販売業",
      "address": "山梨県都留市田野倉字神出237-1",
      "lat": 35.594061,
      "lng": 138.937916,
      "geocoding_level": null,
      "phone": "0554439500",
      "license_no": "",
      "license_date": null,
      "expire_date": null
    },
    {
      "name": "長田商店",
      "name_kana": "オサダショウテン",
      "business_type": "㉙ 漬物製造業",
      "address": "山梨県都留市田野倉624",
      "lat": 35.59346,
      "lng": 138.929591,
      "geocoding_level": null,
      "phone": "0554-43-8346",
      "license_no": "山梨県指令富東福第6151号",
      "license_date": "2021-10-14",
      "expire_date": "2027-05-31"
    },
    {
      "name": "都ゴルフ倶楽部　イン売店",
      "name_kana": "ミヤコゴルフクラブ　インバイテン",
      "business_type": "① 飲食店営業",
      "address": "山梨県都留市戸沢1353",
      "lat": 35.544745,
      "lng": 138.947336,
      "geocoding_level": null,
      "phone": "0554-45-3111",
      "license_no": "山梨県指令富東福第6387号",
      "license_date": "2021-10-20",
      "expire_date": "2026-11-30"
    },
    {
      "name": "都ゴルフ倶楽部　アウト売店",
      "name_kana": "ミヤコゴルフクラブ　アウトバイテン",
      "business_type": "① 飲食店営業",
      "address": "山梨県都留市戸沢1353",
      "lat": 35.544745,
      "lng": 138.947336,
      "geocoding_level": null,
      "phone": "0554-45-3111",
      "license_no": "山梨県指令富東福第6388号",
      "license_date": "2021-10-20",
      "expire_date": "2026-11-30"
    },
    {
      "name": "餃子直売所",
      "name_kana": "ギョウザチョクバイジョ",
      "business_type": "㉕ そうざい製造業",
      "address": "山梨県都留市小野190-4",
      "lat": 35.535226,
      "lng": 138.906333,
      "geocoding_level": null,
      "phone": "090-2670-7590",
      "license_no": "山梨県指令富東福第6570号",
      "license_date": "2021-10-27",
      "expire_date": "2026-11-30"
    },
    {
      "name": "東光送電工事　食堂",
      "name_kana": "トウコウソウデンコウジ　ショクドウ",
      "business_type": "① 飲食店営業",
      "address": "山梨県都留市下谷2441-1",
      "lat": 35.560416,
      "lng": 138.920223,
      "geocoding_level": null,
      "phone": "0176-27-6602",
      "license_no": "山梨県指令富東福第6486号",
      "license_date": "2021-10-22",
      "expire_date": "2028-02-29"
    },
    {
      "name": "東和電気工事　食堂",
      "name_kana": "トウワデンキコウジ　ショクドウ",
      "business_type": "① 飲食店営業",
      "address": "山梨県都留市下谷2441-1",
      "lat": 35.560416,
      "lng": 138.920223,
      "geocoding_level": null,
      "phone": "0176-27-6602",
      "license_no": "山梨県指令富東福第6485号",
      "license_date": "2021-10-22",
      "expire_date": "2028-02-29"
    },
    {
      "name": "Smile×Smile　都留店",
      "name_kana": "スマイルスマイル　ツルテン",
      "business_type": "① 飲食店営業",
      "address": "山梨県都留市上谷6-11-20",
      "lat": 35.543494,
      "lng": 138.902437,
      "geocoding_level": null,
      "phone": "0554-45-2829",
      "license_no": "山梨県指令富東福第6702号",
      "license_date": "2021-10-29",
      "expire_date": "2027-11-30"
    },
    {
      "name": "株式会社　ユニファーム",
      "name_kana": "カブシキガイシャ　ユニファーム",
      "business_type": "⑬ その他の食料・飲料販売業",
      "address": "山梨県都留市与縄1186番地",
      "lat": 35.561417,
      "lng": 138.941592,
      "geocoding_level": null,
      "phone": "0554-56-7087",
      "license_no": "",
      "license_date": null,
      "expire_date": null
    },
    {
      "name": "小林　紀江",
      "name_kana": "コバヤシ　トシエ",
      "business_type": "㉙ 漬物製造業",
      "address": "山梨県都留市鹿留1981",
      "lat": 35.528314,
      "lng": 138.878032,
      "geocoding_level": null,
      "phone": "0554-43-4003",
      "license_no": "山梨県指令富東福第6836号",
      "license_date": "2021-11-02",
      "expire_date": "2028-08-31"
    },
    {
      "name": "小林",
      "name_kana": "コバヤシ",
      "business_type": "㉕ そうざい製造業",
      "address": "山梨県都留市鹿留1981",
      "lat": 35.528314,
      "lng": 138.878032,
      "geocoding_level": null,
      "phone": "0554-43-4003",
      "license_no": "山梨県指令富東福第3449号",
      "license_date": "2023-08-29",
      "expire_date": "2029-08-31"
    },
    {
      "name": "セブンイレブン都留市役所前店",
      "name_kana": "セブンイレブンツルシヤクショマエテン",
      "business_type": "① 飲食店営業",
      "address": "山梨県都留市上谷2-1-14",
      "lat": 35.551458,
      "lng": 138.907533,
      "geocoding_level": null,
      "phone": "",
      "license_no": "山梨県指令富東福第6839号",
      "license_date": "2021-11-04",
      "expire_date": "2026-11-30"
    },
    {
      "name": "にしき（寿司・居酒屋）",
      "name_kana": "ニシキ　スシ　イザカヤ",
      "business_type": "① 飲食店営業",
      "address": "山梨県都留市上谷4-3-6",
      "lat": 35.547875,
      "lng": 138.903815,
      "geocoding_level": null,
      "phone": "0554-37-0595",
      "license_no": "山梨県指令富東福第6905号",
      "license_date": "2021-11-05",
      "expire_date": "2027-11-30"
    },
    {
      "name": "焼き鳥　喜笑。",
      "name_kana": "ヤキトリ　キショウ",
      "business_type": "① 飲食店営業",
      "address": "山梨県都留市上谷4-3-6",
      "lat": 35.547875,
      "lng": 138.903815,
      "geocoding_level": null,
      "phone": "090-7724-1194",
      "license_no": "山梨県指令富東福第6915号",
      "license_date": "2021-11-05",
      "expire_date": "2026-11-30"
    },
    {
      "name": "生活協同組合ユーコープ　都留配送所",
      "name_kana": "セイカツキョウドウクミアイユーコープ　ツルハイソウジョ",
      "business_type": "⑨ 通信販売・訪問販売による販売業",
      "address": "山梨県都留市与縄596-3",
      "lat": 35.559276,
      "lng": 138.948409,
      "geocoding_level": null,
      "phone": "0554-45-1331",
      "license_no": "",
      "license_date": null,
      "expire_date": null
    },
    {
      "name": "山富",
      "name_kana": "ヤマトミ",
      "business_type": "① 飲食店営業",
      "address": "山梨県都留市中央2-6-10",
      "lat": 35.573268,
      "lng": 139.372077,
      "geocoding_level": null,
      "phone": "0554-43-2570",
      "license_no": "山梨県指令富東福第7128号",
      "license_date": "2021-11-15",
      "expire_date": "2027-11-30"
    },
    {
      "name": "和食　あまの",
      "name_kana": "ワショク　アマノ",
      "business_type": "① 飲食店営業",
      "address": "山梨県都留市中央1-3-21",
      "lat": 35.553699,
      "lng": 138.908192,
      "geocoding_level": null,
      "phone": "",
      "license_no": "山梨県指令富東福第7130号",
      "license_date": "2021-11-15",
      "expire_date": "2027-11-30"
    },
    {
      "name": "谷村PA下り",
      "name_kana": "ヤムラピーエークダリ",
      "business_type": "⑤ コップ式自動販売機（自動洗浄・屋内設置）",
      "address": "山梨県都留市川棚字原の裏221",
      "lat": 35.550075,
      "lng": 138.897618,
      "geocoding_level": null,
      "phone": "",
      "license_no": "",
      "license_date": null,
      "expire_date": null
    },
    {
      "name": "山一　yamaichi",
      "name_kana": "ヤマイチ",
      "business_type": "① 飲食店営業",
      "address": "山梨県都留市上谷3-3-17",
      "lat": 35.548379,
      "lng": 138.905683,
      "geocoding_level": null,
      "phone": "0554-43-5544",
      "license_no": "山梨県指令富東福第7258号",
      "license_date": "2021-11-17",
      "expire_date": "2027-11-30"
    },
    {
      "name": "（株）都留カントリー倶楽部　富士桜コース",
      "name_kana": "カブシキガイシャツルカントリークラブ　フジザクラコース",
      "business_type": "① 飲食店営業",
      "address": "山梨県都留市法能天神山1452",
      "lat": 35.539732,
      "lng": 138.927839,
      "geocoding_level": null,
      "phone": "0554-43-5541",
      "license_no": "山梨県指令富東福第7254号",
      "license_date": "2021-11-18",
      "expire_date": "2026-11-30"
    },
    {
      "name": "（株）都留カントリー倶楽部　かえでコース",
      "name_kana": "カブシキガイシャツルカントリークラブ　カエデコース",
      "business_type": "① 飲食店営業",
      "address": "山梨県都留市法能天神山1452",
      "lat": 35.539732,
      "lng": 138.927839,
      "geocoding_level": null,
      "phone": "0554-43-5541",
      "license_no": "山梨県指令富東福第7255号",
      "license_date": "2021-11-18",
      "expire_date": "2026-11-30"
    },
    {
      "name": "株式会社都留カントリー倶楽部",
      "name_kana": "カブシキガイシャツルカントリークラブ",
      "business_type": "① 飲食店営業",
      "address": "山梨県都留市法能天神山1452",
      "lat": 35.539732,
      "lng": 138.927839,
      "geocoding_level": null,
      "phone": "0554-43-5541",
      "license_no": "山梨県指令富東福第7256号",
      "license_date": "2021-11-18",
      "expire_date": "2027-11-30"
    },
    {
      "name": "スナック　愛華",
      "name_kana": "スナック　アイカ",
      "business_type": "① 飲食店営業",
      "address": "山梨県都留市上谷2-2-10",
      "lat": 35.550683,
      "lng": 138.906756,
      "geocoding_level": null,
      "phone": "0554-45-1733",
      "license_no": "山梨県指令富東福第7338号",
      "license_date": "2021-11-19",
      "expire_date": "2027-11-30"
    },
    {
      "name": "ティールーム　ロザリナ",
      "name_kana": "ティールーム　ロザリナ",
      "business_type": "① 飲食店営業",
      "address": "山梨県都留市上谷6-10-2",
      "lat": 35.544755,
      "lng": 138.903637,
      "geocoding_level": null,
      "phone": "0554-45-3776",
      "license_no": "山梨県指令富東福第7486号",
      "license_date": "2021-11-25",
      "expire_date": "2027-11-30"
    },
    {
      "name": "R3",
      "name_kana": "アールスリー",
      "business_type": "① 飲食店営業",
      "address": "山梨県都留市上谷5-2-7",
      "lat": 35.547576,
      "lng": 138.905843,
      "geocoding_level": null,
      "phone": "0554-43-5787",
      "license_no": "山梨県指令富東福第7488号",
      "license_date": "2021-11-25",
      "expire_date": "2027-11-30"
    },
    {
      "name": "じゅーり",
      "name_kana": "ジューリ",
      "business_type": "① 飲食店営業",
      "address": "山梨県都留市上谷5-9-18 1-A",
      "lat": 35.543584,
      "lng": 138.899985,
      "geocoding_level": null,
      "phone": "0554-45-7680",
      "license_no": "山梨県指令富東福第7494号",
      "license_date": "2021-11-25",
      "expire_date": "2027-11-30"
    },
    {
      "name": "家呑み",
      "name_kana": "イエノミ",
      "business_type": "① 飲食店営業",
      "address": "山梨県都留市上谷2-2-10",
      "lat": 35.550683,
      "lng": 138.906756,
      "geocoding_level": null,
      "phone": "",
      "license_no": "山梨県指令富東福第7495号",
      "license_date": "2021-11-25",
      "expire_date": "2027-11-30"
    },
    {
      "name": "都留田原店",
      "name_kana": "ツルタハラテン",
      "business_type": "⑬ その他の食料・飲料販売業",
      "address": "山梨県都留市田原2-659",
      "lat": 35.541093,
      "lng": 138.894805,
      "geocoding_level": null,
      "phone": "",
      "license_no": "",
      "license_date": null,
      "expire_date": null
    },
    {
      "name": "FOREST　ISLAND",
      "name_kana": "フォレスト　アイランド",
      "business_type": "⑰ 農産保存食料品製造・加工業",
      "address": "山梨県都留市小形山697",
      "lat": 35.585749,
      "lng": 138.917764,
      "geocoding_level": null,
      "phone": "",
      "license_no": "",
      "license_date": null,
      "expire_date": null
    },
    {
      "name": "FOREST　ISLAND",
      "name_kana": "フォレスト　アイランド",
      "business_type": "㉑ 製茶業",
      "address": "山梨県都留市小形山697",
      "lat": 35.585749,
      "lng": 138.917764,
      "geocoding_level": null,
      "phone": "",
      "license_no": "",
      "license_date": null,
      "expire_date": null
    },
    {
      "name": "庄司化工株式会社",
      "name_kana": "ショウジカコウカブシキガイシャ",
      "business_type": "㉗ 器具、容器包装の製造・加工業（合成樹脂が使用された器具又は容器包装の製造、加工に限る。）",
      "address": "山梨県都留市つる一丁目１７番１７号",
      "lat": 35.560824,
      "lng": 138.909205,
      "geocoding_level": null,
      "phone": "0554434146",
      "license_no": "",
      "license_date": null,
      "expire_date": null
    },
    {
      "name": "okko　まーさんちの庭",
      "name_kana": "オッコ　マーサンチノニワ",
      "business_type": "⑱ 調味料製造・加工業",
      "address": "山梨県都留市下谷4-4-32",
      "lat": 35.564263,
      "lng": 138.911625,
      "geocoding_level": null,
      "phone": "0554-46-0108",
      "license_no": "",
      "license_date": null,
      "expire_date": null
    },
    {
      "name": "okko　まーさんちの庭",
      "name_kana": "オッコ　マーサンチノニワ",
      "business_type": "㉔ その他の食料品製造・加工業",
      "address": "山梨県都留市下谷4-4-32",
      "lat": 35.564263,
      "lng": 138.911625,
      "geocoding_level": null,
      "phone": "0554-46-0108",
      "license_no": "",
      "license_date": null,
      "expire_date": null
    },
    {
      "name": "OKKO",
      "name_kana": "オッコ",
      "business_type": "① 飲食店営業",
      "address": "山梨県都留市下谷4-4-32",
      "lat": 35.564263,
      "lng": 138.911625,
      "geocoding_level": null,
      "phone": "080-1244-7343",
      "license_no": "山梨県指令富東福第4985号",
      "license_date": "2023-09-25",
      "expire_date": "2030-02-28"
    },
    {
      "name": "OKKO",
      "name_kana": "オッコ",
      "business_type": "⑬ その他の食料・飲料販売業",
      "address": "山梨県都留市下谷4-4-32",
      "lat": 35.564263,
      "lng": 138.911625,
      "geocoding_level": null,
      "phone": "0554-46-0108",
      "license_no": "",
      "license_date": null,
      "expire_date": null
    },
    {
      "name": "OKKO",
      "name_kana": "オッコ",
      "business_type": "⑱ 調味料製造・加工業",
      "address": "山梨県都留市下谷4-4-32",
      "lat": 35.564263,
      "lng": 138.911625,
      "geocoding_level": null,
      "phone": "0554-46-0108",
      "license_no": "",
      "license_date": null,
      "expire_date": null
    },
    {
      "name": "デイリーヤマザキ都留バイパス店",
      "name_kana": "デイリーヤマザキツルバイパステン",
      "business_type": "⑩ コンビニエンスストア",
      "address": "山梨県都留市法能1124-1",
      "lat": 35.550174,
      "lng": 138.926324,
      "geocoding_level": null,
      "phone": "0554-46-1050",
      "license_no": "",
      "license_date": null,
      "expire_date": null
    },
    {
      "name": "デイリーヤマザキ都留バイパス店",
      "name_kana": "デイリーヤマザキツルバイパステン",
      "business_type": "① 飲食店営業",
      "address": "山梨県都留市法能1124-1",
      "lat": 35.550226,
      "lng": 138.926363,
      "geocoding_level": null,
      "phone": "0554-46-1050",
      "license_no": "山梨県指令富東福第7436号",
      "license_date": "2023-11-30",
      "expire_date": "2029-11-30"
    },
    {
      "name": "デイリーヤマザキ都留バイパス店",
      "name_kana": "デイリーヤマザキツルバイパステン",
      "business_type": "⑪ 菓子製造業",
      "address": "山梨県都留市法能1124-1",
      "lat": 35.550226,
      "lng": 138.926363,
      "geocoding_level": null,
      "phone": "0554-46-1050",
      "license_no": "山梨県指令富東福第7436号",
      "license_date": "2023-11-30",
      "expire_date": "2029-11-30"
    },
    {
      "name": "ローソン　都留小野店",
      "name_kana": "ローソン　ツルオノテン",
      "business_type": "⑩ コンビニエンスストア",
      "address": "山梨県都留市小野416-12",
      "lat": 35.538048,
      "lng": 138.907706,
      "geocoding_level": null,
      "phone": "0554-56-7722",
      "license_no": "",
      "license_date": null,
      "expire_date": null
    },
    {
      "name": "ローソン　都留小野店",
      "name_kana": "ローソン　ツルオノテン",
      "business_type": "① 飲食店営業",
      "address": "山梨県都留市小野416-12",
      "lat": 35.538048,
      "lng": 138.907706,
      "geocoding_level": null,
      "phone": "0554-56-7722",
      "license_no": "山梨県指令富東福第6853号",
      "license_date": "2022-11-11",
      "expire_date": "2028-11-30"
    },
    {
      "name": "ローソン　都留赤坂店",
      "name_kana": "ローソン　ツルアカサカテン",
      "business_type": "⑩ コンビニエンスストア",
      "address": "山梨県都留市四日市場158-1",
      "lat": 35.564871,
      "lng": 138.917114,
      "geocoding_level": null,
      "phone": "0554-67-8505",
      "license_no": "",
      "license_date": null,
      "expire_date": null
    },
    {
      "name": "ローソン都留赤坂店",
      "name_kana": "ローソンツルアカサカテン",
      "business_type": "① 飲食店営業",
      "address": "山梨県都留市四日市場158-1",
      "lat": 35.564887,
      "lng": 138.917154,
      "geocoding_level": null,
      "phone": "0554-67-8505",
      "license_no": "山梨県指令富東福第10058号",
      "license_date": "2025-02-20",
      "expire_date": "2031-02-28"
    },
    {
      "name": "道の駅つる（直売所）",
      "name_kana": "ミチノエキツル　チョクバイジョ",
      "business_type": "⑦ 野菜果物販売業",
      "address": "山梨県都留市大原88番地",
      "lat": 35.582918,
      "lng": 138.931031,
      "geocoding_level": null,
      "phone": "0554-43-1110",
      "license_no": "",
      "license_date": null,
      "expire_date": null
    },
    {
      "name": "道の駅つる（直売所）",
      "name_kana": "ミチノエキツル　チョクバイジョ",
      "business_type": "⑧ 米穀類販売業",
      "address": "山梨県都留市大原88番地",
      "lat": 35.582918,
      "lng": 138.931031,
      "geocoding_level": null,
      "phone": "0554-43-1110",
      "license_no": "",
      "license_date": null,
      "expire_date": null
    },
    {
      "name": "株式会社せんねんの里つる（直売所内）",
      "name_kana": "カブシキガイシャセンネンノサトツル　チョクバイジョナイ",
      "business_type": "① 魚介類販売業（包装済みの魚介類のみの販売）",
      "address": "山梨県都留市大原88番地",
      "lat": 35.582835,
      "lng": 138.930909,
      "geocoding_level": null,
      "phone": "0554-43-1110",
      "license_no": "",
      "license_date": null,
      "expire_date": null
    },
    {
      "name": "株式会社せんねんの里つる（直売所内）",
      "name_kana": "カブシキガイシャセンネンノサトツル　チョクバイジョナイ",
      "business_type": "③ 乳類販売業",
      "address": "山梨県都留市大原88番地",
      "lat": 35.582835,
      "lng": 138.930909,
      "geocoding_level": null,
      "phone": "0554-43-1110",
      "license_no": "",
      "license_date": null,
      "expire_date": null
    },
    {
      "name": "スーパーウスイ",
      "name_kana": "スーパーウスイ",
      "business_type": "③ 乳類販売業",
      "address": "山梨県都留市つる1-10-15",
      "lat": 35.557001,
      "lng": 138.908362,
      "geocoding_level": null,
      "phone": "0554-43-2892",
      "license_no": "",
      "license_date": null,
      "expire_date": null
    },
    {
      "name": "スーパーウスイ",
      "name_kana": "スーパーウスイ",
      "business_type": "⑦ 野菜果物販売業",
      "address": "山梨県都留市つる1-10-15",
      "lat": 35.557001,
      "lng": 138.908362,
      "geocoding_level": null,
      "phone": "0554-43-2892",
      "license_no": "",
      "license_date": null,
      "expire_date": null
    },
    {
      "name": "道楽屋",
      "name_kana": "ドウラクヤ",
      "business_type": "⑪ 菓子製造業",
      "address": "山梨県都留市玉川698-10",
      "lat": 35.549982,
      "lng": 138.931681,
      "geocoding_level": null,
      "phone": "0554-43-0251",
      "license_no": "山梨県指令富東福第8902号",
      "license_date": "2022-01-12",
      "expire_date": "2028-11-30"
    },
    {
      "name": "株式会社アズールヤード",
      "name_kana": "カブシキガイシャアズールヤード",
      "business_type": "⑬ その他の食料・飲料販売業",
      "address": "山梨県都留市下谷4丁目5番15号",
      "lat": 35.565483,
      "lng": 138.913632,
      "geocoding_level": null,
      "phone": "0554-23-6701",
      "license_no": "",
      "license_date": null,
      "expire_date": null
    },
    {
      "name": "谷村P.A（上り線）ハイウェイショップ",
      "name_kana": "ヤムラバーキングエリアノボリセンハイウェイショップ",
      "business_type": "① 飲食店営業",
      "address": "山梨県都留市川棚480-1",
      "lat": 35.553979,
      "lng": 138.90004,
      "geocoding_level": null,
      "phone": "0554-45-1528",
      "license_no": "山梨県指令富東福第9325号",
      "license_date": "2022-01-28",
      "expire_date": "2028-02-29"
    },
    {
      "name": "OVEN.",
      "name_kana": "オーブン",
      "business_type": "⑪ 菓子製造業",
      "address": "山梨県都留市つる1-2-6",
      "lat": 35.55798,
      "lng": 138.909855,
      "geocoding_level": null,
      "phone": "0554-56-7997",
      "license_no": "山梨県指令富東福第9433号",
      "license_date": "2022-01-28",
      "expire_date": "2028-02-29"
    },
    {
      "name": "OVEN.",
      "name_kana": "オーブン",
      "business_type": "㉕ そうざい製造業",
      "address": "山梨県都留市つる1-2-6",
      "lat": 35.55798,
      "lng": 138.909855,
      "geocoding_level": null,
      "phone": "0554-56-7997",
      "license_no": "山梨県指令富東福第9433号",
      "license_date": "2022-01-28",
      "expire_date": "2028-02-29"
    },
    {
      "name": "One Note Coffee Roaster",
      "name_kana": "ワンノートコーヒーロースター",
      "business_type": "① 飲食店営業",
      "address": "山梨県都留市夏狩253",
      "lat": 35.542833,
      "lng": 138.879643,
      "geocoding_level": null,
      "phone": "080-5924-8186",
      "license_no": "山梨県指令富東福第10230号",
      "license_date": "2022-02-24",
      "expire_date": "2027-08-31"
    },
    {
      "name": "Fantasia Coffee",
      "name_kana": "ファンタジアコーヒー",
      "business_type": "⑯ コーヒー製造・加工業（飲料の製造を除く。）",
      "address": "山梨県都留市十日市場219-1 サンライフ荻原26号棟201",
      "lat": 35.541479,
      "lng": 138.885208,
      "geocoding_level": null,
      "phone": "08086294992",
      "license_no": "",
      "license_date": null,
      "expire_date": null
    },
    {
      "name": "スーパー公正屋　都留店",
      "name_kana": "スーパーコウセイヤ　ツルテン",
      "business_type": "① 飲食店営業",
      "address": "山梨県都留市四日市場37-4",
      "lat": 35.56554,
      "lng": 138.916076,
      "geocoding_level": null,
      "phone": "0554-45-1900",
      "license_no": "山梨県指令富東福第10334号",
      "license_date": "2022-02-28",
      "expire_date": "2028-02-29"
    },
    {
      "name": "スーパー公正屋　都留店",
      "name_kana": "スーパーコウセイヤ　ツルテン",
      "business_type": "③ 食肉販売業",
      "address": "山梨県都留市四日市場37-4",
      "lat": 35.56554,
      "lng": 138.916076,
      "geocoding_level": null,
      "phone": "0554-45-1900",
      "license_no": "山梨県指令富東福第10334号",
      "license_date": "2022-02-28",
      "expire_date": "2028-02-29"
    },
    {
      "name": "スーパー公正屋　都留店",
      "name_kana": "スーパーコウセイヤ　ツルテン",
      "business_type": "④ 魚介類販売業",
      "address": "山梨県都留市四日市場37-4",
      "lat": 35.56554,
      "lng": 138.916076,
      "geocoding_level": null,
      "phone": "0554-45-1900",
      "license_no": "山梨県指令富東福第10334号",
      "license_date": "2022-02-28",
      "expire_date": "2028-02-29"
    },
    {
      "name": "スーパー公正屋　都留店",
      "name_kana": "スーパーコウセイヤ　ツルテン",
      "business_type": "⑪ 菓子製造業",
      "address": "山梨県都留市四日市場37-4",
      "lat": 35.56554,
      "lng": 138.916076,
      "geocoding_level": null,
      "phone": "0554-45-1900",
      "license_no": "山梨県指令富東福第10334号",
      "license_date": "2022-02-28",
      "expire_date": "2028-02-29"
    },
    {
      "name": "甲斐御正９３カンパニー",
      "name_kana": "カイミショウグミカンパニー",
      "business_type": "① 飲食店営業",
      "address": "山梨県都留市大野2970-1",
      "lat": 35.515185,
      "lng": 138.941275,
      "geocoding_level": null,
      "phone": "090-1049-9887",
      "license_no": "山梨県指令富東福第10844号",
      "license_date": "2022-03-15",
      "expire_date": "2028-11-30"
    },
    {
      "name": "甲斐御正９３カンパニー",
      "name_kana": "カイミショウグミカンパニー",
      "business_type": "㉘ 複合型冷凍食品製造業",
      "address": "山梨県都留市大野2970-1",
      "lat": 35.515185,
      "lng": 138.941275,
      "geocoding_level": null,
      "phone": "090-1049-9887",
      "license_no": "山梨県指令富東福第10844号",
      "license_date": "2022-03-15",
      "expire_date": "2028-11-30"
    },
    {
      "name": "ローソン移動販売",
      "name_kana": "ローソンイドウハンバイ",
      "business_type": "⑩ コンビニエンスストア",
      "address": "山梨県都留市小野４１６－１２",
      "lat": 35.538048,
      "lng": 138.907706,
      "geocoding_level": null,
      "phone": "0554567722",
      "license_no": "",
      "license_date": null,
      "expire_date": null
    },
    {
      "name": "手打ちうどん　我夢者来",
      "name_kana": "テウチウドン　ガムシャラ",
      "business_type": "① 飲食店営業",
      "address": "山梨県都留市田野倉841-2",
      "lat": 35.594061,
      "lng": 138.937916,
      "geocoding_level": null,
      "phone": "090-9964-3138",
      "license_no": "山梨県指令富東福第860号",
      "license_date": "2022-04-28",
      "expire_date": "2028-05-31"
    },
    {
      "name": "株式会社ASフーズ　山梨都留工場",
      "name_kana": "カブシキガイシャエーエスフーズ　ヤマナシツルコウジョウ",
      "business_type": "㉙ 漬物製造業",
      "address": "山梨県都留市大幡3566-1",
      "lat": 35.566562,
      "lng": 138.855728,
      "geocoding_level": null,
      "phone": "0554-45-1717",
      "license_no": "山梨県指令富東福第327号",
      "license_date": "2022-04-13",
      "expire_date": "2029-02-28"
    },
    {
      "name": "株式会社ASフーズ　山梨都留工場",
      "name_kana": "カブシキガイシャエーエスフーズ  ヤマナシツルコウジョウ",
      "business_type": "⑪ 菓子製造業",
      "address": "山梨県都留市大幡3566-1",
      "lat": 35.566562,
      "lng": 138.855728,
      "geocoding_level": null,
      "phone": "0554-45-1717",
      "license_no": "山梨県指令富東福第2167号",
      "license_date": "2025-06-03",
      "expire_date": "2032-02-29"
    },
    {
      "name": "ベイシア都留店",
      "name_kana": "ベイシアツルテン",
      "business_type": "⑪ 菓子製造業",
      "address": "山梨県都留市井倉494番地1",
      "lat": 35.57061,
      "lng": 138.933,
      "geocoding_level": null,
      "phone": "0554-46-6111",
      "license_no": "山梨県指令富東福第864号",
      "license_date": "2022-05-06",
      "expire_date": "2028-05-31"
    },
    {
      "name": "ベイシア都留店",
      "name_kana": "ベイシアツルテン",
      "business_type": "⑪ 百貨店、総合スーパー",
      "address": "山梨県都留市井倉494番地1",
      "lat": 35.57061,
      "lng": 138.933,
      "geocoding_level": null,
      "phone": "0554-46-6111",
      "license_no": "",
      "license_date": null,
      "expire_date": null
    },
    {
      "name": "旅館　なかみち荘",
      "name_kana": "リョカン　ナカミチソウ",
      "business_type": "① 飲食店営業",
      "address": "山梨県都留市小形山字古屋戸2708-1",
      "lat": 35.585749,
      "lng": 138.917764,
      "geocoding_level": null,
      "phone": "0554-45-8801",
      "license_no": "山梨県指令富東福第865号",
      "license_date": "2022-04-27",
      "expire_date": "2028-05-31"
    },
    {
      "name": "みとおし",
      "name_kana": "ミトオシ",
      "business_type": "⑪ 菓子製造業",
      "address": "山梨県都留市井倉字美通250番地",
      "lat": 35.5725,
      "lng": 138.933055,
      "geocoding_level": null,
      "phone": "0555-45-8622",
      "license_no": "山梨県指令富東福第11162号",
      "license_date": "2023-05-29",
      "expire_date": "2029-05-31"
    },
    {
      "name": "みとおし",
      "name_kana": "ミトオシ",
      "business_type": "㉕ そうざい製造業",
      "address": "山梨県都留市井倉字美通250番地",
      "lat": 35.5725,
      "lng": 138.933055,
      "geocoding_level": null,
      "phone": "0554-45-8622",
      "license_no": "山梨県指令富東福第2194号",
      "license_date": "2023-06-20",
      "expire_date": "2030-05-31"
    },
    {
      "name": "みとおし",
      "name_kana": "ミトオシ",
      "business_type": "㉚ 密封包装食品製造業",
      "address": "山梨県都留市井倉字美通250番地",
      "lat": 35.5725,
      "lng": 138.933055,
      "geocoding_level": null,
      "phone": "0554-45-8622",
      "license_no": "山梨県指令富東福第2194号",
      "license_date": "2023-06-20",
      "expire_date": "2030-05-31"
    },
    {
      "name": "ギャラリーカフェ　禾菜",
      "name_kana": "ギャラリーカフェ　カナ",
      "business_type": "① 飲食店営業",
      "address": "山梨県都留市古川渡662-2",
      "lat": 35.571093,
      "lng": 138.925527,
      "geocoding_level": null,
      "phone": "070-4488-0804",
      "license_no": "山梨県指令富東福第1368号",
      "license_date": "2022-05-12",
      "expire_date": "2027-05-31"
    },
    {
      "name": "マクドナルド都留店",
      "name_kana": "マクドナルドツルテン",
      "business_type": "① 飲食店営業",
      "address": "山梨県都留市四日市場45-1",
      "lat": 35.56569,
      "lng": 138.916901,
      "geocoding_level": null,
      "phone": "0554-45-3183",
      "license_no": "山梨県指令富東福第1425号",
      "license_date": "2022-05-18",
      "expire_date": "2029-02-28"
    },
    {
      "name": "KURAYA",
      "name_kana": "クラヤ",
      "business_type": "① 飲食店営業",
      "address": "山梨県都留市古川渡350-1",
      "lat": 35.574565,
      "lng": 138.92658,
      "geocoding_level": null,
      "phone": "",
      "license_no": "山梨県指令富東福第3582号",
      "license_date": "2022-08-15",
      "expire_date": "2029-05-31"
    },
    {
      "name": "焼きたて屋　カインズホーム都留店",
      "name_kana": "ヤキタテヤ　カインズホームツルテン",
      "business_type": "① 飲食店営業",
      "address": "山梨県都留市井倉字美通328-1",
      "lat": 35.5725,
      "lng": 138.933055,
      "geocoding_level": null,
      "phone": "090-7188-0762",
      "license_no": "山梨県指令富東福第1407号",
      "license_date": "2022-05-19",
      "expire_date": "2027-05-31"
    },
    {
      "name": "株式会社平井鉄骨",
      "name_kana": "カブシキガイシャヒライテッコツ",
      "business_type": "② 調理機能を有する自動販売機（要許可）",
      "address": "山梨県都留市小形山594",
      "lat": 35.58683,
      "lng": 138.929453,
      "geocoding_level": null,
      "phone": "0554-43-8012",
      "license_no": "山梨県指令富東福第1783号",
      "license_date": "2022-05-30",
      "expire_date": "2027-05-31"
    },
    {
      "name": "株式会社ベネック山梨事業所",
      "name_kana": "カブシキガイシャベネックヤマナシジギョウショ",
      "business_type": "② 調理機能を有する自動販売機（要許可）",
      "address": "山梨県都留市井倉527-1",
      "lat": 35.569724,
      "lng": 138.932208,
      "geocoding_level": null,
      "phone": "0554-43-6632",
      "license_no": "山梨県指令富東福第1784号",
      "license_date": "2022-05-30",
      "expire_date": "2027-05-31"
    },
    {
      "name": "天野組土建",
      "name_kana": "アマノグミドケン",
      "business_type": "⑫ 自動販売機による販売業（コップ式自動販売機（自動洗浄・屋内設置）及び営業許可の対象となる自動販売機を除く）",
      "address": "山梨県都留市大幡1906番地",
      "lat": 35.563635,
      "lng": 138.866922,
      "geocoding_level": null,
      "phone": "0554435535",
      "license_no": "",
      "license_date": null,
      "expire_date": null
    },
    {
      "name": "やまめ",
      "name_kana": "ヤマメ",
      "business_type": "① 飲食店営業",
      "address": "山梨県都留市大幡3611",
      "lat": 35.567428,
      "lng": 138.854684,
      "geocoding_level": null,
      "phone": "090-3803-4214",
      "license_no": "山梨県指令富東福第2242号",
      "license_date": "2022-06-24",
      "expire_date": "2029-02-28"
    },
    {
      "name": "lounge  愛加那",
      "name_kana": "ラウンジ　アイカナ",
      "business_type": "① 飲食店営業",
      "address": "山梨県都留市上谷2-2-10 2-B号",
      "lat": 35.55056,
      "lng": 138.907041,
      "geocoding_level": null,
      "phone": "",
      "license_no": "山梨県指令富東福第3387号",
      "license_date": "2022-07-15",
      "expire_date": "2027-11-30"
    },
    {
      "name": "シャトレーゼ都留田原店",
      "name_kana": "シャトレーゼツルタハラテン",
      "business_type": "⑪ 菓子製造業",
      "address": "山梨県都留市田原2丁目659",
      "lat": 35.543068,
      "lng": 138.896654,
      "geocoding_level": null,
      "phone": "0554-45-5458",
      "license_no": "山梨県指令富東福第3571号",
      "license_date": "2022-07-26",
      "expire_date": "2028-08-31"
    },
    {
      "name": "シカデリカ",
      "name_kana": "シカデリカ",
      "business_type": "⑪ 菓子製造業",
      "address": "山梨県都留市上谷3-5-31",
      "lat": 35.549219,
      "lng": 138.907159,
      "geocoding_level": null,
      "phone": "0554-37-0408",
      "license_no": "山梨県指令富東福第3834号",
      "license_date": "2022-08-17",
      "expire_date": "2028-11-30"
    },
    {
      "name": "くつろぎイタリアン　Ｓｏｎｏｄａ",
      "name_kana": "クツロギイタリアン　ソノダ",
      "business_type": "① 飲食店営業",
      "address": "山梨県都留市十日市場926-9",
      "lat": 35.53858,
      "lng": 138.879741,
      "geocoding_level": null,
      "phone": "090-8494-1974",
      "license_no": "山梨県指令富東福第3115号",
      "license_date": "2022-08-19",
      "expire_date": "2028-08-31"
    },
    {
      "name": "インドレストランマハラジャ",
      "name_kana": "インドレストランマハラジャ",
      "business_type": "① 飲食店営業",
      "address": "山梨県都留市田原2-11-26",
      "lat": 35.542239,
      "lng": 138.897756,
      "geocoding_level": null,
      "phone": "0554-56-7064",
      "license_no": "山梨県指令富東福第3294号",
      "license_date": "2022-08-19",
      "expire_date": "2028-08-31"
    },
    {
      "name": "インドレストランマハラジャ",
      "name_kana": "インドレストランマハラジャ",
      "business_type": "⑪ 菓子製造業",
      "address": "山梨県都留市田原2-11-26",
      "lat": 35.542239,
      "lng": 138.897756,
      "geocoding_level": null,
      "phone": "0554-56-7064",
      "license_no": "山梨県指令富東福第3294号",
      "license_date": "2022-08-19",
      "expire_date": "2028-08-31"
    },
    {
      "name": "居酒屋だるま",
      "name_kana": "イザカヤダルマ",
      "business_type": "① 飲食店営業",
      "address": "山梨県都留市夏狩3886-1",
      "lat": 35.53799,
      "lng": 138.875809,
      "geocoding_level": null,
      "phone": "0554-43-2279",
      "license_no": "山梨県指令富東福第3729号",
      "license_date": "2022-08-22",
      "expire_date": "2028-08-31"
    },
    {
      "name": "社会福祉法人　芳寿会　特別養護老人ホーム　回生荘",
      "name_kana": "シャカイフクシホウジン　ホウジュカイ　トクベツヨウゴロウジンホーム　カイセイソウ",
      "business_type": "① 飲食店営業",
      "address": "山梨県都留市境36番地",
      "lat": 35.528599,
      "lng": 138.863716,
      "geocoding_level": null,
      "phone": "0554-45-5211",
      "license_no": "山梨県指令富東福第3199号",
      "license_date": "2022-08-25",
      "expire_date": "2028-08-31"
    },
    {
      "name": "都留文科大学コミュニケーションホール",
      "name_kana": "ツルブンカダイガクコミュニケーションホール",
      "business_type": "① 飲食店営業",
      "address": "山梨県都留市田原3-8-1",
      "lat": 35.536819,
      "lng": 138.897003,
      "geocoding_level": null,
      "phone": "090-3533-4541",
      "license_no": "山梨県指令富東福第3692号",
      "license_date": "2022-08-29",
      "expire_date": "2028-08-31"
    },
    {
      "name": "戸塚醸造店",
      "name_kana": "トツカジョウゾウテン",
      "business_type": "⑱ 調味料製造・加工業",
      "address": "山梨県都留市夏狩253",
      "lat": 35.542794,
      "lng": 138.879721,
      "geocoding_level": null,
      "phone": "0554-56-7431",
      "license_no": "",
      "license_date": null,
      "expire_date": null
    },
    {
      "name": "SUGEEZ　food  truck",
      "name_kana": "スージーズ　フード　トラック",
      "business_type": "① 飲食店営業",
      "address": "山梨県都留市山梨県一円（山梨　100　す　4837）",
      "lat": 35.559001,
      "lng": 138.909579,
      "geocoding_level": null,
      "phone": "0554-56-8083",
      "license_no": "山梨県指令富東福第5326号",
      "license_date": "2022-09-28",
      "expire_date": "2027-09-30"
    },
    {
      "name": "きばりや",
      "name_kana": "キバリヤ",
      "business_type": "① 飲食店営業",
      "address": "山梨県都留市古川渡876-1 SFビル102",
      "lat": 35.575502,
      "lng": 138.927426,
      "geocoding_level": null,
      "phone": "0554-68-8004",
      "license_no": "山梨県指令富東福第4710号",
      "license_date": "2022-09-28",
      "expire_date": "2029-05-31"
    },
    {
      "name": "三つ善",
      "name_kana": "ミツヨシ",
      "business_type": "③ 食肉販売業",
      "address": "山梨県都留市小野190-4",
      "lat": 35.535246,
      "lng": 138.906372,
      "geocoding_level": null,
      "phone": "0554-23-6370",
      "license_no": "山梨県指令富東福第4492号",
      "license_date": "2022-09-28",
      "expire_date": "2028-11-30"
    },
    {
      "name": "甲斐御正９３カンパニー",
      "name_kana": "カイミショウグミカンパニー",
      "business_type": "① 飲食店営業",
      "address": "山梨県都留市山梨県一円（山梨　830　た　93）",
      "lat": 35.559001,
      "lng": 138.909579,
      "geocoding_level": null,
      "phone": "0555-23-2111",
      "license_no": "山梨県指令富東福第3968号",
      "license_date": "2023-07-31",
      "expire_date": "2028-07-31"
    },
    {
      "name": "有限会社エルフィン・インターナショナル",
      "name_kana": "ユウゲンガイシャエルフィン・インターナショナル",
      "business_type": "⑪ 菓子製造業",
      "address": "山梨県都留市法能710-3",
      "lat": 35.550966,
      "lng": 138.923706,
      "geocoding_level": null,
      "phone": "0554-45-3215",
      "license_no": "山梨県指令富東福第6373号",
      "license_date": "2022-11-09",
      "expire_date": "2028-11-30"
    },
    {
      "name": "有限会社エルフィン・インターナショナル",
      "name_kana": "ユウゲンガイシャエルフィン・インターナショナル",
      "business_type": "㉕ そうざい製造業",
      "address": "山梨県都留市法能710-3",
      "lat": 35.550966,
      "lng": 138.923706,
      "geocoding_level": null,
      "phone": "0554-45-3215",
      "license_no": "山梨県指令富東福第6373号",
      "license_date": "2022-11-09",
      "expire_date": "2028-11-30"
    },
    {
      "name": "エルフィンランド",
      "name_kana": "エルフィンランド",
      "business_type": "① 飲食店営業",
      "address": "山梨県都留市上谷1888-1",
      "lat": 35.533718,
      "lng": 138.894189,
      "geocoding_level": null,
      "phone": "",
      "license_no": "山梨県指令富東福第6918号",
      "license_date": "2023-11-30",
      "expire_date": "2029-11-30"
    },
    {
      "name": "肉と酒",
      "name_kana": "ニクトサケ",
      "business_type": "① 飲食店営業",
      "address": "山梨県都留市中央1-2-21 南條ビル1F",
      "lat": 35.552958,
      "lng": 138.90767,
      "geocoding_level": null,
      "phone": "090-6170-2147",
      "license_no": "山梨県指令富東福第6543号",
      "license_date": "2022-11-10",
      "expire_date": "2028-11-30"
    },
    {
      "name": "レストラン鎌倉",
      "name_kana": "レストランカマクラ",
      "business_type": "① 飲食店営業",
      "address": "山梨県都留市上谷5-9-15",
      "lat": 35.543233,
      "lng": 138.90051,
      "geocoding_level": null,
      "phone": "0554-45-1131",
      "license_no": "山梨県指令富東福第6293号",
      "license_date": "2022-11-11",
      "expire_date": "2028-11-30"
    },
    {
      "name": "アトリエ・ドゥ・プレジール",
      "name_kana": "アトリエ　ドゥ　プレジール",
      "business_type": "⑪ 菓子製造業",
      "address": "山梨県都留市上谷6-11-21",
      "lat": 35.543627,
      "lng": 138.902674,
      "geocoding_level": null,
      "phone": "0554-46-0888",
      "license_no": "山梨県指令富東福第6254号",
      "license_date": "2022-11-11",
      "expire_date": "2028-11-30"
    },
    {
      "name": "（有）ならや",
      "name_kana": "ユウゲンガイシャナラヤ",
      "business_type": "① 飲食店営業",
      "address": "山梨県都留市中央3-4-7",
      "lat": 35.554678,
      "lng": 138.911246,
      "geocoding_level": null,
      "phone": "0554-43-6307",
      "license_no": "山梨県指令富東福第6294号",
      "license_date": "2022-11-14",
      "expire_date": "2027-11-30"
    },
    {
      "name": "（有）ならや",
      "name_kana": "ユウゲンガイシャナラヤ",
      "business_type": "⑪ 菓子製造業",
      "address": "山梨県都留市中央3-4-7",
      "lat": 35.554678,
      "lng": 138.911246,
      "geocoding_level": null,
      "phone": "0554-43-6307",
      "license_no": "山梨県指令富東福第6313号",
      "license_date": "2022-11-11",
      "expire_date": "2028-11-30"
    },
    {
      "name": "川藤",
      "name_kana": "カワフジ",
      "business_type": "① 飲食店営業",
      "address": "山梨県都留市上谷1569-6",
      "lat": 35.540174,
      "lng": 138.897525,
      "geocoding_level": null,
      "phone": "0554-43-1675",
      "license_no": "山梨県指令富東福第6435号",
      "license_date": "2022-11-14",
      "expire_date": "2028-11-30"
    },
    {
      "name": "弘三館",
      "name_kana": "ヒロミカン",
      "business_type": "① 飲食店営業",
      "address": "山梨県都留市中央4-1-5",
      "lat": 35.556079,
      "lng": 138.909795,
      "geocoding_level": null,
      "phone": "0554-43-4810",
      "license_no": "山梨県指令富東福第6407号",
      "license_date": "2022-11-14",
      "expire_date": "2028-11-30"
    },
    {
      "name": "せせらぎ荘",
      "name_kana": "セセラギソウ",
      "business_type": "① 飲食店営業",
      "address": "山梨県都留市戸沢896-1",
      "lat": 35.547227,
      "lng": 138.961295,
      "geocoding_level": null,
      "phone": "0554-43-5905",
      "license_no": "山梨県指令富東福第5710号",
      "license_date": "2022-11-24",
      "expire_date": "2027-11-30"
    },
    {
      "name": "龍苑",
      "name_kana": "リュウエン",
      "business_type": "① 飲食店営業",
      "address": "山梨県都留市中央1-5-10",
      "lat": 35.555421,
      "lng": 138.909215,
      "geocoding_level": null,
      "phone": "0554-43-1796",
      "license_no": "山梨県指令富東福第6408号",
      "license_date": "2022-11-24",
      "expire_date": "2028-11-30"
    },
    {
      "name": "都留市立病院売店",
      "name_kana": "ツルシリツビョウインバイテン",
      "business_type": "⑩ コンビニエンスストア",
      "address": "山梨県都留市つる5-1-55 都留市立病院1階",
      "lat": 35.562697,
      "lng": 138.903089,
      "geocoding_level": null,
      "phone": "0554-45-3018",
      "license_no": "",
      "license_date": null,
      "expire_date": null
    },
    {
      "name": "ピップス",
      "name_kana": "ピップス",
      "business_type": "① 飲食店営業",
      "address": "山梨県都留市上谷6-10-14",
      "lat": 35.544259,
      "lng": 138.90291,
      "geocoding_level": null,
      "phone": "0554-45-1143",
      "license_no": "山梨県指令富東福第6043号",
      "license_date": "2022-11-28",
      "expire_date": "2028-11-30"
    },
    {
      "name": "来入華",
      "name_kana": "ライカ",
      "business_type": "① 飲食店営業",
      "address": "山梨県都留市小野字下川原338-1",
      "lat": 35.526862,
      "lng": 138.90769,
      "geocoding_level": null,
      "phone": "0554-45-5550",
      "license_no": "山梨県指令富東福第6256号",
      "license_date": "2022-11-28",
      "expire_date": "2028-11-30"
    },
    {
      "name": "小俣うどん店",
      "name_kana": "オマタウドンテン",
      "business_type": "① 飲食店営業",
      "address": "山梨県都留市法能672-2",
      "lat": 35.549053,
      "lng": 138.921876,
      "geocoding_level": null,
      "phone": "0554-43-4262",
      "license_no": "山梨県指令富東福第6286号",
      "license_date": "2022-11-28",
      "expire_date": "2028-11-30"
    },
    {
      "name": "うなぎ好",
      "name_kana": "ウナギコノミ",
      "business_type": "① 飲食店営業",
      "address": "山梨県都留市中央2-3-12",
      "lat": 35.507918,
      "lng": 139.615167,
      "geocoding_level": null,
      "phone": "0554-45-0399",
      "license_no": "山梨県指令富東福第6376号",
      "license_date": "2022-11-28",
      "expire_date": "2028-11-30"
    },
    {
      "name": "FOREST  GATE",
      "name_kana": "フォレスト　ゲート",
      "business_type": "① 飲食店営業",
      "address": "山梨県都留市大野2881-5",
      "lat": 35.510477,
      "lng": 138.954237,
      "geocoding_level": null,
      "phone": "080-8392-4680",
      "license_no": "山梨県指令富東福第6941号",
      "license_date": "2022-12-08",
      "expire_date": "2028-11-30"
    },
    {
      "name": "FOREST  GATE",
      "name_kana": "フォレスト　ゲート",
      "business_type": "⑪ 菓子製造業",
      "address": "山梨県都留市大野2881-5",
      "lat": 35.510477,
      "lng": 138.954237,
      "geocoding_level": null,
      "phone": "080-8392-4680",
      "license_no": "山梨県指令富東福第6941号",
      "license_date": "2022-12-08",
      "expire_date": "2028-11-30"
    },
    {
      "name": "はま寿司　都留田野倉店",
      "name_kana": "ハマズシ　ツルタノクラテン",
      "business_type": "① 飲食店営業",
      "address": "山梨県都留市田野倉965",
      "lat": 35.590343,
      "lng": 138.931022,
      "geocoding_level": null,
      "phone": "0554-46-4016",
      "license_no": "山梨県指令富東福第7273号",
      "license_date": "2022-12-08",
      "expire_date": "2029-05-31"
    },
    {
      "name": "はま寿司　都留田野倉店",
      "name_kana": "ハマズシ　ツルタノクラテン",
      "business_type": "⑬ その他の食料・飲料販売業",
      "address": "山梨県都留市田野倉965",
      "lat": 35.590343,
      "lng": 138.931022,
      "geocoding_level": null,
      "phone": "0554-46-4016",
      "license_no": "",
      "license_date": null,
      "expire_date": null
    },
    {
      "name": "和みの里　芭蕉　月待ちの湯",
      "name_kana": "ナゴミノサト　バショウ　ツキマチノユ",
      "business_type": "① 飲食店営業",
      "address": "山梨県都留市戸沢874-1",
      "lat": 35.547619,
      "lng": 138.956945,
      "geocoding_level": null,
      "phone": "0554-46-1126",
      "license_no": "山梨県指令富東福第6404号",
      "license_date": "2022-11-28",
      "expire_date": "2028-11-30"
    },
    {
      "name": "和みの里　種徳館",
      "name_kana": "ナゴミサト　シュトクカン",
      "business_type": "① 飲食店営業",
      "address": "山梨県都留市戸沢1126",
      "lat": 35.547431,
      "lng": 138.955221,
      "geocoding_level": null,
      "phone": "0554-46-0753",
      "license_no": "山梨県指令富東福第6405号",
      "license_date": "2022-11-28",
      "expire_date": "2028-11-30"
    },
    {
      "name": "環の拠点",
      "name_kana": "ワノキョテン",
      "business_type": "① 飲食店営業",
      "address": "山梨県都留市上谷5-6-22",
      "lat": 35.545307,
      "lng": 138.90111,
      "geocoding_level": null,
      "phone": "0554-43-0009",
      "license_no": "山梨県指令富東福第6434号",
      "license_date": "2022-11-28",
      "expire_date": "2028-11-30"
    },
    {
      "name": "セブンイレブン都留田野倉南店",
      "name_kana": "セブンイレブンツルタノクラミナミテン",
      "business_type": "① 飲食店営業",
      "address": "山梨県都留市田野倉1509-1",
      "lat": 35.586701,
      "lng": 138.935825,
      "geocoding_level": null,
      "phone": "0554-45-6700",
      "license_no": "山梨県指令富東福第7432号",
      "license_date": "2022-12-02",
      "expire_date": "2029-05-31"
    },
    {
      "name": "株式会社アズールヤード",
      "name_kana": "カブシキガイシャアズールヤード",
      "business_type": "㉚ 密封包装食品製造業",
      "address": "山梨県都留市下谷4丁目5番15号",
      "lat": 35.565483,
      "lng": 138.913632,
      "geocoding_level": null,
      "phone": "0554-23-6701",
      "license_no": "山梨県指令富東福第5275号",
      "license_date": "2023-09-25",
      "expire_date": "2030-02-28"
    },
    {
      "name": "La  Bonne  Table  A・La・Carte",
      "name_kana": "ラ　ボンヌ　ターブル　アラカルト",
      "business_type": "㉕ そうざい製造業",
      "address": "山梨県都留市田原3-1-3",
      "lat": 35.541798,
      "lng": 138.89988,
      "geocoding_level": null,
      "phone": "0554-45-1188",
      "license_no": "山梨県指令富東福第7399号",
      "license_date": "2022-12-13",
      "expire_date": "2029-08-31"
    },
    {
      "name": "株式会社公正屋　田野倉店　青果部",
      "name_kana": "カブシキガイシャコウセイヤ　タノクラテン　セイカブ",
      "business_type": "⑪ 菓子製造業",
      "address": "山梨県都留市田野倉198-1",
      "lat": 35.600728,
      "lng": 138.934216,
      "geocoding_level": null,
      "phone": "0554-43-2777",
      "license_no": "山梨県指令富東福第7074号",
      "license_date": "2022-12-20",
      "expire_date": "2029-05-31"
    },
    {
      "name": "株式会社山梨さえき　おかじま都留店",
      "name_kana": "カブシキガイシャヤマナシサエキ　オカジマツルテン",
      "business_type": "① 飲食店営業",
      "address": "山梨県都留市田原2丁目9-2",
      "lat": 35.542957,
      "lng": 138.89961,
      "geocoding_level": null,
      "phone": "0554-43-7255",
      "license_no": "山梨県指令富東福第6019号",
      "license_date": "2022-12-20",
      "expire_date": "2029-08-31"
    },
    {
      "name": "株式会社山梨さえき　おかじま都留店",
      "name_kana": "カブシキガイシャヤマナシサエキ　オカジマツルテン",
      "business_type": "① 飲食店営業",
      "address": "山梨県都留市田原2丁目9-2",
      "lat": 35.542957,
      "lng": 138.89961,
      "geocoding_level": null,
      "phone": "0554-43-7255",
      "license_no": "山梨県指令富東福第6019号",
      "license_date": "2022-12-20",
      "expire_date": "2029-08-31"
    },
    {
      "name": "株式会社山梨さえき　おかじま都留店",
      "name_kana": "カブシキガイシャヤマナシサエキ　オカジマツルテン",
      "business_type": "③ 食肉販売業",
      "address": "山梨県都留市田原2丁目9-2",
      "lat": 35.542957,
      "lng": 138.89961,
      "geocoding_level": null,
      "phone": "0554-43-7255",
      "license_no": "山梨県指令富東福第6019号",
      "license_date": "2022-12-20",
      "expire_date": "2029-08-31"
    },
    {
      "name": "株式会社山梨さえき　おかじま都留店",
      "name_kana": "カブシキガイシャヤマナシサエキ　オカジマツルテン",
      "business_type": "④ 魚介類販売業",
      "address": "山梨県都留市田原2丁目9-2",
      "lat": 35.542957,
      "lng": 138.89961,
      "geocoding_level": null,
      "phone": "0554-43-7255",
      "license_no": "山梨県指令富東福第6019号",
      "license_date": "2022-12-20",
      "expire_date": "2029-08-31"
    },
    {
      "name": "株式会社山梨さえき　おかじま都留店",
      "name_kana": "カブシキガイシャヤマナシサエキ　オカジマツルテン",
      "business_type": "④ 魚介類販売業",
      "address": "山梨県都留市田原2丁目9-2",
      "lat": 35.542957,
      "lng": 138.89961,
      "geocoding_level": null,
      "phone": "0554-43-7255",
      "license_no": "山梨県指令富東福第6019号",
      "license_date": "2022-12-20",
      "expire_date": "2029-08-31"
    },
    {
      "name": "株式会社山梨さえき　おかじま都留店",
      "name_kana": "カブシキガイシャヤマナシサエキ　オカジマツルテン",
      "business_type": "⑪ 菓子製造業",
      "address": "山梨県都留市田原2丁目9-2",
      "lat": 35.542957,
      "lng": 138.89961,
      "geocoding_level": null,
      "phone": "0554-43-7255",
      "license_no": "山梨県指令富東福第6019号",
      "license_date": "2022-12-20",
      "expire_date": "2029-08-31"
    },
    {
      "name": "株式会社山梨さえき　おかじま都留店",
      "name_kana": "カブシキガイシャヤマナシサエキ　オカジマツルテン",
      "business_type": "⑪ 百貨店、総合スーパー",
      "address": "山梨県都留市田原2丁目9-2",
      "lat": 35.542957,
      "lng": 138.89961,
      "geocoding_level": null,
      "phone": "0554-43-7255",
      "license_no": "",
      "license_date": null,
      "expire_date": null
    },
    {
      "name": "セブンイレブン都留金井店",
      "name_kana": "セブンイレブンツルカナイテン",
      "business_type": "⑩ コンビニエンスストア",
      "address": "山梨県都留市金井62-1",
      "lat": 35.570797,
      "lng": 138.892583,
      "geocoding_level": null,
      "phone": "0554-45-0440",
      "license_no": "",
      "license_date": null,
      "expire_date": null
    },
    {
      "name": "セブンイレブン都留金井店",
      "name_kana": "セブンイレブンツルカナイテン",
      "business_type": "① 飲食店営業",
      "address": "山梨県都留市金井62-1",
      "lat": 35.570797,
      "lng": 138.892583,
      "geocoding_level": null,
      "phone": "0554-45-0440",
      "license_no": "山梨県指令富東福第7868号",
      "license_date": "2022-12-23",
      "expire_date": "2029-02-28"
    },
    {
      "name": "うおいち",
      "name_kana": "ウオイチ",
      "business_type": "① 飲食店営業",
      "address": "山梨県都留市下谷3-8-11",
      "lat": 35.564359,
      "lng": 138.913346,
      "geocoding_level": null,
      "phone": "0554-43-0015",
      "license_no": "山梨県指令富東福第8685号",
      "license_date": "2023-02-22",
      "expire_date": "2029-02-28"
    },
    {
      "name": "３９ベーグル",
      "name_kana": "サンキュウベーグル",
      "business_type": "⑪ 菓子製造業",
      "address": "山梨県都留市つる1-7-6",
      "lat": 35.558547,
      "lng": 138.909126,
      "geocoding_level": null,
      "phone": "0554-67-8739",
      "license_no": "山梨県指令富東福第8701号",
      "license_date": "2023-02-14",
      "expire_date": "2029-02-28"
    },
    {
      "name": "（有）うすい商店",
      "name_kana": "ユウゲンガイシャ　ウスイショウテン",
      "business_type": "④ 魚介類販売業",
      "address": "山梨県都留市つる一丁目10番15号",
      "lat": 35.556975,
      "lng": 138.908339,
      "geocoding_level": null,
      "phone": "0554-43-2892",
      "license_no": "山梨県指令富東福第9456号",
      "license_date": "2023-02-17",
      "expire_date": "2029-02-28"
    },
    {
      "name": "（有）うすい商店",
      "name_kana": "ユウゲンガイシャウスイショウテン",
      "business_type": "③ 食肉販売業",
      "address": "山梨県都留市つる一丁目10番15号",
      "lat": 35.556952,
      "lng": 138.908241,
      "geocoding_level": null,
      "phone": "0554-43-2892",
      "license_no": "山梨県指令富東福第10050号",
      "license_date": "2026-02-19",
      "expire_date": "2032-02-29"
    },
    {
      "name": "ファミリーロッジ　旅籠屋・富士都留店",
      "name_kana": "ファミリーロッジ　ハタゴヤ　フジツルテン",
      "business_type": "① 飲食店営業",
      "address": "山梨県都留市つる1丁目12-29",
      "lat": 35.557535,
      "lng": 138.907668,
      "geocoding_level": null,
      "phone": "0554-45-8858",
      "license_no": "山梨県指令富東福第8903号",
      "license_date": "2023-02-22",
      "expire_date": "2029-02-28"
    },
    {
      "name": "就労支援事業所　チャレンジ・ドリーム",
      "name_kana": "シュウロウシエンジギョウショ　チャレンジドリーム",
      "business_type": "⑳ みそ又はしょうゆ製造業",
      "address": "山梨県都留市つる一丁目5番10号",
      "lat": 35.560265,
      "lng": 138.910267,
      "geocoding_level": null,
      "phone": "0554-43-9144",
      "license_no": "山梨県指令富東福第8720号",
      "license_date": "2023-02-24",
      "expire_date": "2029-02-28"
    },
    {
      "name": "スターらんど",
      "name_kana": "スターランド",
      "business_type": "① 飲食店営業",
      "address": "山梨県都留市下谷2450-1",
      "lat": 35.559192,
      "lng": 138.920322,
      "geocoding_level": null,
      "phone": "0554-45-6711",
      "license_no": "山梨県指令富東福第8956号",
      "license_date": "2023-02-24",
      "expire_date": "2029-02-28"
    },
    {
      "name": "宝の山ふれあいの里管理棟",
      "name_kana": "タカラノヤマフレアイノサトカンリトウ",
      "business_type": "① 飲食店営業",
      "address": "山梨県都留市大幡5108",
      "lat": 35.568209,
      "lng": 138.833533,
      "geocoding_level": null,
      "phone": "0554-45-6222",
      "license_no": "山梨県指令富東福第9017号",
      "license_date": "2023-02-24",
      "expire_date": "2029-02-28"
    },
    {
      "name": "中央都留カントリー倶楽部",
      "name_kana": "チュウオウツルカントリークラブ",
      "business_type": "① 飲食店営業",
      "address": "山梨県都留市大幡舟井沢3036",
      "lat": 35.56739,
      "lng": 138.83471,
      "geocoding_level": null,
      "phone": "0554-45-1261",
      "license_no": "山梨県指令富東福第8585号",
      "license_date": "2023-02-24",
      "expire_date": "2029-02-28"
    },
    {
      "name": "寺茶房　喫茶去",
      "name_kana": "テラサボウ　キッサコ",
      "business_type": "① 飲食店営業",
      "address": "山梨県都留市夏狩240",
      "lat": 35.542021,
      "lng": 138.877676,
      "geocoding_level": null,
      "phone": "080-5924-8186",
      "license_no": "山梨県指令富東福第9705号",
      "license_date": "2023-02-27",
      "expire_date": "2029-08-31"
    },
    {
      "name": "エリーゼ",
      "name_kana": "エリーゼ",
      "business_type": "① 飲食店営業",
      "address": "山梨県都留市つる1-11-16",
      "lat": 35.556016,
      "lng": 138.908261,
      "geocoding_level": null,
      "phone": "0554-43-4922",
      "license_no": "山梨県指令富東福第9759号",
      "license_date": "2023-02-28",
      "expire_date": "2029-02-28"
    },
    {
      "name": "障がい者支援施設　宝山寮",
      "name_kana": "ショウガイシャシエンシセツ　ホウザンリョウ",
      "business_type": "① 飲食店営業",
      "address": "山梨県都留市大幡5118",
      "lat": 35.566927,
      "lng": 138.832817,
      "geocoding_level": null,
      "phone": "0554-43-3265",
      "license_no": "山梨県指令富東福第9801号",
      "license_date": "2023-02-28",
      "expire_date": "2029-02-28"
    },
    {
      "name": "Sugeez",
      "name_kana": "スージーズ",
      "business_type": "① 飲食店営業",
      "address": "山梨県都留市四日市場29-1",
      "lat": 35.56496,
      "lng": 138.915848,
      "geocoding_level": null,
      "phone": "0554-56-8083",
      "license_no": "山梨県指令富東福第9943号",
      "license_date": "2023-02-28",
      "expire_date": "2029-02-28"
    },
    {
      "name": "株式会社　中村商事",
      "name_kana": "カブシキガイシャ　ナカムラショウジ",
      "business_type": "⑦ 野菜果物販売業",
      "address": "山梨県都留市小野321-1",
      "lat": 35.542919,
      "lng": 138.908516,
      "geocoding_level": null,
      "phone": "0554-56-8208",
      "license_no": "",
      "license_date": null,
      "expire_date": null
    },
    {
      "name": "リエール",
      "name_kana": "リエール",
      "business_type": "① 飲食店営業",
      "address": "山梨県都留市つる3-7-13",
      "lat": 35.558265,
      "lng": 138.905398,
      "geocoding_level": null,
      "phone": "0554-45-6595",
      "license_no": "山梨県指令富東福第9942号",
      "license_date": "2023-03-27",
      "expire_date": "2030-02-28"
    },
    {
      "name": "FUJI  SAKURA  FOOD",
      "name_kana": "フジ　サクラ　フード",
      "business_type": "① 飲食店営業",
      "address": "山梨県都留市山梨県一円（山梨　880　あ　1518）",
      "lat": 35.559001,
      "lng": 138.909579,
      "geocoding_level": null,
      "phone": "090-3226-1402",
      "license_no": "山梨県指令富東福第10738号",
      "license_date": "2023-04-03",
      "expire_date": "2028-04-30"
    },
    {
      "name": "一般社団法人Forest Tribes",
      "name_kana": "イッパンシャダンホウジンフォレストトライブス",
      "business_type": "⑭ 添加物製造・加工業（法第13 条第１項の規定により規格が定められた添加物の製造を除く。）",
      "address": "山梨県都留市小野1035",
      "lat": 35.529139,
      "lng": 138.91328,
      "geocoding_level": null,
      "phone": "09080880938",
      "license_no": "",
      "license_date": null,
      "expire_date": null
    },
    {
      "name": "Locanda　Abbracci",
      "name_kana": "ロカンダ　アブラッチ",
      "business_type": "㉔ 麺類製造業",
      "address": "山梨県都留市夏狩2561-2",
      "lat": 35.53522,
      "lng": 138.864445,
      "geocoding_level": null,
      "phone": "090-9139-3180",
      "license_no": "山梨県指令富東福第1372号",
      "license_date": "2023-05-23",
      "expire_date": "2029-08-31"
    },
    {
      "name": "田原交流センター　nicot",
      "name_kana": "タハラコウリュウセンター　ニコット",
      "business_type": "① 飲食店営業",
      "address": "山梨県都留市山梨県一円（山梨　100　す　7589）",
      "lat": 35.559001,
      "lng": 138.909579,
      "geocoding_level": null,
      "phone": "",
      "license_no": "山梨県指令富東福第897号",
      "license_date": "2023-05-01",
      "expire_date": "2028-05-31"
    },
    {
      "name": "Cafe&Dining  tinymany",
      "name_kana": "カフェアンドダイニング　タイニーメニー",
      "business_type": "① 飲食店営業",
      "address": "山梨県都留市田原4-5-32 田原交流センター　nicot  1階",
      "lat": 35.540353,
      "lng": 138.893055,
      "geocoding_level": null,
      "phone": "090-1398-9440",
      "license_no": "山梨県指令富東福第2127号",
      "license_date": "2023-06-15",
      "expire_date": "2029-08-31"
    },
    {
      "name": "Joker",
      "name_kana": "ジョーカー",
      "business_type": "① 飲食店営業",
      "address": "山梨県都留市田原3-1-21 イヴアール1店舗",
      "lat": 35.541252,
      "lng": 138.898963,
      "geocoding_level": null,
      "phone": "0554-56-8670",
      "license_no": "山梨県指令富東福第403号",
      "license_date": "2023-04-28",
      "expire_date": "2029-08-31"
    },
    {
      "name": "郷音～G.O.A.T～",
      "name_kana": "ゴート",
      "business_type": "② 食肉販売業（包装済みの食肉のみの販売）",
      "address": "山梨県都留市朝日曽雌1343",
      "lat": 35.545141,
      "lng": 138.990851,
      "geocoding_level": null,
      "phone": "03-6721-8291",
      "license_no": "",
      "license_date": null,
      "expire_date": null
    },
    {
      "name": "ベイシア都留店",
      "name_kana": "ベイシアツルテン",
      "business_type": "① 飲食店営業",
      "address": "山梨県都留市井倉494番地1",
      "lat": 35.57061,
      "lng": 138.933,
      "geocoding_level": null,
      "phone": "0554-46-6111",
      "license_no": "山梨県指令富東福第10984号",
      "license_date": "2023-05-15",
      "expire_date": "2029-05-31"
    },
    {
      "name": "ベイシア都留店　生すし",
      "name_kana": "ベイシアツルテン　ナマスシ",
      "business_type": "① 飲食店営業",
      "address": "山梨県都留市井倉494番地1",
      "lat": 35.57061,
      "lng": 138.933,
      "geocoding_level": null,
      "phone": "0554-46-6111",
      "license_no": "山梨県指令富東福第10981号",
      "license_date": "2023-05-15",
      "expire_date": "2029-05-31"
    },
    {
      "name": "ベイシア都留店　ローストビーフ",
      "name_kana": "ベイシアツルテン　ローストビーフ",
      "business_type": "① 飲食店営業",
      "address": "山梨県都留市井倉494番地1",
      "lat": 35.57061,
      "lng": 138.933,
      "geocoding_level": null,
      "phone": "0554-46-6111",
      "license_no": "山梨県指令富東福第10983号",
      "license_date": "2023-05-15",
      "expire_date": "2029-05-31"
    },
    {
      "name": "ベイシア都留店",
      "name_kana": "ベイシアツルテン",
      "business_type": "③ 食肉販売業",
      "address": "山梨県都留市井倉494番地1",
      "lat": 35.57061,
      "lng": 138.933,
      "geocoding_level": null,
      "phone": "0554-46-6111",
      "license_no": "山梨県指令富東福第10986号",
      "license_date": "2023-05-15",
      "expire_date": "2029-05-31"
    },
    {
      "name": "ベイシア都留店",
      "name_kana": "ベイシアツルテン",
      "business_type": "④ 魚介類販売業",
      "address": "山梨県都留市井倉494番地1",
      "lat": 35.57061,
      "lng": 138.933,
      "geocoding_level": null,
      "phone": "0554-46-6111",
      "license_no": "山梨県指令富東福第10987号",
      "license_date": "2023-05-15",
      "expire_date": "2029-05-31"
    },
    {
      "name": "はむ屋FOODS",
      "name_kana": "ハムヤフーズ",
      "business_type": "① 飲食店営業",
      "address": "山梨県都留市井倉424",
      "lat": 35.572508,
      "lng": 138.930644,
      "geocoding_level": null,
      "phone": "0554-43-0868",
      "license_no": "山梨県指令富東福第194号",
      "license_date": "2023-05-29",
      "expire_date": "2029-05-31"
    },
    {
      "name": "はむ屋FOODS",
      "name_kana": "ハムヤフーズ",
      "business_type": "③ 食肉販売業",
      "address": "山梨県都留市井倉424",
      "lat": 35.572508,
      "lng": 138.930644,
      "geocoding_level": null,
      "phone": "0554-43-0868",
      "license_no": "山梨県指令富東福第194号",
      "license_date": "2023-05-29",
      "expire_date": "2029-05-31"
    },
    {
      "name": "シティホール都留",
      "name_kana": "シティホールツル",
      "business_type": "① 飲食店営業",
      "address": "山梨県都留市田野倉1080-1",
      "lat": 35.600934,
      "lng": 138.932641,
      "geocoding_level": null,
      "phone": "0554-46-4646",
      "license_no": "山梨県指令富東福第78号",
      "license_date": "2023-05-29",
      "expire_date": "2029-05-31"
    },
    {
      "name": "カラオケ　ちょい呑み　まいこ",
      "name_kana": "カラオケ　チョイノミ　マイコ",
      "business_type": "① 飲食店営業",
      "address": "山梨県都留市田野倉1205-3",
      "lat": 35.599651,
      "lng": 138.929291,
      "geocoding_level": null,
      "phone": "090-7828-6739",
      "license_no": "山梨県指令富東福第1068号",
      "license_date": "2023-05-24",
      "expire_date": "2029-05-31"
    },
    {
      "name": "Locanda　Abbracci",
      "name_kana": "ロカンダ　アブラッチ",
      "business_type": "⑪ 菓子製造業",
      "address": "山梨県都留市夏狩2561-2",
      "lat": 35.53522,
      "lng": 138.864445,
      "geocoding_level": null,
      "phone": "090-9139-3180",
      "license_no": "山梨県指令富東福第1372号",
      "license_date": "2023-05-23",
      "expire_date": "2029-08-31"
    },
    {
      "name": "Locanda　Abbracci",
      "name_kana": "ロカンダ　アブラッチ",
      "business_type": "㉕ そうざい製造業",
      "address": "山梨県都留市夏狩2561-2",
      "lat": 35.53522,
      "lng": 138.864445,
      "geocoding_level": null,
      "phone": "090-9139-3180",
      "license_no": "山梨県指令富東福第1414号",
      "license_date": "2023-05-23",
      "expire_date": "2029-08-31"
    },
    {
      "name": "ローソンS都留文科大学",
      "name_kana": "ローソンエスツルブンカダイガク",
      "business_type": "① 飲食店営業",
      "address": "山梨県都留市田原3-8-1",
      "lat": 35.538611,
      "lng": 138.896166,
      "geocoding_level": null,
      "phone": "",
      "license_no": "山梨県指令富東福第1935号",
      "license_date": "2023-06-01",
      "expire_date": "2029-08-31"
    },
    {
      "name": "ローソンS都留文科大学",
      "name_kana": "ローソンエスツルブンカダイガク",
      "business_type": "⑩ コンビニエンスストア",
      "address": "山梨県都留市田原3-8-1",
      "lat": 35.538611,
      "lng": 138.896166,
      "geocoding_level": null,
      "phone": "",
      "license_no": "",
      "license_date": null,
      "expire_date": null
    },
    {
      "name": "ローソンS都留文科大学",
      "name_kana": "ローソンエスツルブンカダイガク",
      "business_type": "⑬ その他の食料・飲料販売業",
      "address": "山梨県都留市田原3-8-1",
      "lat": 35.538611,
      "lng": 138.896166,
      "geocoding_level": null,
      "phone": "",
      "license_no": "",
      "license_date": null,
      "expire_date": null
    },
    {
      "name": "ローソン　S都留文科大学　店",
      "name_kana": "ローソン　エスツルブンカダイガク　テン",
      "business_type": "① 飲食店営業",
      "address": "山梨県都留市田原3-8-1",
      "lat": 35.538611,
      "lng": 138.896166,
      "geocoding_level": null,
      "phone": "0554-68-8390",
      "license_no": "山梨県指令富東福第5178号",
      "license_date": "2025-09-29",
      "expire_date": "2032-08-31"
    },
    {
      "name": "からくりうどん　よいしょ！！",
      "name_kana": "カラクリウドン　ヨイショ",
      "business_type": "① 飲食店営業",
      "address": "山梨県都留市四日市場133-1 1F",
      "lat": 35.564957,
      "lng": 138.918056,
      "geocoding_level": null,
      "phone": "090-3346-4140",
      "license_no": "山梨県指令富東福第1768号",
      "license_date": "2023-06-05",
      "expire_date": "2030-02-28"
    },
    {
      "name": "からあげ文化飯店",
      "name_kana": "カラアゲブンカハンテン",
      "business_type": "① 飲食店営業",
      "address": "山梨県都留市田原3-3-22",
      "lat": 35.539967,
      "lng": 138.896005,
      "geocoding_level": null,
      "phone": "0554-43-3399",
      "license_no": "山梨県指令富東福第1153号",
      "license_date": "2023-06-05",
      "expire_date": "2028-08-31"
    },
    {
      "name": "からあげ文化飯店",
      "name_kana": "カラアゲブンカハンテン",
      "business_type": "㉕ そうざい製造業",
      "address": "山梨県都留市田原3-3-22",
      "lat": 35.539967,
      "lng": 138.896005,
      "geocoding_level": null,
      "phone": "090-1401-6929",
      "license_no": "山梨県指令富東福第3218号",
      "license_date": "2023-07-27",
      "expire_date": "2028-08-31"
    },
    {
      "name": "プレミール山梨",
      "name_kana": "プレミールヤマナシ",
      "business_type": "① 飲食店営業",
      "address": "山梨県都留市田野倉1023",
      "lat": 35.594061,
      "lng": 138.937916,
      "geocoding_level": null,
      "phone": "070-8791-6923",
      "license_no": "山梨県指令富東福第1718号",
      "license_date": "2023-05-29",
      "expire_date": "2029-05-31"
    },
    {
      "name": "カフェブリッコ都留店",
      "name_kana": "カフェブリッコツルテン",
      "business_type": "① 飲食店営業",
      "address": "山梨県都留市井倉494-1",
      "lat": 35.57061,
      "lng": 138.933,
      "geocoding_level": null,
      "phone": "0554-56-7117",
      "license_no": "山梨県指令富東福第1671号",
      "license_date": "2023-05-29",
      "expire_date": "2029-05-31"
    },
    {
      "name": "カフェブリッコ都留店",
      "name_kana": "カフェブリッコツルテン",
      "business_type": "⑪ 菓子製造業",
      "address": "山梨県都留市井倉494-1",
      "lat": 35.57061,
      "lng": 138.933,
      "geocoding_level": null,
      "phone": "0554-56-7117",
      "license_no": "山梨県指令富東福第1671号",
      "license_date": "2023-05-29",
      "expire_date": "2029-05-31"
    },
    {
      "name": "株式会社　せんねんの里つる（レストラン）",
      "name_kana": "カブシキガイシャ　センネンノサトツル　レストラン",
      "business_type": "① 飲食店営業",
      "address": "山梨県都留市大原88番地",
      "lat": 35.58294,
      "lng": 138.931068,
      "geocoding_level": null,
      "phone": "0554-43-1110",
      "license_no": "山梨県指令富東福第1834号",
      "license_date": "2023-05-29",
      "expire_date": "2029-05-31"
    },
    {
      "name": "株式会社　せんねんの里つる（テイクアウト）",
      "name_kana": "カブシキガイシャ　センネンノサトツル　テイクアウト",
      "business_type": "① 飲食店営業",
      "address": "山梨県都留市大原88番地",
      "lat": 35.58294,
      "lng": 138.931068,
      "geocoding_level": null,
      "phone": "0554-43-1110",
      "license_no": "山梨県指令富東福第1835号",
      "license_date": "2023-05-29",
      "expire_date": "2029-05-31"
    },
    {
      "name": "株式会社　せんねんの里つる（肉加工室）",
      "name_kana": "カブシキガイシャ　センネンノサトツル　ニクカコウシツ",
      "business_type": "③ 食肉販売業",
      "address": "山梨県都留市大原88番地",
      "lat": 35.58294,
      "lng": 138.931068,
      "geocoding_level": null,
      "phone": "0554-43-1110",
      "license_no": "山梨県指令富東福第1836号",
      "license_date": "2023-05-29",
      "expire_date": "2029-05-31"
    },
    {
      "name": "株式会社　せんねんの里つる（惣菜加工室）",
      "name_kana": "カブシキガイシャ　センネンノサトツル　ソウザイカコウシツ",
      "business_type": "① 飲食店営業",
      "address": "山梨県都留市大原88番地",
      "lat": 35.58294,
      "lng": 138.931068,
      "geocoding_level": null,
      "phone": "0554-43-1110",
      "license_no": "山梨県指令富東福第1839号",
      "license_date": "2023-05-29",
      "expire_date": "2029-05-31"
    },
    {
      "name": "ラウンジ　ブルーローズ",
      "name_kana": "ラウンジ　ブルーローズ",
      "business_type": "① 飲食店営業",
      "address": "山梨県都留市田野倉918-1",
      "lat": 35.588871,
      "lng": 138.933409,
      "geocoding_level": null,
      "phone": "0554-6-8455",
      "license_no": "山梨県指令富東福第1687号",
      "license_date": "2023-05-31",
      "expire_date": "2029-05-31"
    },
    {
      "name": "tokidoki／発酵食堂",
      "name_kana": "トキドキ　ハッコウショクドウ",
      "business_type": "① 飲食店営業",
      "address": "山梨県都留市上谷1571-4",
      "lat": 35.539534,
      "lng": 138.897677,
      "geocoding_level": null,
      "phone": "080-1358-5810",
      "license_no": "山梨県指令富東福第2778号",
      "license_date": "2023-07-06",
      "expire_date": "2029-11-30"
    },
    {
      "name": "tokidoki／発酵食堂",
      "name_kana": "トキドキ　ハッコウショクドウ",
      "business_type": "㉕ そうざい製造業",
      "address": "山梨県都留市上谷1571-4",
      "lat": 35.539534,
      "lng": 138.897677,
      "geocoding_level": null,
      "phone": "080-1358-5810",
      "license_no": "山梨県指令富東福第2778号",
      "license_date": "2023-07-06",
      "expire_date": "2029-11-30"
    },
    {
      "name": "m.sファーム",
      "name_kana": "エムエスファーム",
      "business_type": "⑱ 調味料製造・加工業",
      "address": "山梨県都留市田野倉643-1",
      "lat": 35.595321,
      "lng": 138.929759,
      "geocoding_level": null,
      "phone": "090-7269-4856",
      "license_no": "",
      "license_date": null,
      "expire_date": null
    },
    {
      "name": "都留市農林産物出品者組合",
      "name_kana": "ツルシノウリンサンブツシュッピンシャクミアイ",
      "business_type": "③ 乳類販売業",
      "address": "山梨県都留市田原1-2-3",
      "lat": 35.544798,
      "lng": 138.898219,
      "geocoding_level": null,
      "phone": "080-5188-4984",
      "license_no": "",
      "license_date": null,
      "expire_date": null
    },
    {
      "name": "スナック美保",
      "name_kana": "スナックミホ",
      "business_type": "① 飲食店営業",
      "address": "山梨県都留市田原2-14-8",
      "lat": 35.541317,
      "lng": 138.89811,
      "geocoding_level": null,
      "phone": "0554-43-7929",
      "license_no": "山梨県指令富東福第4622号",
      "license_date": "2023-08-24",
      "expire_date": "2029-08-31"
    },
    {
      "name": "BAKERY  CAFE  いちごいちえ",
      "name_kana": "ベーカリーカフェ　イチゴイチエ",
      "business_type": "㉚ 密封包装食品製造業",
      "address": "山梨県都留市上谷2丁目5-7",
      "lat": 35.549502,
      "lng": 138.906123,
      "geocoding_level": null,
      "phone": "0554-56-7865",
      "license_no": "山梨県指令富東福第4510号",
      "license_date": "2023-08-29",
      "expire_date": "2029-11-30"
    },
    {
      "name": "医療法人社団　浩央会　東桂メディカルクリニック",
      "name_kana": "イリョウホウジンシャダン　ヒロオカイ　ヒガシカツラメディカルクリニック",
      "business_type": "① 飲食店営業",
      "address": "山梨県都留市十日市場958-1",
      "lat": 35.537881,
      "lng": 138.879859,
      "geocoding_level": null,
      "phone": "0554-46-5838",
      "license_no": "山梨県指令富東福第4576号",
      "license_date": "2023-08-29",
      "expire_date": "2029-08-31"
    },
    {
      "name": "NAKAYAN",
      "name_kana": "ナカヤン",
      "business_type": "① 飲食店営業",
      "address": "山梨県都留市田原3-4-2",
      "lat": 35.540847,
      "lng": 138.894727,
      "geocoding_level": null,
      "phone": "0554-23-7480",
      "license_no": "山梨県指令富東福第4577号",
      "license_date": "2023-08-29",
      "expire_date": "2029-08-31"
    },
    {
      "name": "たまてばこ",
      "name_kana": "タマテバコ",
      "business_type": "① 飲食店営業",
      "address": "山梨県都留市山梨県一円（相模　831　の　88）",
      "lat": 35.551636,
      "lng": 138.905526,
      "geocoding_level": null,
      "phone": "080-2556-0303",
      "license_no": "山梨県指令富東福第5095号",
      "license_date": "2023-09-11",
      "expire_date": "2028-09-30"
    },
    {
      "name": "はちみつさいとう",
      "name_kana": "ハチミツサイトウ",
      "business_type": "⑲ 糖類製造・加工業",
      "address": "山梨県都留市十日市場488-1",
      "lat": 35.540957,
      "lng": 138.884834,
      "geocoding_level": null,
      "phone": "090-8808-4594",
      "license_no": "",
      "license_date": null,
      "expire_date": null
    },
    {
      "name": "おやこカフェ＆サロン　cha×cha",
      "name_kana": "オヤコカフェアンドサロン　チャチャ",
      "business_type": "① 飲食店営業",
      "address": "山梨県都留市つる1-1-4",
      "lat": 35.556409,
      "lng": 138.90891,
      "geocoding_level": null,
      "phone": "",
      "license_no": "山梨県指令富東福第5642号",
      "license_date": "2023-10-13",
      "expire_date": "2030-02-28"
    },
    {
      "name": "魚楽",
      "name_kana": "ウオラク",
      "business_type": "㉕ そうざい製造業",
      "address": "山梨県都留市田原3-4-2 パルシティ楽山",
      "lat": 35.540847,
      "lng": 138.894727,
      "geocoding_level": null,
      "phone": "",
      "license_no": "山梨県指令富東福第5619号",
      "license_date": "2023-10-19",
      "expire_date": "2030-08-31"
    },
    {
      "name": "ローソン都留桂店",
      "name_kana": "ローソンツルカツラテン",
      "business_type": "① 飲食店営業",
      "address": "山梨県都留市桂町694",
      "lat": 35.537491,
      "lng": 138.874929,
      "geocoding_level": null,
      "phone": "0554-43-5742",
      "license_no": "山梨県指令富東福第6021号",
      "license_date": "2023-10-19",
      "expire_date": "2030-08-31"
    },
    {
      "name": "ローソン都留桂店",
      "name_kana": "ローソンツルカツラテン",
      "business_type": "① 魚介類販売業（包装済みの魚介類のみの販売）",
      "address": "山梨県都留市桂町694",
      "lat": 35.537491,
      "lng": 138.874929,
      "geocoding_level": null,
      "phone": "0554-43-5742",
      "license_no": "",
      "license_date": null,
      "expire_date": null
    },
    {
      "name": "ローソン都留桂店",
      "name_kana": "ローソンツルカツラテン",
      "business_type": "② 食肉販売業（包装済みの食肉のみの販売）",
      "address": "山梨県都留市桂町694",
      "lat": 35.537491,
      "lng": 138.874929,
      "geocoding_level": null,
      "phone": "0554-43-5742",
      "license_no": "",
      "license_date": null,
      "expire_date": null
    },
    {
      "name": "ローソン都留桂店",
      "name_kana": "ローソンツルカツラテン",
      "business_type": "③ 乳類販売業",
      "address": "山梨県都留市桂町694",
      "lat": 35.537491,
      "lng": 138.874929,
      "geocoding_level": null,
      "phone": "0554-43-5742",
      "license_no": "",
      "license_date": null,
      "expire_date": null
    },
    {
      "name": "ローソン都留桂店",
      "name_kana": "ローソンツルカツラテン",
      "business_type": "⑩ コンビニエンスストア",
      "address": "山梨県都留市桂町694",
      "lat": 35.537491,
      "lng": 138.874929,
      "geocoding_level": null,
      "phone": "0554-43-5742",
      "license_no": "",
      "license_date": null,
      "expire_date": null
    },
    {
      "name": "株式会社　せんねんの里つる（惣菜加工室）",
      "name_kana": "カブシキガイシャ　センネンノサトツル　ソウザイカコウシツ",
      "business_type": "㉕ そうざい製造業",
      "address": "山梨県都留市大原88番地",
      "lat": 35.58294,
      "lng": 138.931068,
      "geocoding_level": null,
      "phone": "0554-43-1110",
      "license_no": "山梨県指令富東福第6412号",
      "license_date": "2023-10-27",
      "expire_date": "2030-05-31"
    },
    {
      "name": "セブンイレブン都留文大通り店",
      "name_kana": "セブンイレブンツルブンダイドオリテン",
      "business_type": "⑩ コンビニエンスストア",
      "address": "山梨県都留市上谷6-9-25",
      "lat": 35.543906,
      "lng": 138.903264,
      "geocoding_level": null,
      "phone": "0554-45-1774",
      "license_no": "",
      "license_date": null,
      "expire_date": null
    },
    {
      "name": "セブンイレブン都留文大通り店",
      "name_kana": "セブンイレブンツルブンダイドオリテン",
      "business_type": "① 飲食店営業",
      "address": "山梨県都留市上谷6-9-25",
      "lat": 35.543906,
      "lng": 138.903264,
      "geocoding_level": null,
      "phone": "0554-45-1774",
      "license_no": "山梨県指令富東福第5906号",
      "license_date": "2023-11-24",
      "expire_date": "2029-11-30"
    },
    {
      "name": "Buono",
      "name_kana": "ブォーノ",
      "business_type": "① 飲食店営業",
      "address": "山梨県都留市中央1-4-18",
      "lat": 35.555112,
      "lng": 138.909156,
      "geocoding_level": null,
      "phone": "0554-43-0662",
      "license_no": "山梨県指令富東福第5865号",
      "license_date": "2023-11-24",
      "expire_date": "2029-11-30"
    },
    {
      "name": "天翔鶴　ハーモスホール",
      "name_kana": "テンショウカク　ハーモスホール",
      "business_type": "① 飲食店営業",
      "address": "山梨県都留市玉川642",
      "lat": 35.555692,
      "lng": 138.926698,
      "geocoding_level": null,
      "phone": "0554-43-1234",
      "license_no": "山梨県指令富東福第6389号",
      "license_date": "2023-11-28",
      "expire_date": "2029-11-30"
    },
    {
      "name": "おにぎり専門店　京",
      "name_kana": "オニギリセンモンテン　ミヤコ",
      "business_type": "① 飲食店営業",
      "address": "山梨県都留市田原2-14-8 小宮ビル1F",
      "lat": 35.541317,
      "lng": 138.89811,
      "geocoding_level": null,
      "phone": "090-5822-9415",
      "license_no": "山梨県指令富東福第7277号",
      "license_date": "2023-12-11",
      "expire_date": "2030-08-31"
    },
    {
      "name": "cafe  Hanasakajiisan",
      "name_kana": "カフェ　ハナサカジイサン",
      "business_type": "① 飲食店営業",
      "address": "山梨県都留市上谷6-13-33",
      "lat": 35.542193,
      "lng": 138.900018,
      "geocoding_level": null,
      "phone": "",
      "license_no": "山梨県指令富東福第7346号",
      "license_date": "2023-11-30",
      "expire_date": "2029-11-30"
    },
    {
      "name": "LUMBER  ROOM  COFFEE",
      "name_kana": "ランバー　ルーム　コーヒー",
      "business_type": "① 飲食店営業",
      "address": "山梨県都留市上谷六丁目10番9号",
      "lat": 35.544327,
      "lng": 138.902988,
      "geocoding_level": null,
      "phone": "0554-37-0636",
      "license_no": "山梨県指令富東福第7357号",
      "license_date": "2023-11-30",
      "expire_date": "2029-11-30"
    },
    {
      "name": "Aq",
      "name_kana": "エーク",
      "business_type": "⑪ 菓子製造業",
      "address": "山梨県都留市夏狩1703",
      "lat": 35.538855,
      "lng": 138.879328,
      "geocoding_level": null,
      "phone": "0554-45-4003",
      "license_no": "山梨県指令富東福第7624号",
      "license_date": "2023-12-21",
      "expire_date": "2030-08-31"
    },
    {
      "name": "山本　文男",
      "name_kana": "ヤマモト　フミオ",
      "business_type": "㉔ その他の食料品製造・加工業",
      "address": "山梨県都留市小形山1817",
      "lat": 35.584306,
      "lng": 138.925537,
      "geocoding_level": null,
      "phone": "0554-43-8718",
      "license_no": "",
      "license_date": null,
      "expire_date": null
    },
    {
      "name": "吉野屋",
      "name_kana": "ヨシノヤ",
      "business_type": "① 魚介類販売業（包装済みの魚介類のみの販売）",
      "address": "山梨県都留市山梨県一円（山梨　880　あ　1214）",
      "lat": 35.551636,
      "lng": 138.905526,
      "geocoding_level": null,
      "phone": "",
      "license_no": "",
      "license_date": null,
      "expire_date": null
    },
    {
      "name": "山もとうどん（辛味）",
      "name_kana": "ヤマモトウドン　カラミ",
      "business_type": "⑱ 調味料製造・加工業",
      "address": "山梨県都留市古川渡397-1",
      "lat": 35.572302,
      "lng": 138.925025,
      "geocoding_level": null,
      "phone": "0554-45-8733",
      "license_no": "",
      "license_date": null,
      "expire_date": null
    },
    {
      "name": "有限会社菊翠",
      "name_kana": "ユウゲンガイシャキクスイ",
      "business_type": "⑪ 菓子製造業",
      "address": "山梨県都留市上谷1-3-14",
      "lat": 35.551229,
      "lng": 138.905467,
      "geocoding_level": null,
      "phone": "0554-43-4521",
      "license_no": "山梨県指令富東福第8974号",
      "license_date": "2024-02-09",
      "expire_date": "2030-11-30"
    },
    {
      "name": "食堂　くろき",
      "name_kana": "ショクドウ　クロキ",
      "business_type": "① 飲食店営業",
      "address": "山梨県都留市下谷3-2-5",
      "lat": 35.561714,
      "lng": 138.911881,
      "geocoding_level": null,
      "phone": "0554-43-3640",
      "license_no": "山梨県指令富東福第9201号",
      "license_date": "2024-02-21",
      "expire_date": "2030-02-28"
    },
    {
      "name": "富士リゾートカントリークラブ",
      "name_kana": "フジリゾートカントリークラブ",
      "business_type": "① 飲食店営業",
      "address": "山梨県都留市下谷3572",
      "lat": 35.573741,
      "lng": 138.907139,
      "geocoding_level": null,
      "phone": "0554-45-7070",
      "license_no": "山梨県指令富東福第9649号",
      "license_date": "2024-02-22",
      "expire_date": "2030-02-28"
    },
    {
      "name": "桔梗屋東治郎都留店",
      "name_kana": "キキョウヤトウジロウツルテン",
      "business_type": "① 飲食店営業",
      "address": "山梨県都留市田原2-641",
      "lat": 35.542195,
      "lng": 138.895924,
      "geocoding_level": null,
      "phone": "0554-45-6581",
      "license_no": "山梨県指令富東福第3987号",
      "license_date": "2024-08-23",
      "expire_date": "2030-08-31"
    },
    {
      "name": "宝鉱山蒸溜所",
      "name_kana": "タカラコウザンジョウリュウショ",
      "business_type": "㉑ 酒類製造業",
      "address": "山梨県都留市大幡5106",
      "lat": 35.566201,
      "lng": 138.833079,
      "geocoding_level": null,
      "phone": "0554-23-6875",
      "license_no": "山梨県指令富東福第875号",
      "license_date": "2024-05-16",
      "expire_date": "2031-02-28"
    },
    {
      "name": "大月ガーデンゴルフクラブ",
      "name_kana": "オオツキガーデンゴルフクラブ",
      "business_type": "① 飲食店営業",
      "address": "山梨県都留市朝日馬場1407",
      "lat": 35.57646,
      "lng": 139.003511,
      "geocoding_level": null,
      "phone": "0554-20-4111",
      "license_no": "山梨県指令富東福第484号",
      "license_date": "2024-05-24",
      "expire_date": "2030-05-31"
    },
    {
      "name": "ままぁぱぱ",
      "name_kana": "ママァパパ",
      "business_type": "① 飲食店営業",
      "address": "山梨県都留市大原153-1",
      "lat": 35.585151,
      "lng": 138.931667,
      "geocoding_level": null,
      "phone": "0554-45-0048",
      "license_no": "山梨県指令富東福第1399号",
      "license_date": "2024-05-24",
      "expire_date": "2030-05-31"
    },
    {
      "name": "きく屋",
      "name_kana": "キクヤ",
      "business_type": "① 飲食店営業",
      "address": "山梨県都留市田野倉650",
      "lat": 35.596068,
      "lng": 138.929969,
      "geocoding_level": null,
      "phone": "0554-45-8800",
      "license_no": "山梨県指令富東福第488号",
      "license_date": "2024-05-24",
      "expire_date": "2030-05-31"
    },
    {
      "name": "岩下　巌",
      "name_kana": "イワシタ　イワオ",
      "business_type": "㉙ 漬物製造業",
      "address": "山梨県都留市法能534-1",
      "lat": 35.548473,
      "lng": 138.917272,
      "geocoding_level": null,
      "phone": "090-3242-35",
      "license_no": "山梨県指令富東福第1387号",
      "license_date": "2024-05-28",
      "expire_date": "2030-11-30"
    },
    {
      "name": "ビッグボーイ都留田野倉店",
      "name_kana": "ビッグボーイツルタノクラテン",
      "business_type": "⑬ その他の食料・飲料販売業",
      "address": "山梨県都留市田野倉字政所452-1",
      "lat": 35.594061,
      "lng": 138.937916,
      "geocoding_level": null,
      "phone": "",
      "license_no": "",
      "license_date": null,
      "expire_date": null
    },
    {
      "name": "カフェ　星と風",
      "name_kana": "カフェ　ホシトカゼ",
      "business_type": "① 飲食店営業",
      "address": "山梨県都留市大幡5119番地",
      "lat": 35.564606,
      "lng": 138.832441,
      "geocoding_level": null,
      "phone": "080-4677-3339",
      "license_no": "山梨県指令富東福第1856号",
      "license_date": "2024-06-05",
      "expire_date": "2030-02-28"
    },
    {
      "name": "カフェ　星と風",
      "name_kana": "カフェ　ホシトカゼ",
      "business_type": "⑪ 菓子製造業",
      "address": "山梨県都留市大幡5119番地",
      "lat": 35.564606,
      "lng": 138.832441,
      "geocoding_level": null,
      "phone": "080-4677-3339",
      "license_no": "山梨県指令富東福第1856号",
      "license_date": "2024-06-05",
      "expire_date": "2030-02-28"
    },
    {
      "name": "菊地わさび園",
      "name_kana": "キクチワサビエン",
      "business_type": "㉙ 漬物製造業",
      "address": "山梨県都留市夏狩1803",
      "lat": 35.53806,
      "lng": 138.869834,
      "geocoding_level": null,
      "phone": "0554-43-9279",
      "license_no": "山梨県指令富東福第1691号",
      "license_date": "2024-06-19",
      "expire_date": "2029-08-31"
    },
    {
      "name": "大月ガーデンゴルフクラブ",
      "name_kana": "オオツキガーデンゴルフクラブ",
      "business_type": "② 食肉販売業（包装済みの食肉のみの販売）",
      "address": "山梨県都留市朝日馬場1407",
      "lat": 35.57646,
      "lng": 139.003511,
      "geocoding_level": null,
      "phone": "",
      "license_no": "",
      "license_date": null,
      "expire_date": null
    },
    {
      "name": "宿ぽっぽや",
      "name_kana": "ヤドポッポヤ",
      "business_type": "① 飲食店営業",
      "address": "山梨県都留市上谷1-5-14",
      "lat": 35.550034,
      "lng": 138.904613,
      "geocoding_level": null,
      "phone": "0554-37-0749",
      "license_no": "山梨県指令富東福第2865号",
      "license_date": "2024-07-09",
      "expire_date": "2030-11-30"
    },