{
  "meta": {
    "updated": 1783568789,
    "sources": [
      {
        "source": "厚生労働省 食品衛生申請等システム（オープンデータ）",
        "license": "公共データ利用規約（第1.0版, PDL1.0）"
      }
    ]
  },
  "data": [
    {
      "name": "つばさ保育園かすみ園",
      "name_kana": "ツバサホイクエン　カスミエン",
      "business_type": "㉖ 集団給食施設",
      "address": "福島県二本松市成田町１丁目812-1",
      "lat": 37.589661,
      "lng": 140.42189,
      "geocoding_level": null,
      "phone": "0243-24-9982",
      "license_no": "",
      "license_date": null,
      "expire_date": null
    },
    {
      "name": "三万石二本松店",
      "name_kana": "サンマンゴクニホンマツテン",
      "business_type": "⑤ コップ式自動販売機（自動洗浄・屋内設置）",
      "address": "福島県二本松市大壇2-1",
      "lat": 37.588207,
      "lng": 140.422943,
      "geocoding_level": null,
      "phone": "0243-62-2227",
      "license_no": "",
      "license_date": null,
      "expire_date": null
    },
    {
      "name": "二本松病院1F",
      "name_kana": "ニホンマツビョウイン",
      "business_type": "⑤ コップ式自動販売機（自動洗浄・屋内設置）",
      "address": "福島県二本松市成田町１丁目553",
      "lat": 37.590143,
      "lng": 140.422615,
      "geocoding_level": null,
      "phone": "0243-23-1231",
      "license_no": "",
      "license_date": null,
      "expire_date": null
    },
    {
      "name": "大村紙業株式会社",
      "name_kana": "オオムラシギョウカブシキガイシャ",
      "business_type": "⑤ コップ式自動販売機（自動洗浄・屋内設置）",
      "address": "福島県二本松市平石高田4-163",
      "lat": 37.578714,
      "lng": 140.447341,
      "geocoding_level": null,
      "phone": "0243-23-5335",
      "license_no": "",
      "license_date": null,
      "expire_date": null
    },
    {
      "name": "ダイナム二本松店",
      "name_kana": "ダイナムニホンマツテン",
      "business_type": "⑤ コップ式自動販売機（自動洗浄・屋内設置）",
      "address": "福島県二本松市中里325",
      "lat": 37.580144,
      "lng": 140.424305,
      "geocoding_level": null,
      "phone": "070-1455-9032",
      "license_no": "",
      "license_date": null,
      "expire_date": null
    },
    {
      "name": "ヨークベニマル二本松店",
      "name_kana": "ヨークベニマルニホンマツテン",
      "business_type": "⑪ 百貨店、総合スーパー",
      "address": "福島県二本松市作田247番地",
      "lat": 37.586447,
      "lng": 140.44442,
      "geocoding_level": null,
      "phone": "0243-62-7049",
      "license_no": "",
      "license_date": null,
      "expire_date": null
    },
    {
      "name": "ホテル光雲閣",
      "name_kana": "ホテルコウウンカク",
      "business_type": "⑫ 自動販売機による販売業（コップ式自動販売機（自動洗浄・屋内設置）及び営業許可の対象となる自動販売機を除く）",
      "address": "福島県二本松市岳温泉1-85",
      "lat": 37.607958,
      "lng": 140.352482,
      "geocoding_level": null,
      "phone": "0243-24-2101",
      "license_no": "",
      "license_date": null,
      "expire_date": null
    },
    {
      "name": "サンドラッグ二本松インター店",
      "name_kana": "サンドラッグニホンマツインターテン",
      "business_type": "⑪ 百貨店、総合スーパー",
      "address": "福島県二本松市成田町１丁目８１０番地",
      "lat": 37.589394,
      "lng": 140.422408,
      "geocoding_level": null,
      "phone": "0243-24-8366",
      "license_no": "",
      "license_date": null,
      "expire_date": null
    },
    {
      "name": "ドラッグセイムス二本松店",
      "name_kana": "ドラッグセイムスニホンマツテン",
      "business_type": "⑪ 百貨店、総合スーパー",
      "address": "福島県二本松市若宮2-152-1",
      "lat": 37.588628,
      "lng": 140.423972,
      "geocoding_level": null,
      "phone": "0243-62-1311",
      "license_no": "",
      "license_date": null,
      "expire_date": null
    },
    {
      "name": "業務スーパー二本松店",
      "name_kana": "ギョウムスーパーニホンマツテン",
      "business_type": "⑬ その他の食料・飲料販売業",
      "address": "福島県二本松市榎戸2丁目53-2",
      "lat": 37.594751,
      "lng": 140.45713,
      "geocoding_level": null,
      "phone": "0243-24-1011",
      "license_no": "",
      "license_date": null,
      "expire_date": null
    },
    {
      "name": "業務スーパー二本松店",
      "name_kana": "ギョウムスーパーニホンマツテン",
      "business_type": "㉔ その他の食料品製造・加工業",
      "address": "福島県二本松市榎戸2丁目53-2",
      "lat": 37.594751,
      "lng": 140.45713,
      "geocoding_level": null,
      "phone": "0243-24-1011",
      "license_no": "",
      "license_date": null,
      "expire_date": null
    },
    {
      "name": "グラントマト二本松店",
      "name_kana": "グラントマトニホンマツテン",
      "business_type": "㉔ その他の食料品製造・加工業",
      "address": "福島県二本松市榎戸2-53-2",
      "lat": 37.594751,
      "lng": 140.45713,
      "geocoding_level": null,
      "phone": "0243-22-8588",
      "license_no": "",
      "license_date": null,
      "expire_date": null
    },
    {
      "name": "コープふくしま　あだたら店",
      "name_kana": "アダタラテン",
      "business_type": "⑪ 百貨店、総合スーパー",
      "address": "福島県二本松市油井字中田１－１",
      "lat": 37.60406,
      "lng": 140.459731,
      "geocoding_level": null,
      "phone": "0243-22-7591",
      "license_no": "",
      "license_date": null,
      "expire_date": null
    },
    {
      "name": "薬王堂　二本松本町店",
      "name_kana": "ヤクオウドウ　ニホンマツモトマチテン",
      "business_type": "⑬ その他の食料・飲料販売業",
      "address": "福島県二本松市本町一丁目２１２－４",
      "lat": 37.591794,
      "lng": 140.437797,
      "geocoding_level": null,
      "phone": "0243245631",
      "license_no": "",
      "license_date": null,
      "expire_date": null
    },
    {
      "name": "薬王堂　メガステージ二本松店",
      "name_kana": "ヤクオウドウ　メガステージニホンマツテン",
      "business_type": "① 魚介類販売業（包装済みの魚介類のみの販売）",
      "address": "福島県二本松市作田237-2",
      "lat": 37.586974,
      "lng": 140.444302,
      "geocoding_level": null,
      "phone": "024327281",
      "license_no": "",
      "license_date": null,
      "expire_date": null
    },
    {
      "name": "薬王堂　メガステージ二本松店",
      "name_kana": "ヤクオウドウ　メガステージニホンマツテン",
      "business_type": "② 食肉販売業（包装済みの食肉のみの販売）",
      "address": "福島県二本松市作田237-2",
      "lat": 37.586974,
      "lng": 140.444302,
      "geocoding_level": null,
      "phone": "024327281",
      "license_no": "",
      "license_date": null,
      "expire_date": null
    },
    {
      "name": "薬王堂　メガステージ二本松店",
      "name_kana": "ヤクオウドウ　メガステージニホンマツテン",
      "business_type": "③ 乳類販売業",
      "address": "福島県二本松市作田237-2",
      "lat": 37.586974,
      "lng": 140.444302,
      "geocoding_level": null,
      "phone": "024327281",
      "license_no": "",
      "license_date": null,
      "expire_date": null
    },
    {
      "name": "魚国総本社・二本松21178",
      "name_kana": "ウオクニソウホンシャ・ニホンマツ",
      "business_type": "③ 乳類販売業",
      "address": "福島県二本松市宮戸30番地 二本松NOK株式会社",
      "lat": 37.57387,
      "lng": 140.443091,
      "geocoding_level": null,
      "phone": "0243-23-7142",
      "license_no": "",
      "license_date": null,
      "expire_date": null
    },
    {
      "name": "魚国総本社・二本松21155",
      "name_kana": "ウオクニソウホンシャ・ニホンマツ",
      "business_type": "① 飲食店営業",
      "address": "福島県二本松市宮戸30 二本松NOK株式会社",
      "lat": 37.57387,
      "lng": 140.443091,
      "geocoding_level": null,
      "phone": "0243-23-7141",
      "license_no": "福島県指令北保第2-312号",
      "license_date": "2025-02-06",
      "expire_date": "2033-02-28"
    },
    {
      "name": "デニーズ二本松店",
      "name_kana": "デニーズニホンマツテン",
      "business_type": "① 飲食店営業",
      "address": "福島県二本松市大壇2-1",
      "lat": 37.588207,
      "lng": 140.422943,
      "geocoding_level": null,
      "phone": "080-3459-2597",
      "license_no": "福島県指令北保第2-268号",
      "license_date": "2024-01-25",
      "expire_date": "2031-02-28"
    },
    {
      "name": "デニーズ二本松店",
      "name_kana": "デニーズニホンマツテン",
      "business_type": "⑬ その他の食料・飲料販売業",
      "address": "福島県二本松市大壇2-1",
      "lat": 37.588207,
      "lng": 140.422943,
      "geocoding_level": null,
      "phone": "080-3459-2597",
      "license_no": "",
      "license_date": null,
      "expire_date": null
    },
    {
      "name": "クスリのアオキ二本松店",
      "name_kana": "クスリノアオキニホンマツテン",
      "business_type": "⑪ 百貨店、総合スーパー",
      "address": "福島県二本松市油井字内走石20番地1",
      "lat": 37.599931,
      "lng": 140.45407,
      "geocoding_level": null,
      "phone": "0243-24-7520",
      "license_no": "",
      "license_date": null,
      "expire_date": null
    },
    {
      "name": "ヘルシーパルあだたら",
      "name_kana": "ヘルシーパルアダタラ",
      "business_type": "⑫ 自動販売機による販売業（コップ式自動販売機（自動洗浄・屋内設置）及び営業許可の対象となる自動販売機を除く）",
      "address": "福島県二本松市岳温泉1丁目274番3",
      "lat": 37.605965,
      "lng": 140.358771,
      "geocoding_level": null,
      "phone": "",
      "license_no": "",
      "license_date": null,
      "expire_date": null
    },
    {
      "name": "鏡が池　碧山亭",
      "name_kana": "カガミガイケ　ヘキザンテイ",
      "business_type": "⑫ 自動販売機による販売業（コップ式自動販売機（自動洗浄・屋内設置）及び営業許可の対象となる自動販売機を除く）",
      "address": "福島県二本松市岳温泉2-13",
      "lat": 37.605009,
      "lng": 140.360591,
      "geocoding_level": null,
      "phone": "",
      "license_no": "",
      "license_date": null,
      "expire_date": null
    },
    {
      "name": "ウエルシア二本松安達店",
      "name_kana": "ウエルシアニホンマツアダチテン",
      "business_type": "⑪ 百貨店、総合スーパー",
      "address": "福島県二本松市油井字濡石27-1",
      "lat": 37.608469,
      "lng": 140.460949,
      "geocoding_level": null,
      "phone": "0243-62-8861",
      "license_no": "",
      "license_date": null,
      "expire_date": null
    },
    {
      "name": "株式会社二本松農園",
      "name_kana": "カブシキガイシャニホンマツノウエン",
      "business_type": "⑦ 野菜果物販売業",
      "address": "福島県二本松市新生町490",
      "lat": 37.556315,
      "lng": 140.470179,
      "geocoding_level": null,
      "phone": "0243241001",
      "license_no": "",
      "license_date": null,
      "expire_date": null
    },
    {
      "name": "株式会社二本松農園",
      "name_kana": "カブシキガイシャニホンマツノウエン",
      "business_type": "⑧ 米穀類販売業",
      "address": "福島県二本松市新生町490",
      "lat": 37.556315,
      "lng": 140.470179,
      "geocoding_level": null,
      "phone": "0243241001",
      "license_no": "",
      "license_date": null,
      "expire_date": null
    },
    {
      "name": "株式会社二本松農園",
      "name_kana": "カブシキガイシャニホンマツノウエン",
      "business_type": "⑨ 通信販売・訪問販売による販売業",
      "address": "福島県二本松市新生町490",
      "lat": 37.556315,
      "lng": 140.470179,
      "geocoding_level": null,
      "phone": "0243241001",
      "license_no": "",
      "license_date": null,
      "expire_date": null
    },
    {
      "name": "株式会社二本松農園",
      "name_kana": "カブシキガイシャニホンマツノウエン",
      "business_type": "⑬ その他の食料・飲料販売業",
      "address": "福島県二本松市新生町490",
      "lat": 37.556315,
      "lng": 140.470179,
      "geocoding_level": null,
      "phone": "0243241001",
      "license_no": "",
      "license_date": null,
      "expire_date": null
    },
    {
      "name": "ワールドプラスジム二本松",
      "name_kana": "ワールドプラスジムニホンマツ",
      "business_type": "⑤ コップ式自動販売機（自動洗浄・屋内設置）",
      "address": "福島県二本松市槻木110-2",
      "lat": 37.575523,
      "lng": 140.421942,
      "geocoding_level": null,
      "phone": "0243-22-3631",
      "license_no": "",
      "license_date": null,
      "expire_date": null
    },
    {
      "name": "シコー株式会社 東日本事業部 福島製造部",
      "name_kana": "シコーカブシキガイシャ ヒガシニホンジギョウブ フクシマセイゾウブ",
      "business_type": "㉗ 器具、容器包装の製造・加工業（合成樹脂が使用された器具又は容器包装の製造、加工に限る。）",
      "address": "福島県二本松市長命292番1",
      "lat": 37.560144,
      "lng": 140.404395,
      "geocoding_level": null,
      "phone": "0243-24-5805",
      "license_no": "",
      "license_date": null,
      "expire_date": null
    },
    {
      "name": "すき家　二本松店",
      "name_kana": "スキヤ　ニホンマツテン",
      "business_type": "⑬ その他の食料・飲料販売業",
      "address": "福島県二本松市松岡265番10",
      "lat": 37.590202,
      "lng": 140.431097,
      "geocoding_level": null,
      "phone": "",
      "license_no": "",
      "license_date": null,
      "expire_date": null
    },
    {
      "name": "すき家　二本松店",
      "name_kana": "スキヤ　ニホンマツテン",
      "business_type": "① 飲食店営業",
      "address": "福島県二本松市松岡265-10",
      "lat": 37.590202,
      "lng": 140.431097,
      "geocoding_level": null,
      "phone": "",
      "license_no": "福島県指令北保第2-334号",
      "license_date": "2025-02-05",
      "expire_date": "2032-02-29"
    },
    {
      "name": "大沢屋",
      "name_kana": "オオサワヤ",
      "business_type": "⑯ コーヒー製造・加工業（飲料の製造を除く。）",
      "address": "福島県二本松市西町８１",
      "lat": 37.55238,
      "lng": 140.409279,
      "geocoding_level": null,
      "phone": "",
      "license_no": "",
      "license_date": null,
      "expire_date": null
    },
    {
      "name": "ヤマザキショップ二本松病院売店",
      "name_kana": "ヤマザキショップニホンマツビョウインバイテン",
      "business_type": "⑩ コンビニエンスストア",
      "address": "福島県二本松市成田町1丁目553",
      "lat": 37.590143,
      "lng": 140.422615,
      "geocoding_level": null,
      "phone": "0243-23-7116",
      "license_no": "",
      "license_date": null,
      "expire_date": null
    },
    {
      "name": "令和７年度（第４７回）二本松物産展",
      "name_kana": "レイワナナネンドダイヨンジュウナナカイニホンマツブッサンテン",
      "business_type": "⑦ 野菜果物販売業",
      "address": "福島県二本松市郭内三丁目３０３番地５",
      "lat": 37.596831,
      "lng": 140.433658,
      "geocoding_level": null,
      "phone": "",
      "license_no": "",
      "license_date": null,
      "expire_date": null
    },
    {
      "name": "令和７年度（第４７回）二本松物産展",
      "name_kana": "レイワナナネンドダイヨンジュウナナカイニホンマツブッサンテン",
      "business_type": "⑧ 米穀類販売業",
      "address": "福島県二本松市郭内三丁目３０３番地５",
      "lat": 37.596831,
      "lng": 140.433658,
      "geocoding_level": null,
      "phone": "",
      "license_no": "",
      "license_date": null,
      "expire_date": null
    },
    {
      "name": "株式会社FLY HIGH",
      "name_kana": "カブシキガイシャフライ  ハイ",
      "business_type": "⑨ 通信販売・訪問販売による販売業",
      "address": "福島県二本松市一円",
      "lat": 37.584871,
      "lng": 140.431259,
      "geocoding_level": null,
      "phone": "023-615-9121",
      "license_no": "",
      "license_date": null,
      "expire_date": null
    },
    {
      "name": "幸楽苑　二本松店",
      "name_kana": "コウラクエン　ニホンマツテン",
      "business_type": "⑬ その他の食料・飲料販売業",
      "address": "福島県二本松市油井字天皇舘腰18-3",
      "lat": 37.59537,
      "lng": 140.457216,
      "geocoding_level": null,
      "phone": "0243-23-4703",
      "license_no": "",
      "license_date": null,
      "expire_date": null
    },
    {
      "name": "四七五焙煎所",
      "name_kana": "ヨナゴバイセンジョ",
      "business_type": "⑯ コーヒー製造・加工業（飲料の製造を除く。）",
      "address": "福島県二本松市米五町201",
      "lat": 37.556921,
      "lng": 140.4731,
      "geocoding_level": null,
      "phone": "09075296978",
      "license_no": "",
      "license_date": null,
      "expire_date": null
    },
    {
      "name": "コメリパワー安達店",
      "name_kana": "コメリパワーアダチテン",
      "business_type": "⑧ 米穀類販売業",
      "address": "福島県二本松市油井字腰巻１６番地",
      "lat": 37.615959,
      "lng": 140.461993,
      "geocoding_level": null,
      "phone": "0243-61-3921",
      "license_no": "",
      "license_date": null,
      "expire_date": null
    },
    {
      "name": "コメリハードアンドグリーン岩代店",
      "name_kana": "コメリハードアンドグリーンイワシロテン",
      "business_type": "⑧ 米穀類販売業",
      "address": "福島県二本松市西勝田字柏木田１９２－１",
      "lat": 37.566259,
      "lng": 140.503506,
      "geocoding_level": null,
      "phone": "0243-65-2001",
      "license_no": "",
      "license_date": null,
      "expire_date": null
    },
    {
      "name": "コメリハードアンドグリーン二本松店",
      "name_kana": "コメリハードアンドグリーンニホンマツテン",
      "business_type": "⑧ 米穀類販売業",
      "address": "福島県二本松市大壇1番地1",
      "lat": 37.588446,
      "lng": 140.42313,
      "geocoding_level": null,
      "phone": "0243-62-2117",
      "license_no": "",
      "license_date": null,
      "expire_date": null
    }
  ]
}
