{
  "meta": {
    "updated": 1783568789,
    "sources": [
      {
        "source": "厚生労働省 食品衛生申請等システム（オープンデータ）",
        "license": "公共データ利用規約（第1.0版, PDL1.0）"
      }
    ]
  },
  "data": [
    {
      "name": "アーバンフィットつくばみらい平",
      "name_kana": "アーバンフィットツクバミライダイラ",
      "business_type": "⑤ コップ式自動販売機（自動洗浄・屋内設置）",
      "address": "茨城県つくばみらい市富士見ヶ丘1-28-4",
      "lat": 36.002337,
      "lng": 140.033372,
      "geocoding_level": null,
      "phone": "",
      "license_no": "",
      "license_date": null,
      "expire_date": null
    },
    {
      "name": "LAVAつくばみらい",
      "name_kana": "ラバツクバミライ",
      "business_type": "⑫ 自動販売機による販売業（コップ式自動販売機（自動洗浄・屋内設置）及び営業許可の対象となる自動販売機を除く）",
      "address": "茨城県つくばみらい市富士見ヶ丘１丁目２８−１",
      "lat": 36.002815,
      "lng": 140.032972,
      "geocoding_level": null,
      "phone": "",
      "license_no": "",
      "license_date": null,
      "expire_date": null
    },
    {
      "name": "ダイソー　茨城谷和原店",
      "name_kana": "ダイソー　イバラキヤワラテン",
      "business_type": "⑬ その他の食料・飲料販売業",
      "address": "茨城県つくばみらい市小絹７６１",
      "lat": 35.97945,
      "lng": 139.982963,
      "geocoding_level": null,
      "phone": "",
      "license_no": "",
      "license_date": null,
      "expire_date": null
    },
    {
      "name": "ヨークベニマルつくばみらい店",
      "name_kana": "ヨークベニマルツクバミライテン",
      "business_type": "⑪ 百貨店、総合スーパー",
      "address": "茨城県つくばみらい市絹の台六丁目20番地1",
      "lat": 35.976076,
      "lng": 139.973139,
      "geocoding_level": null,
      "phone": "0297-25-3181",
      "license_no": "",
      "license_date": null,
      "expire_date": null
    },
    {
      "name": "ツルハドラッグ富士見ヶ丘店",
      "name_kana": "ツルハドラッグフジミガオカテン",
      "business_type": "⑪ 百貨店、総合スーパー",
      "address": "茨城県つくばみらい市富士見ヶ丘１丁目28番地4",
      "lat": 36.004648,
      "lng": 140.030958,
      "geocoding_level": null,
      "phone": "0297-21-5193",
      "license_no": "",
      "license_date": null,
      "expire_date": null
    },
    {
      "name": "ヤックスドラッグつくばみらい平店",
      "name_kana": "ヤックスドラッグツクバミライダイラテン",
      "business_type": "⑥ 弁当販売業",
      "address": "茨城県つくばみらい市紫峰ヶ丘5丁目1-1",
      "lat": 35.999708,
      "lng": 140.041801,
      "geocoding_level": null,
      "phone": "0297386125",
      "license_no": "",
      "license_date": null,
      "expire_date": null
    },
    {
      "name": "ヤックスドラッグつくばみらい平店",
      "name_kana": "ヤックスドラッグツクバミライダイラテン",
      "business_type": "⑪ 百貨店、総合スーパー",
      "address": "茨城県つくばみらい市紫峰ヶ丘5丁目1-1",
      "lat": 35.999708,
      "lng": 140.041801,
      "geocoding_level": null,
      "phone": "0297386125",
      "license_no": "",
      "license_date": null,
      "expire_date": null
    },
    {
      "name": "カスミ　みらい平駅前店",
      "name_kana": "カスミ　ミライダイラエキマエテン",
      "business_type": "⑪ 百貨店、総合スーパー",
      "address": "茨城県つくばみらい市陽光台1丁目14番地1",
      "lat": 35.994727,
      "lng": 140.040153,
      "geocoding_level": null,
      "phone": "0297207511",
      "license_no": "",
      "license_date": null,
      "expire_date": null
    },
    {
      "name": "夢庵 つくばみらい店",
      "name_kana": "ユメアンツクバミライテン",
      "business_type": "① 飲食店営業",
      "address": "茨城県つくばみらい市絹の台３丁目２６－１",
      "lat": 35.977945,
      "lng": 139.974659,
      "geocoding_level": null,
      "phone": "0297-52-1450",
      "license_no": "つ保指令法第250110号",
      "license_date": "2025-02-13",
      "expire_date": "2031-05-31"
    },
    {
      "name": "夢庵 つくばみらい店",
      "name_kana": "ユメアンツクバミライテン",
      "business_type": "⑬ その他の食料・飲料販売業",
      "address": "茨城県つくばみらい市絹の台３丁目２６－１",
      "lat": 35.977945,
      "lng": 139.974659,
      "geocoding_level": null,
      "phone": "0297-52-1450",
      "license_no": "",
      "license_date": null,
      "expire_date": null
    },
    {
      "name": "株式会社とりせんみらい平店",
      "name_kana": "カブシキカイシャトリセンミライタイラテン",
      "business_type": "⑪ 百貨店、総合スーパー",
      "address": "茨城県つくばみらい市紫峰ヶ丘1丁目2番地5",
      "lat": 35.997009,
      "lng": 140.035964,
      "geocoding_level": null,
      "phone": "0297-47-2001",
      "license_no": "",
      "license_date": null,
      "expire_date": null
    },
    {
      "name": "ウエルシアつくばみらい伊奈店",
      "name_kana": "イナテン",
      "business_type": "⑪ 百貨店、総合スーパー",
      "address": "茨城県つくばみらい市谷井田1332",
      "lat": 35.955569,
      "lng": 140.047654,
      "geocoding_level": null,
      "phone": "0297583198",
      "license_no": "",
      "license_date": null,
      "expire_date": null
    },
    {
      "name": "コープデリ　つくばみらいセンター",
      "name_kana": "コープデリ　ツクバミライセンター",
      "business_type": "① 魚介類販売業（包装済みの魚介類のみの販売）",
      "address": "茨城県つくばみらい市福岡工業団地27",
      "lat": 36.022136,
      "lng": 140.041739,
      "geocoding_level": null,
      "phone": "",
      "license_no": "",
      "license_date": null,
      "expire_date": null
    },
    {
      "name": "コープデリ　つくばみらいセンター",
      "name_kana": "コープデリ　ツクバミライセンター",
      "business_type": "⑨ 通信販売・訪問販売による販売業",
      "address": "茨城県つくばみらい市福岡工業団地27",
      "lat": 36.022136,
      "lng": 140.041739,
      "geocoding_level": null,
      "phone": "",
      "license_no": "",
      "license_date": null,
      "expire_date": null
    },
    {
      "name": "コープデリ　つくばみらいセンター",
      "name_kana": "コープデリ　ツクバミライセンター",
      "business_type": "① 魚介類販売業（包装済みの魚介類のみの販売）",
      "address": "茨城県つくばみらい市福岡工業団地27",
      "lat": 36.022136,
      "lng": 140.041739,
      "geocoding_level": null,
      "phone": "",
      "license_no": "",
      "license_date": null,
      "expire_date": null
    },
    {
      "name": "コープデリ　つくばみらいセンター",
      "name_kana": "コープデリ　ツクバミライセンター",
      "business_type": "⑨ 通信販売・訪問販売による販売業",
      "address": "茨城県つくばみらい市福岡工業団地27",
      "lat": 36.022136,
      "lng": 140.041739,
      "geocoding_level": null,
      "phone": "",
      "license_no": "",
      "license_date": null,
      "expire_date": null
    },
    {
      "name": "ウエルシアみらい平駅前店",
      "name_kana": "ウエルシアミライダイラエキマエテン",
      "business_type": "⑪ 百貨店、総合スーパー",
      "address": "茨城県つくばみらい市陽光台１丁目14番地1",
      "lat": 35.994727,
      "lng": 140.040153,
      "geocoding_level": null,
      "phone": "0237-587-188",
      "license_no": "",
      "license_date": null,
      "expire_date": null
    },
    {
      "name": "無人販売店まる直",
      "name_kana": "ムジンハンバイテンマルチョク",
      "business_type": "⑬ その他の食料・飲料販売業",
      "address": "茨城県つくばみらい市富士見ヶ丘1-1",
      "lat": 36.005749,
      "lng": 140.033585,
      "geocoding_level": null,
      "phone": "",
      "license_no": "",
      "license_date": null,
      "expire_date": null
    },
    {
      "name": "きらく山ふれあいの丘すこやか福祉館",
      "name_kana": "キラクヤマフレアイノオカスコヤカフクシカン",
      "business_type": "⑫ 自動販売機による販売業（コップ式自動販売機（自動洗浄・屋内設置）及び営業許可の対象となる自動販売機を除く）",
      "address": "茨城県つくばみらい市神生530",
      "lat": 35.964348,
      "lng": 140.088677,
      "geocoding_level": null,
      "phone": "",
      "license_no": "",
      "license_date": null,
      "expire_date": null
    },
    {
      "name": "セブンイレブンみらい平駅入口店",
      "name_kana": "セブンイレブンミライダイラエキイリグチテン",
      "business_type": "⑩ コンビニエンスストア",
      "address": "茨城県つくばみらい市陽光台四丁目１６番地６",
      "lat": 35.99714,
      "lng": 140.037464,
      "geocoding_level": null,
      "phone": "0297571100",
      "license_no": "",
      "license_date": null,
      "expire_date": null
    },
    {
      "name": "ケンタッキーフライドチキン　ピアシティみらい平店",
      "name_kana": "ケンタッキーフライドチキン　ピアシティミライダイラテン",
      "business_type": "① 飲食店営業",
      "address": "茨城県つくばみらい市陽光台1丁目14-1",
      "lat": 35.99475,
      "lng": 140.040149,
      "geocoding_level": null,
      "phone": "0297-21-5528",
      "license_no": "つ保指令法第251116号",
      "license_date": "2025-11-18",
      "expire_date": "2032-05-31"
    },
    {
      "name": "セブンイレブンつくばみらい板橋店",
      "name_kana": "セブンイレブンツクバミライイタバシテン",
      "business_type": "⑩ コンビニエンスストア",
      "address": "茨城県つくばみらい市板橋７３２－１",
      "lat": 35.968715,
      "lng": 140.043614,
      "geocoding_level": null,
      "phone": "",
      "license_no": "",
      "license_date": null,
      "expire_date": null
    },
    {
      "name": "サイゼリヤつくばみらい店",
      "name_kana": "サイゼリヤツクバミライテン",
      "business_type": "⑬ その他の食料・飲料販売業",
      "address": "茨城県つくばみらい市絹の台7-6",
      "lat": 35.980188,
      "lng": 139.97611,
      "geocoding_level": null,
      "phone": "0297-52-0093",
      "license_no": "",
      "license_date": null,
      "expire_date": null
    },
    {
      "name": "業務スーパーつくばみらい店",
      "name_kana": "ギョウムスーパーツクバミライテン",
      "business_type": "⑪ 百貨店、総合スーパー",
      "address": "茨城県つくばみらい市富士見ヶ丘1-28-4",
      "lat": 36.002337,
      "lng": 140.033372,
      "geocoding_level": null,
      "phone": "",
      "license_no": "",
      "license_date": null,
      "expire_date": null
    },
    {
      "name": "株式会社ハンド",
      "name_kana": "カブシキガイシャハンド",
      "business_type": "⑧ 米穀類販売業",
      "address": "茨城県つくばみらい市谷井田2007番地2",
      "lat": 35.950854,
      "lng": 140.047686,
      "geocoding_level": null,
      "phone": "0297-58-8778",
      "license_no": "",
      "license_date": null,
      "expire_date": null
    },
    {
      "name": "株式会社農創",
      "name_kana": "カブシキガイシャノウソウ",
      "business_type": "⑰ 農産保存食料品製造・加工業",
      "address": "茨城県つくばみらい市城中414",
      "lat": 35.944544,
      "lng": 140.09261,
      "geocoding_level": null,
      "phone": "0297445814",
      "license_no": "",
      "license_date": null,
      "expire_date": null
    },
    {
      "name": "KJ FOODS MARKET",
      "name_kana": "ケージェイフーズマーケット",
      "business_type": "⑬ その他の食料・飲料販売業",
      "address": "茨城県つくばみらい市陽光台1 みらい平駅構内",
      "lat": 35.995106,
      "lng": 140.038659,
      "geocoding_level": null,
      "phone": "05055270327",
      "license_no": "",
      "license_date": null,
      "expire_date": null
    },
    {
      "name": "ロピア　みらい平店　　（惣菜部ＭＴＯ）",
      "name_kana": "ロピア　ミライダイラテン",
      "business_type": "① 飲食店営業",
      "address": "茨城県つくばみらい市富士見ヶ丘1丁目28-1",
      "lat": 36.002815,
      "lng": 140.032972,
      "geocoding_level": null,
      "phone": "029-721-8848",
      "license_no": "つ 保 指 令 法 第 2 5 1 1 0 7 号",
      "license_date": "2025-11-17",
      "expire_date": "2032-05-31"
    },
    {
      "name": "ロピア　みらい平店　　（鮮魚部）",
      "name_kana": "ロピア　ミライダイラテン",
      "business_type": "④ 魚介類販売業",
      "address": "茨城県つくばみらい市富士見ヶ丘1丁目28-1",
      "lat": 36.002815,
      "lng": 140.032972,
      "geocoding_level": null,
      "phone": "029-721-8848",
      "license_no": "つ 保 指 令 法 第 2 5 1 1 0 9 号",
      "license_date": "2025-11-17",
      "expire_date": "2032-05-31"
    },
    {
      "name": "ロピア　みらい平店　　（惣菜部１、菓子）",
      "name_kana": "ロピア　ミライダイラテン",
      "business_type": "① 飲食店営業",
      "address": "茨城県つくばみらい市富士見ヶ丘1丁目28-1",
      "lat": 36.002815,
      "lng": 140.032972,
      "geocoding_level": null,
      "phone": "029-721-8848",
      "license_no": "つ 保 指 令 法 第 2 5 1 1 1 1 号",
      "license_date": "2025-11-17",
      "expire_date": "2032-05-31"
    },
    {
      "name": "ロピア　みらい平店　　（惣菜部１、菓子）",
      "name_kana": "ロピア　ミライダイラテン",
      "business_type": "⑪ 菓子製造業",
      "address": "茨城県つくばみらい市富士見ヶ丘1丁目28-1",
      "lat": 36.002815,
      "lng": 140.032972,
      "geocoding_level": null,
      "phone": "029-721-8848",
      "license_no": "つ 保 指 令 法 第 2 5 1 1 1 2 号",
      "license_date": "2025-11-17",
      "expire_date": "2032-05-31"
    },
    {
      "name": "ロピア　みらい平店　　（精肉部）",
      "name_kana": "ロピア　ミライダイラテン",
      "business_type": "③ 食肉販売業",
      "address": "茨城県つくばみらい市富士見ヶ丘1丁目28-1",
      "lat": 36.002815,
      "lng": 140.032972,
      "geocoding_level": null,
      "phone": "029-721-8848",
      "license_no": "つ 保 指 令 法 第 2 5 1 1 1 0 号",
      "license_date": "2025-11-17",
      "expire_date": "2032-05-31"
    },
    {
      "name": "ロピア　みらい平店　　（鮮魚部寿司）",
      "name_kana": "ロピア　ミライダイラテン",
      "business_type": "① 飲食店営業",
      "address": "茨城県つくばみらい市富士見ヶ丘1丁目28-1",
      "lat": 36.002815,
      "lng": 140.032972,
      "geocoding_level": null,
      "phone": "029-721-8848",
      "license_no": "つ保指令法第251108号",
      "license_date": "2025-11-17",
      "expire_date": "2032-05-31"
    },
    {
      "name": "ロピア　みらい平店",
      "name_kana": "ロピア　ミライダイラテン",
      "business_type": "⑪ 百貨店、総合スーパー",
      "address": "茨城県つくばみらい市富士見ヶ丘1丁目２８－１",
      "lat": 36.002815,
      "lng": 140.032972,
      "geocoding_level": null,
      "phone": "",
      "license_no": "",
      "license_date": null,
      "expire_date": null
    },
    {
      "name": "株式会社つくば自然農園",
      "name_kana": "カブシキガイシャツクバシゼンノウエン",
      "business_type": "⑦ 野菜果物販売業",
      "address": "茨城県つくばみらい市陽光台2-12-1",
      "lat": 35.998294,
      "lng": 140.04221,
      "geocoding_level": null,
      "phone": "",
      "license_no": "",
      "license_date": null,
      "expire_date": null
    },
    {
      "name": "DCMつくばみらい店",
      "name_kana": "ディーシーエムツクバミライテン",
      "business_type": "⑬ その他の食料・飲料販売業",
      "address": "茨城県つくばみらい市絹の台六丁目20 番1",
      "lat": 35.976107,
      "lng": 139.973171,
      "geocoding_level": null,
      "phone": "0297-25-2301",
      "license_no": "",
      "license_date": null,
      "expire_date": null
    },
    {
      "name": "自家焙煎工房　まめまさ",
      "name_kana": "ジカバイセンコウボウ　マメマサ",
      "business_type": "⑯ コーヒー製造・加工業（飲料の製造を除く。）",
      "address": "茨城県つくばみらい市絹の台3-23-6",
      "lat": 35.978463,
      "lng": 139.97605,
      "geocoding_level": null,
      "phone": "0297-52-1060",
      "license_no": "",
      "license_date": null,
      "expire_date": null
    },
    {
      "name": "カスミ移動スーパー",
      "name_kana": "カスミイドウスーパー",
      "business_type": "⑬ その他の食料・飲料販売業",
      "address": "茨城県つくばみらい市茨城県内一円（水戸市を除く）",
      "lat": 35.963237,
      "lng": 140.036385,
      "geocoding_level": null,
      "phone": "0297-57-7212",
      "license_no": "",
      "license_date": null,
      "expire_date": null
    },
    {
      "name": "クリエイトS・Dつくばみらい店",
      "name_kana": "クリエイトエス・ディーツクバミライテン",
      "business_type": "⑪ 百貨店、総合スーパー",
      "address": "茨城県つくばみらい市絹の台1-6-1",
      "lat": 35.978886,
      "lng": 139.980196,
      "geocoding_level": null,
      "phone": "0297205077",
      "license_no": "",
      "license_date": null,
      "expire_date": null
    },
    {
      "name": "クリエイトS・Dつくばみらい谷井田店",
      "name_kana": "クリエイトエス・ディーツクバミライヤイタテン",
      "business_type": "⑪ 百貨店、総合スーパー",
      "address": "茨城県つくばみらい市谷井田1077-1",
      "lat": 35.95803,
      "lng": 140.047131,
      "geocoding_level": null,
      "phone": "0297-21-2093",
      "license_no": "",
      "license_date": null,
      "expire_date": null
    },
    {
      "name": "ココス谷和原店",
      "name_kana": "ココス　ヤワラテン",
      "business_type": "⑬ その他の食料・飲料販売業",
      "address": "茨城県つくばみらい市絹の台2-14-1",
      "lat": 35.977497,
      "lng": 139.982384,
      "geocoding_level": null,
      "phone": "050-3333-3971",
      "license_no": "",
      "license_date": null,
      "expire_date": null
    },
    {
      "name": "アジア食材専門店　An　Tam　Food",
      "name_kana": "アジアショクザイセンモンテン　アンタムフード",
      "business_type": "⑬ その他の食料・飲料販売業",
      "address": "茨城県つくばみらい市小絹622番地1 グリーンハイツ101",
      "lat": 35.982282,
      "lng": 139.983028,
      "geocoding_level": null,
      "phone": "",
      "license_no": "",
      "license_date": null,
      "expire_date": null
    },
    {
      "name": "幸楽苑 つくばみらい店",
      "name_kana": "コウラクエン ツクバミライテン",
      "business_type": "⑬ その他の食料・飲料販売業",
      "address": "茨城県つくばみらい市小絹948-1",
      "lat": 35.982538,
      "lng": 139.977413,
      "geocoding_level": null,
      "phone": "0297-25-2310",
      "license_no": "",
      "license_date": null,
      "expire_date": null
    },
    {
      "name": "無印良品つくばみらい店",
      "name_kana": "ムジルシリョウヒンツクバミライテン",
      "business_type": "⑬ その他の食料・飲料販売業",
      "address": "茨城県つくばみらい市富士見ヶ丘1丁目28番地1",
      "lat": 36.002815,
      "lng": 140.032972,
      "geocoding_level": null,
      "phone": "0297340610",
      "license_no": "",
      "license_date": null,
      "expire_date": null
    }
  ]
}
