{
  "meta": {
    "updated": 1783568789,
    "sources": [
      {
        "source": "厚生労働省 食品衛生申請等システム（オープンデータ）",
        "license": "公共データ利用規約（第1.0版, PDL1.0）"
      }
    ]
  },
  "data": [
    {
      "name": "コナミスポーツクラブ大野城",
      "name_kana": "コナミスポーツクラブオオノジョウ",
      "business_type": "⑤ コップ式自動販売機（自動洗浄・屋内設置）",
      "address": "福岡県大野城市錦町4-1-2",
      "lat": 33.537744,
      "lng": 130.475029,
      "geocoding_level": null,
      "phone": "092-574-0555",
      "license_no": "",
      "license_date": null,
      "expire_date": null
    },
    {
      "name": "カルディコーヒーファーム　イオン大野城SC店",
      "name_kana": "カルディコーヒーファーム　イオンオオノジョウエスシーテン",
      "business_type": "⑬ その他の食料・飲料販売業",
      "address": "福岡県大野城市錦町4-1-1 イオン大野城SC　1F",
      "lat": 33.537919,
      "lng": 130.475579,
      "geocoding_level": null,
      "phone": "092-572-2442",
      "license_no": "",
      "license_date": null,
      "expire_date": null
    },
    {
      "name": "ライフパートナー大野城",
      "name_kana": "ライフパートナーオオノジョウ",
      "business_type": "㉖ 集団給食施設",
      "address": "福岡県大野城市川久保2-4-18",
      "lat": 33.550373,
      "lng": 130.488722,
      "geocoding_level": null,
      "phone": "",
      "license_no": "",
      "license_date": null,
      "expire_date": null
    },
    {
      "name": "ダイソー　大野城川久保店",
      "name_kana": "ダイソー　オオノジョウカワクボテン",
      "business_type": "⑬ その他の食料・飲料販売業",
      "address": "福岡県大野城市川久保２丁目５－１",
      "lat": 33.550578,
      "lng": 130.489458,
      "geocoding_level": null,
      "phone": "",
      "license_no": "",
      "license_date": null,
      "expire_date": null
    },
    {
      "name": "ヤクルト大野城センター",
      "name_kana": "ヤクルトオオノジョウセンター",
      "business_type": "⑬ その他の食料・飲料販売業",
      "address": "福岡県大野城市牛頸4-12-15",
      "lat": 33.502226,
      "lng": 130.470787,
      "geocoding_level": null,
      "phone": "0925968960",
      "license_no": "",
      "license_date": null,
      "expire_date": null
    },
    {
      "name": "ヤクルト雑餉隈センター",
      "name_kana": "ヤクルトザッショノクマセンター",
      "business_type": "⑬ その他の食料・飲料販売業",
      "address": "福岡県大野城市仲畑4-5-7",
      "lat": 33.552415,
      "lng": 130.470031,
      "geocoding_level": null,
      "phone": "0925918960",
      "license_no": "",
      "license_date": null,
      "expire_date": null
    },
    {
      "name": "株式会社樋口製袋第一工場",
      "name_kana": "カブシキガイシャヒグチセイタイダイイチコウジョウ",
      "business_type": "㉗ 器具、容器包装の製造・加工業（合成樹脂が使用された器具又は容器包装の製造、加工に限る。）",
      "address": "福岡県大野城市山田2-15-28",
      "lat": 33.544916,
      "lng": 130.472645,
      "geocoding_level": null,
      "phone": "",
      "license_no": "",
      "license_date": null,
      "expire_date": null
    },
    {
      "name": "株式会社樋口製袋第二工場",
      "name_kana": "カブシキガイシャヒグチセイタイダイニコウジョウ",
      "business_type": "㉗ 器具、容器包装の製造・加工業（合成樹脂が使用された器具又は容器包装の製造、加工に限る。）",
      "address": "福岡県大野城市山田2-1-1",
      "lat": 33.545915,
      "lng": 130.470612,
      "geocoding_level": null,
      "phone": "",
      "license_no": "",
      "license_date": null,
      "expire_date": null
    },
    {
      "name": "FIT EASY 大野城",
      "name_kana": "フィットイージーオオノジョウ",
      "business_type": "⑫ 自動販売機による販売業（コップ式自動販売機（自動洗浄・屋内設置）及び営業許可の対象となる自動販売機を除く）",
      "address": "福岡県大野城市瓦田3丁目13-10 ステータスMⅡ2階",
      "lat": 33.531875,
      "lng": 130.485028,
      "geocoding_level": null,
      "phone": "",
      "license_no": "",
      "license_date": null,
      "expire_date": null
    },
    {
      "name": "有限会社グリーンズ協和",
      "name_kana": "ユウゲンガイシャグリーンズキョウワ",
      "business_type": "⑦ 野菜果物販売業",
      "address": "福岡県大野城市筒井４丁目ー6 ダイレックス大野城店内青果部",
      "lat": 33.543173,
      "lng": 130.479159,
      "geocoding_level": null,
      "phone": "",
      "license_no": "",
      "license_date": null,
      "expire_date": null
    },
    {
      "name": "かっぱ寿司　大野城店/丼ぶり専門 清水港 バンノウ水産 大野城店",
      "name_kana": "カッパズシ　オオノジョウテン　ドンブリセンモン　シミズコウ　バンノウスイサン　オオノジョウテン",
      "business_type": "① 飲食店営業",
      "address": "福岡県大野城市錦町3-3-47",
      "lat": 33.538779,
      "lng": 130.476587,
      "geocoding_level": null,
      "phone": "092-589-0670",
      "license_no": "6筑保第11号-5289",
      "license_date": "2025-03-14",
      "expire_date": "2032-03-31"
    },
    {
      "name": "かっぱ寿司　大野城店/丼ぶり専門 清水港 バンノウ水産 大野城店",
      "name_kana": "カッパズシ　オオノジョウテン　ドンブリセンモン　シミズコウ　バンノウスイサン　オオノジョウテン",
      "business_type": "⑪ 菓子製造業",
      "address": "福岡県大野城市錦町3-3-47",
      "lat": 33.538779,
      "lng": 130.476587,
      "geocoding_level": null,
      "phone": "092-589-0670",
      "license_no": "4筑保第20号-383",
      "license_date": "2023-03-16",
      "expire_date": "2030-03-31"
    },
    {
      "name": "かっぱ寿司　大野城店",
      "name_kana": "カッパズシ　オオノジョウテン",
      "business_type": "⑬ その他の食料・飲料販売業",
      "address": "福岡県大野城市錦町3-3-47",
      "lat": 33.538779,
      "lng": 130.476587,
      "geocoding_level": null,
      "phone": "092-589-0670",
      "license_no": "",
      "license_date": null,
      "expire_date": null
    },
    {
      "name": "マックスバリュ　下大利店",
      "name_kana": "マックスバリュ　シモオオリテン",
      "business_type": "⑫ 自動販売機による販売業（コップ式自動販売機（自動洗浄・屋内設置）及び営業許可の対象となる自動販売機を除く）",
      "address": "福岡県大野城市下大利１丁目２１－８",
      "lat": 33.52045,
      "lng": 130.48553,
      "geocoding_level": null,
      "phone": "",
      "license_no": "",
      "license_date": null,
      "expire_date": null
    },
    {
      "name": "レガネット牛頸",
      "name_kana": "レガネットウシクビ",
      "business_type": "⑫ 自動販売機による販売業（コップ式自動販売機（自動洗浄・屋内設置）及び営業許可の対象となる自動販売機を除く）",
      "address": "福岡県大野城市若草3-1-1",
      "lat": 33.508731,
      "lng": 130.468589,
      "geocoding_level": null,
      "phone": "",
      "license_no": "",
      "license_date": null,
      "expire_date": null
    },
    {
      "name": "マルキョウ川久保店",
      "name_kana": "マルキョウカワクボテン",
      "business_type": "⑪ 百貨店、総合スーパー",
      "address": "福岡県大野城市川久保1丁目1-15",
      "lat": 33.549515,
      "lng": 130.483692,
      "geocoding_level": null,
      "phone": "0925037340",
      "license_no": "",
      "license_date": null,
      "expire_date": null
    },
    {
      "name": "マルキョウ南大利店",
      "name_kana": "マルキョウミナミオオリテン",
      "business_type": "⑪ 百貨店、総合スーパー",
      "address": "福岡県大野城市南大利2丁目3-7",
      "lat": 33.511082,
      "lng": 130.480623,
      "geocoding_level": null,
      "phone": "0925897511",
      "license_no": "",
      "license_date": null,
      "expire_date": null
    },
    {
      "name": "マルキョウ本部",
      "name_kana": "マルキョウホンブ",
      "business_type": "⑬ その他の食料・飲料販売業",
      "address": "福岡県大野城市山田5丁目3番1号",
      "lat": 33.546622,
      "lng": 130.477926,
      "geocoding_level": null,
      "phone": "092-501-5221",
      "license_no": "",
      "license_date": null,
      "expire_date": null
    },
    {
      "name": "ネッツトヨタ福岡株式会社太宰府インター店店内Ｆ",
      "name_kana": "ネッツトヨタフクオカカブシキガイシャダザイフインターテンテンナイ",
      "business_type": "⑤ コップ式自動販売機（自動洗浄・屋内設置）",
      "address": "福岡県大野城市東大利3-8-11",
      "lat": 33.517809,
      "lng": 130.484552,
      "geocoding_level": null,
      "phone": "092-501-9811",
      "license_no": "",
      "license_date": null,
      "expire_date": null
    },
    {
      "name": "ウエスト生そばうどん御笠川店",
      "name_kana": "ウエストキソバウドンミカサガワテン",
      "business_type": "① 飲食店営業",
      "address": "福岡県大野城市御笠川1-6-1",
      "lat": 33.551975,
      "lng": 130.477528,
      "geocoding_level": null,
      "phone": "092-984-8801",
      "license_no": "7筑保第80号－108",
      "license_date": "2025-09-04",
      "expire_date": "2033-03-31"
    },
    {
      "name": "A-プライス大野城店",
      "name_kana": "エープライスオオノジョウテン",
      "business_type": "⑪ 百貨店、総合スーパー",
      "address": "福岡県大野城市御笠川2-9-18",
      "lat": 33.541169,
      "lng": 130.483473,
      "geocoding_level": null,
      "phone": "092-587-0411",
      "license_no": "",
      "license_date": null,
      "expire_date": null
    },
    {
      "name": "ミスターマックス大野城店",
      "name_kana": "ミスターマックスオオノジョウテン",
      "business_type": "⑦ 野菜果物販売業",
      "address": "福岡県大野城市瓦田5丁目3番地1号",
      "lat": 33.537068,
      "lng": 130.479795,
      "geocoding_level": null,
      "phone": "",
      "license_no": "",
      "license_date": null,
      "expire_date": null
    },
    {
      "name": "中村学園事業部21530",
      "name_kana": "ナカムラガクエンジギョウブニイチゴサンゼロ",
      "business_type": "① 飲食店営業",
      "address": "福岡県大野城市大字中822-22",
      "lat": 33.555268,
      "lng": 130.485999,
      "geocoding_level": null,
      "phone": "092-503-8471",
      "license_no": "6筑保第11号-5266",
      "license_date": "2025-03-14",
      "expire_date": "2032-03-31"
    },
    {
      "name": "業務スーパー大野城曙町店",
      "name_kana": "ギョウムスーパーオオノジョウアケボノマチテン",
      "business_type": "⑪ 百貨店、総合スーパー",
      "address": "福岡県大野城市曙町3丁目1-5　業務スーパー大野城曙町店",
      "lat": 33.532696,
      "lng": 130.478921,
      "geocoding_level": null,
      "phone": "0925887020",
      "license_no": "",
      "license_date": null,
      "expire_date": null
    },
    {
      "name": "札幌ラ・ネージュ（期間2024年5月30日～6月10日）",
      "name_kana": "サッポロラ・ネージュ",
      "business_type": "⑬ その他の食料・飲料販売業",
      "address": "福岡県大野城市錦町4丁目1-1 イオン大野城ショッピングセンター",
      "lat": 33.537919,
      "lng": 130.475579,
      "geocoding_level": null,
      "phone": "092-572-2100",
      "license_no": "",
      "license_date": null,
      "expire_date": null
    },
    {
      "name": "とめ手羽　白木原店",
      "name_kana": "トメテバ　シラキバルテン",
      "business_type": "① 飲食店営業",
      "address": "福岡県大野城市白木原1-7-5 Jクリスタルビル1F　102号室",
      "lat": 33.528666,
      "lng": 130.481998,
      "geocoding_level": null,
      "phone": "092-558-9388",
      "license_no": "７筑保第８０号—５３６３",
      "license_date": "2026-03-13",
      "expire_date": "2034-03-31"
    },
    {
      "name": "レガネット牛頸",
      "name_kana": "レガネットウシクビ",
      "business_type": "⑪ 百貨店、総合スーパー",
      "address": "福岡県大野城市若草3-1-1",
      "lat": 33.508751,
      "lng": 130.468657,
      "geocoding_level": null,
      "phone": "092-596-5200",
      "license_no": "",
      "license_date": null,
      "expire_date": null
    },
    {
      "name": "レガネットマルシェ下大利駅",
      "name_kana": "レガネットマルシェシモオオリエキ",
      "business_type": "① 飲食店営業",
      "address": "福岡県大野城市下大利一丁目10-5",
      "lat": 33.521909,
      "lng": 130.48977,
      "geocoding_level": null,
      "phone": "092-586-8525",
      "license_no": "4筑保第20号158号",
      "license_date": "2022-09-07",
      "expire_date": "2029-03-31"
    },
    {
      "name": "レガネットマルシェ下大利駅",
      "name_kana": "レガネットマルシェシモオオリエキ",
      "business_type": "⑪ 百貨店、総合スーパー",
      "address": "福岡県大野城市下大利一丁目10-5",
      "lat": 33.521909,
      "lng": 130.48977,
      "geocoding_level": null,
      "phone": "092-586-8525",
      "license_no": "",
      "license_date": null,
      "expire_date": null
    },
    {
      "name": "レガネットマルシェ下大利駅",
      "name_kana": "レガネットマルシェシモオオリエキ",
      "business_type": "㉕ そうざい製造業",
      "address": "福岡県大野城市下大利1丁目10-5",
      "lat": 33.521909,
      "lng": 130.48977,
      "geocoding_level": null,
      "phone": "092-586-8525",
      "license_no": "７筑保第８０号ー３２０",
      "license_date": "2026-03-31",
      "expire_date": "2032-03-31"
    },
    {
      "name": "ガスト 太宰府インター店",
      "name_kana": "ガストダザイフインターテン",
      "business_type": "① 飲食店営業",
      "address": "福岡県大野城市瓦田４丁目１５－３４",
      "lat": 33.53204,
      "lng": 130.48564,
      "geocoding_level": null,
      "phone": "092-583-1086",
      "license_no": "7筑保第80号－5330",
      "license_date": "2026-03-13",
      "expire_date": "2033-03-31"
    },
    {
      "name": "ガスト 太宰府インター店",
      "name_kana": "ガストダザイフインターテン",
      "business_type": "⑬ その他の食料・飲料販売業",
      "address": "福岡県大野城市瓦田４丁目１５－３４",
      "lat": 33.532025,
      "lng": 130.485641,
      "geocoding_level": null,
      "phone": "092-583-1086",
      "license_no": "",
      "license_date": null,
      "expire_date": null
    },
    {
      "name": "大津留青果",
      "name_kana": "オオツルセイカ",
      "business_type": "⑦ 野菜果物販売業",
      "address": "福岡県大野城市川久保3丁目8-5",
      "lat": 33.547515,
      "lng": 130.489756,
      "geocoding_level": null,
      "phone": "0925130277",
      "license_no": "",
      "license_date": null,
      "expire_date": null
    },
    {
      "name": "サニー白木原",
      "name_kana": "サニーシラキバル",
      "business_type": "⑪ 百貨店、総合スーパー",
      "address": "福岡県大野城市白木原1丁目7番5号",
      "lat": 33.528666,
      "lng": 130.481998,
      "geocoding_level": null,
      "phone": "092-589-3200",
      "license_no": "",
      "license_date": null,
      "expire_date": null
    },
    {
      "name": "サニー白木原",
      "name_kana": "サニーシラキバル",
      "business_type": "① 飲食店営業",
      "address": "福岡県大野城市白木原1-7-5 サニー白木原店内",
      "lat": 33.528666,
      "lng": 130.481998,
      "geocoding_level": null,
      "phone": "092-589-3200",
      "license_no": "5筑保第3号-5241",
      "license_date": "2024-03-15",
      "expire_date": "2031-03-31"
    },
    {
      "name": "大野城市立筒井保育所",
      "name_kana": "オオノジョウシリツツツイホイクジョ",
      "business_type": "① 飲食店営業",
      "address": "福岡県大野城市筒井5丁目15番18号",
      "lat": 33.537259,
      "lng": 130.481925,
      "geocoding_level": null,
      "phone": "",
      "license_no": "7筑保第80号‐333",
      "license_date": "2026-04-01",
      "expire_date": "2033-03-31"
    },
    {
      "name": "諸国うまいもの祭",
      "name_kana": "ショコクウマイモノマツリ",
      "business_type": "⑬ その他の食料・飲料販売業",
      "address": "福岡県大野城市中央2-14-3",
      "lat": 33.523957,
      "lng": 130.48741,
      "geocoding_level": null,
      "phone": "090-1334-6078",
      "license_no": "",
      "license_date": null,
      "expire_date": null
    },
    {
      "name": "ドラッグイレブン大野城若草店",
      "name_kana": "ドラッグイレブンオオノジョウワカクサテン",
      "business_type": "⑪ 百貨店、総合スーパー",
      "address": "福岡県大野城市若草4丁目4番16号",
      "lat": 33.508837,
      "lng": 130.470908,
      "geocoding_level": null,
      "phone": "092-583-9200",
      "license_no": "",
      "license_date": null,
      "expire_date": null
    },
    {
      "name": "ドラッグイレブン白木原店",
      "name_kana": "ドラッグイレブンシラキバルテン",
      "business_type": "⑪ 百貨店、総合スーパー",
      "address": "福岡県大野城市白木原5丁目4－42",
      "lat": 33.530937,
      "lng": 130.486763,
      "geocoding_level": null,
      "phone": "092-915-1131",
      "license_no": "",
      "license_date": null,
      "expire_date": null
    },
    {
      "name": "ドラッグイレブン上大利店",
      "name_kana": "ドラッグイレブンカミオオリテン",
      "business_type": "⑪ 百貨店、総合スーパー",
      "address": "福岡県大野城市上大利５丁目３番１２号",
      "lat": 33.514969,
      "lng": 130.481244,
      "geocoding_level": null,
      "phone": "",
      "license_no": "",
      "license_date": null,
      "expire_date": null
    },
    {
      "name": "ドラッグイレブン大野城川久保店",
      "name_kana": "ドラッグイレブンオオノジョウカワクボテン",
      "business_type": "⑪ 百貨店、総合スーパー",
      "address": "福岡県大野城市川久保１丁目２番１号",
      "lat": 33.54893,
      "lng": 130.483971,
      "geocoding_level": null,
      "phone": "",
      "license_no": "",
      "license_date": null,
      "expire_date": null
    },
    {
      "name": "ドラッグイレブン御笠川店",
      "name_kana": "ドラッグイレブンミカサガワテン",
      "business_type": "⑪ 百貨店、総合スーパー",
      "address": "福岡県大野城市御笠川2丁目2番2号",
      "lat": 33.54506,
      "lng": 130.482362,
      "geocoding_level": null,
      "phone": "092-404-1511",
      "license_no": "",
      "license_date": null,
      "expire_date": null
    },
    {
      "name": "ＴＲＩＡＬ ＧＯ  大野城まどかぴあ前店",
      "name_kana": "トライアル　ゴー  オオノジョウマドカピアマエテン",
      "business_type": "⑪ 菓子製造業",
      "address": "福岡県大野城市瓦田五丁目11-30",
      "lat": 33.536132,
      "lng": 130.480312,
      "geocoding_level": null,
      "phone": "092-404-0717",
      "license_no": "0570391",
      "license_date": "2022-01-19",
      "expire_date": "2028-06-30"
    },
    {
      "name": "ＴＲＩＡＬ ＧＯ  大野城まどかぴあ前店",
      "name_kana": "トライアル ゴー オオノジョウマドカピアマエテン",
      "business_type": "⑪ 百貨店、総合スーパー",
      "address": "福岡県大野城市瓦田五丁目11-30",
      "lat": 33.536132,
      "lng": 130.480312,
      "geocoding_level": null,
      "phone": "092-404-0717",
      "license_no": "",
      "license_date": null,
      "expire_date": null
    },
    {
      "name": "国産モリンガ専門店ライフパピヨン　ミラクルグリーン株式会社",
      "name_kana": "コクサンモリンガセンモンテンライフパピヨン　ミラクルグリーンカブシキカイシャ",
      "business_type": "⑮ いわゆる健康食品の製造・加工業",
      "address": "福岡県大野城市つつじケ丘3-2-20",
      "lat": 33.495352,
      "lng": 130.482042,
      "geocoding_level": null,
      "phone": "",
      "license_no": "",
      "license_date": null,
      "expire_date": null
    },
    {
      "name": "ケンタッキーフライドチキン大野城若草店",
      "name_kana": "ケンタッキーフライドチキンオオノジョウワカクサテン",
      "business_type": "① 飲食店営業",
      "address": "福岡県大野城市若草3丁目6－1",
      "lat": 33.508056,
      "lng": 130.470888,
      "geocoding_level": null,
      "phone": "",
      "license_no": "7筑保第80号－3",
      "license_date": "2025-05-16",
      "expire_date": "2033-03-31"
    },
    {
      "name": "株式会社フジサニーフーズ　九州支社",
      "name_kana": "カブシキガイシャフジサニーフーズキュウシュウシシャ",
      "business_type": "⑬ その他の食料・飲料販売業",
      "address": "福岡県大野城市御笠川5丁目4番8号",
      "lat": 33.544519,
      "lng": 130.484766,
      "geocoding_level": null,
      "phone": "0925031215",
      "license_no": "",
      "license_date": null,
      "expire_date": null
    },
    {
      "name": "シャトレーゼ大野城店",
      "name_kana": "シャトレーゼオオノジョウテン",
      "business_type": "⑬ その他の食料・飲料販売業",
      "address": "福岡県大野城市東大利3-1-5",
      "lat": 33.518933,
      "lng": 130.485661,
      "geocoding_level": null,
      "phone": "0925718888",
      "license_no": "",
      "license_date": null,
      "expire_date": null
    },
    {
      "name": "サンリアン春日原ブランシエラ",
      "name_kana": "サンリアンカスガバルブランシエラ",
      "business_type": "⑤ コップ式自動販売機（自動洗浄・屋内設置）",
      "address": "福岡県大野城市錦町3-18-3",
      "lat": 33.538445,
      "lng": 130.477409,
      "geocoding_level": null,
      "phone": "",
      "license_no": "",
      "license_date": null,
      "expire_date": null
    },
    {
      "name": "ロイヤルホスト南バイパス店",
      "name_kana": "ロイヤルホストミナミバイパステン",
      "business_type": "⑬ その他の食料・飲料販売業",
      "address": "福岡県大野城市御笠川4-6-1",
      "lat": 33.550697,
      "lng": 130.479707,
      "geocoding_level": null,
      "phone": "092-504-0281",
      "license_no": "",
      "license_date": null,
      "expire_date": null
    },
    {
      "name": "ココカラファイン白木原駅店",
      "name_kana": "ココカラファインシラキバルエキテン",
      "business_type": "⑪ 百貨店、総合スーパー",
      "address": "福岡県大野城市白木原1丁目6番6号",
      "lat": 33.528555,
      "lng": 130.48279,
      "geocoding_level": null,
      "phone": "092-558-5706",
      "license_no": "",
      "license_date": null,
      "expire_date": null
    },
    {
      "name": "ココカラファイン白木原駅店",
      "name_kana": "ココカラファインシラキバルエキテン",
      "business_type": "⑪ 百貨店、総合スーパー",
      "address": "福岡県大野城市白木原1丁目6番6号",
      "lat": 33.528555,
      "lng": 130.48279,
      "geocoding_level": null,
      "phone": "092-558-5706",
      "license_no": "",
      "license_date": null,
      "expire_date": null
    },
    {
      "name": "秦病院",
      "name_kana": "ハタビョウイン",
      "business_type": "① 飲食店営業",
      "address": "福岡県大野城市筒井１丁目３－１",
      "lat": 33.540779,
      "lng": 130.474346,
      "geocoding_level": null,
      "phone": "092-588-6326",
      "license_no": "5筑保第3号-299",
      "license_date": "2023-12-27",
      "expire_date": "2031-03-31"
    },
    {
      "name": "株式会社　吉村　九州営業所",
      "name_kana": "カブシキカイシャヨシムラ　キュウシュウエイギョウショ",
      "business_type": "㉔ その他の食料品製造・加工業",
      "address": "福岡県大野城市仲畑4-26-15",
      "lat": 33.548733,
      "lng": 130.471769,
      "geocoding_level": null,
      "phone": "092-582-6511",
      "license_no": "",
      "license_date": null,
      "expire_date": null
    },
    {
      "name": "如水庵イオン大野城店",
      "name_kana": "ジョスイアンイオンオオノジョウテン",
      "business_type": "⑬ その他の食料・飲料販売業",
      "address": "福岡県大野城市錦町4-1-1 イオン大野城1階",
      "lat": 33.537919,
      "lng": 130.475579,
      "geocoding_level": null,
      "phone": "0925860052",
      "license_no": "",
      "license_date": null,
      "expire_date": null
    },
    {
      "name": "福岡自治研修センター　レストラン四王寺の森",
      "name_kana": "フクオカジチケンシュウセンター　レストランシオウジノモリ",
      "business_type": "① 飲食店営業",
      "address": "福岡県大野城市大字乙金８番地１",
      "lat": 33.538173,
      "lng": 130.502322,
      "geocoding_level": null,
      "phone": "",
      "license_no": "4筑保第20号-444",
      "license_date": "2023-04-10",
      "expire_date": "2031-03-31"
    },
    {
      "name": "ふくや（移動スーパー）",
      "name_kana": "フクヤ",
      "business_type": "⑬ その他の食料・飲料販売業",
      "address": "福岡県大野城市白木原３丁目５番２５号",
      "lat": 33.530422,
      "lng": 130.483016,
      "geocoding_level": null,
      "phone": "092-292-8346",
      "license_no": "",
      "license_date": null,
      "expire_date": null
    },
    {
      "name": "イオン大野城店",
      "name_kana": "イオンオオノジョウテン",
      "business_type": "⑪ 百貨店、総合スーパー",
      "address": "福岡県大野城市錦町４－１－１",
      "lat": 33.537816,
      "lng": 130.476216,
      "geocoding_level": null,
      "phone": "",
      "license_no": "",
      "license_date": null,
      "expire_date": null
    },
    {
      "name": "マックスバリュ御笠川店",
      "name_kana": "マックスバリュミカサガワテン",
      "business_type": "⑪ 百貨店、総合スーパー",
      "address": "福岡県大野城市御笠川4丁目13-26",
      "lat": 33.547185,
      "lng": 130.48373,
      "geocoding_level": null,
      "phone": "092-513-0850",
      "license_no": "",
      "license_date": null,
      "expire_date": null
    },
    {
      "name": "イオン乙金店",
      "name_kana": "イオンオトガナテン",
      "business_type": "⑪ 百貨店、総合スーパー",
      "address": "福岡県大野城市乙金3丁目24番1号",
      "lat": 33.543441,
      "lng": 130.497571,
      "geocoding_level": null,
      "phone": "",
      "license_no": "",
      "license_date": null,
      "expire_date": null
    },
    {
      "name": "マックスバリュ下大利店",
      "name_kana": "マックスバリュシモオオリテン",
      "business_type": "⑪ 百貨店、総合スーパー",
      "address": "福岡県大野城市下大利1-21-8",
      "lat": 33.52045,
      "lng": 130.48553,
      "geocoding_level": null,
      "phone": "0925867955",
      "license_no": "",
      "license_date": null,
      "expire_date": null
    },
    {
      "name": "hit大野城住宅展示場",
      "name_kana": "ヒットオオノジョウジュウタクテンジジョウ",
      "business_type": "⑥ 弁当販売業",
      "address": "福岡県大野城市南大利1丁目1番地1号 4月29日のみ臨時販売",
      "lat": 33.512133,
      "lng": 130.474977,
      "geocoding_level": null,
      "phone": "092-589-1564",
      "license_no": "",
      "license_date": null,
      "expire_date": null
    },
    {
      "name": "株式会社ミスターマックス大野城店",
      "name_kana": "カブシキガイシャミスターマックスオオノジョウテン",
      "business_type": "⑪ 百貨店、総合スーパー",
      "address": "福岡県大野城市瓦田5-3-1",
      "lat": 33.537146,
      "lng": 130.479928,
      "geocoding_level": null,
      "phone": "092-591-1800",
      "license_no": "",
      "license_date": null,
      "expire_date": null
    },
    {
      "name": "クック・チャム南ヶ丘店",
      "name_kana": "クック・チャムミナミガオカテン",
      "business_type": "① 飲食店営業",
      "address": "福岡県大野城市旭ケ丘2-2-16",
      "lat": 33.50977,
      "lng": 130.481406,
      "geocoding_level": null,
      "phone": "0925951999",
      "license_no": "７筑保第８０号ー５２５５",
      "license_date": "2026-04-01",
      "expire_date": "2034-03-31"
    },
    {
      "name": "ＴｅａＷａｙイオン大野城店",
      "name_kana": "ティーウェイイオンオオノジョウテン",
      "business_type": "① 飲食店営業",
      "address": "福岡県大野城市錦町4丁目1-1 イオン大野城ショッピングセンター1F",
      "lat": 33.537919,
      "lng": 130.475579,
      "geocoding_level": null,
      "phone": "092-558-0678",
      "license_no": "8筑保第80号－3",
      "license_date": "2026-05-01",
      "expire_date": "2034-03-31"
    },
    {
      "name": "株式会社平野屋物産",
      "name_kana": "カブシキガイシャヒラノヤブッサン",
      "business_type": "㉗ 器具、容器包装の製造・加工業（合成樹脂が使用された器具又は容器包装の製造、加工に限る。）",
      "address": "福岡県大野城市瓦田4-14-7",
      "lat": 33.532589,
      "lng": 130.485323,
      "geocoding_level": null,
      "phone": "",
      "license_no": "",
      "license_date": null,
      "expire_date": null
    },
    {
      "name": "株式会社 平井印刷",
      "name_kana": "カブシキガイシャ ヒライインサツ",
      "business_type": "㉗ 器具、容器包装の製造・加工業（合成樹脂が使用された器具又は容器包装の製造、加工に限る。）",
      "address": "福岡県大野城市御笠川１－１０－２",
      "lat": 33.549697,
      "lng": 130.478483,
      "geocoding_level": null,
      "phone": "092-503-6248",
      "license_no": "",
      "license_date": null,
      "expire_date": null
    },
    {
      "name": "有限会社染原化工",
      "name_kana": "ユウゲンガイシャソメハラカコウ",
      "business_type": "㉗ 器具、容器包装の製造・加工業（合成樹脂が使用された器具又は容器包装の製造、加工に限る。）",
      "address": "福岡県大野城市仲畑１丁目２４番２５号",
      "lat": 33.56139,
      "lng": 130.465258,
      "geocoding_level": null,
      "phone": "",
      "license_no": "",
      "license_date": null,
      "expire_date": null
    },
    {
      "name": "ＨＯＷ筑紫南ヶ丘病院売店",
      "name_kana": "ハウチクシミナミガオカビョウインバイテン",
      "business_type": "⑩ コンビニエンスストア",
      "address": "福岡県大野城市牛頸１０３４－５",
      "lat": 33.506999,
      "lng": 130.475555,
      "geocoding_level": null,
      "phone": "092-558-2630",
      "license_no": "",
      "license_date": null,
      "expire_date": null
    },
    {
      "name": "土下座餃子 南ヶ丘店",
      "name_kana": "ドゲザギョウザミナミガオカテン",
      "business_type": "⑫ 自動販売機による販売業（コップ式自動販売機（自動洗浄・屋内設置）及び営業許可の対象となる自動販売機を除く）",
      "address": "福岡県大野城市南ケ丘1-2-5 タニガワビルD号室",
      "lat": 33.507481,
      "lng": 130.481825,
      "geocoding_level": null,
      "phone": "05035571533",
      "license_no": "",
      "license_date": null,
      "expire_date": null
    },
    {
      "name": "和信貿易株式会社",
      "name_kana": "ワシンボウエキカブシキカイシャ",
      "business_type": "⑬ その他の食料・飲料販売業",
      "address": "福岡県大野城市御笠川四丁目11-19 オフィスパレア御笠川Ⅵ⁻3号",
      "lat": 33.548061,
      "lng": 130.483155,
      "geocoding_level": null,
      "phone": "0925581116",
      "license_no": "",
      "license_date": null,
      "expire_date": null
    },
    {
      "name": "大野城まどかぴあ",
      "name_kana": "オオノジョウマドカピア",
      "business_type": "⑬ その他の食料・飲料販売業",
      "address": "福岡県大野城市曙町2丁目3-1",
      "lat": 33.535554,
      "lng": 130.480075,
      "geocoding_level": null,
      "phone": "092-586-4000",
      "license_no": "",
      "license_date": null,
      "expire_date": null
    },
    {
      "name": "サイゼリヤ　イオン大野城SC店",
      "name_kana": "サイゼリヤ　イオンオオノジョウエスシーテン",
      "business_type": "① 飲食店営業",
      "address": "福岡県大野城市錦町4-1-1 ｲｵﾝ大野城ｼｮｯﾋﾟﾝｸﾞｾﾝﾀｰ1F",
      "lat": 33.537919,
      "lng": 130.475579,
      "geocoding_level": null,
      "phone": "092-588-6330",
      "license_no": "7筑保第80号－5288",
      "license_date": "2026-03-13",
      "expire_date": "2033-03-31"
    },
    {
      "name": "サイゼリヤ　イオン大野城SC店",
      "name_kana": "サイゼリヤ　イオンオオノジョウエスシーテン",
      "business_type": "⑬ その他の食料・飲料販売業",
      "address": "福岡県大野城市錦町4-1-1 ｲｵﾝ大野城ｼｮｯﾋﾟﾝｸﾞｾﾝﾀｰ1F",
      "lat": 33.537919,
      "lng": 130.475579,
      "geocoding_level": null,
      "phone": "092-588-6330",
      "license_no": "",
      "license_date": null,
      "expire_date": null
    },
    {
      "name": "渡邉商店",
      "name_kana": "ワタナベショウテン",
      "business_type": "⑦ 野菜果物販売業",
      "address": "福岡県大野城市中一丁目10-5",
      "lat": 33.553401,
      "lng": 130.481207,
      "geocoding_level": null,
      "phone": "09031990854",
      "license_no": "",
      "license_date": null,
      "expire_date": null
    },
    {
      "name": "おおり保育園",
      "name_kana": "オオリホイクエン",
      "business_type": "㉖ 集団給食施設",
      "address": "福岡県大野城市上大利4丁目1番41号",
      "lat": 33.516449,
      "lng": 130.48234,
      "geocoding_level": null,
      "phone": "092-558-7640",
      "license_no": "",
      "license_date": null,
      "expire_date": null
    },
    {
      "name": "平野保育園",
      "name_kana": "ヒラノホイクエン",
      "business_type": "㉖ 集団給食施設",
      "address": "福岡県大野城市牛頸７－７－２０",
      "lat": 33.500564,
      "lng": 130.473654,
      "geocoding_level": null,
      "phone": "0925966200",
      "license_no": "",
      "license_date": null,
      "expire_date": null
    },
    {
      "name": "くすのき保育園",
      "name_kana": "クスノキホイクエン",
      "business_type": "㉖ 集団給食施設",
      "address": "福岡県大野城市上大利２－１７－５ 第2筑水ビル",
      "lat": 33.518144,
      "lng": 130.482638,
      "geocoding_level": null,
      "phone": "0925589555",
      "license_no": "",
      "license_date": null,
      "expire_date": null
    },
    {
      "name": "みずほ保育所",
      "name_kana": "ミズホホイクショ",
      "business_type": "㉖ 集団給食施設",
      "address": "福岡県大野城市瓦田1-6-17",
      "lat": 33.531447,
      "lng": 130.479338,
      "geocoding_level": null,
      "phone": "0925815904",
      "license_no": "",
      "license_date": null,
      "expire_date": null
    },
    {
      "name": "月の浦保育園",
      "name_kana": "ツキノウラホイクエン",
      "business_type": "㉖ 集団給食施設",
      "address": "福岡県大野城市月の浦4-1-8",
      "lat": 33.497971,
      "lng": 130.461061,
      "geocoding_level": null,
      "phone": "",
      "license_no": "",
      "license_date": null,
      "expire_date": null
    },
    {
      "name": "ドラッグコスモス南ヶ丘店",
      "name_kana": "ドラッグコスモスミナミガオカテン",
      "business_type": "⑪ 百貨店、総合スーパー",
      "address": "福岡県大野城市南大利２丁目９－１０",
      "lat": 33.509313,
      "lng": 130.480861,
      "geocoding_level": null,
      "phone": "092-589-2300",
      "license_no": "",
      "license_date": null,
      "expire_date": null
    },
    {
      "name": "ドラッグコスモス御笠川店",
      "name_kana": "ドラッグコスモスミカサガワテン",
      "business_type": "⑪ 百貨店、総合スーパー",
      "address": "福岡県大野城市御笠川４丁目11番10号",
      "lat": 33.548958,
      "lng": 130.483087,
      "geocoding_level": null,
      "phone": "092-513-9577",
      "license_no": "",
      "license_date": null,
      "expire_date": null
    },
    {
      "name": "ドラッグコスモス下大利店",
      "name_kana": "ドラッグコスモスシモオオリテン",
      "business_type": "⑪ 百貨店、総合スーパー",
      "address": "福岡県大野城市東大利二丁目５番７号",
      "lat": 33.520255,
      "lng": 130.481783,
      "geocoding_level": null,
      "phone": "092-581-1080",
      "license_no": "",
      "license_date": null,
      "expire_date": null
    },
    {
      "name": "ドラッグコスモス乙金店",
      "name_kana": "ドラッグコスモスオトガナテン",
      "business_type": "⑪ 百貨店、総合スーパー",
      "address": "福岡県大野城市乙金21番80号28街区11号",
      "lat": 33.54524,
      "lng": 130.493633,
      "geocoding_level": null,
      "phone": "092-513-9015",
      "license_no": "",
      "license_date": null,
      "expire_date": null
    },
    {
      "name": "株式会社クロワッサン",
      "name_kana": "クロワッサン",
      "business_type": "⑬ その他の食料・飲料販売業",
      "address": "福岡県大野城市下大利1-6-29",
      "lat": 33.521549,
      "lng": 130.486734,
      "geocoding_level": null,
      "phone": "0925840755",
      "license_no": "",
      "license_date": null,
      "expire_date": null
    },
    {
      "name": "ドラッグコスモス仲畑店",
      "name_kana": "ドラッグコスモスナカハタテン",
      "business_type": "⑪ 百貨店、総合スーパー",
      "address": "福岡県大野城市仲畑4丁目27-18",
      "lat": 33.548537,
      "lng": 130.470651,
      "geocoding_level": null,
      "phone": "092-573-1100",
      "license_no": "",
      "license_date": null,
      "expire_date": null
    },
    {
      "name": "松屋・松のや　大野城横峰店",
      "name_kana": "マツヤ・マツノヤ　オオノジョウヨコミネテン",
      "business_type": "① 飲食店営業",
      "address": "福岡県大野城市横峰２丁目３−９",
      "lat": 33.505929,
      "lng": 130.474848,
      "geocoding_level": null,
      "phone": "090-1860-5743",
      "license_no": "6筑保第11号-150",
      "license_date": "2024-10-08",
      "expire_date": "2032-03-31"
    },
    {
      "name": "福留ハム株式会社　福岡支店",
      "name_kana": "フクトメハムカブシキカイシャ　フクオカシテン",
      "business_type": "② 食肉販売業（包装済みの食肉のみの販売）",
      "address": "福岡県大野城市中2-2-31",
      "lat": 33.550723,
      "lng": 130.482272,
      "geocoding_level": null,
      "phone": "092-513-9590",
      "license_no": "",
      "license_date": null,
      "expire_date": null
    },
    {
      "name": "はまゆうワークセンター大野城",
      "name_kana": "ハマユウワークセンターオオノジョウ",
      "business_type": "② 食肉販売業（包装済みの食肉のみの販売）",
      "address": "福岡県大野城市大城5-28-3",
      "lat": 33.533927,
      "lng": 130.501465,
      "geocoding_level": null,
      "phone": "0925130337",
      "license_no": "",
      "license_date": null,
      "expire_date": null
    },
    {
      "name": "はまゆうワークセンター大野城",
      "name_kana": "ハマユウワークセンターオオノジョウ",
      "business_type": "㉖ 集団給食施設",
      "address": "福岡県大野城市大城5-28-3",
      "lat": 33.533927,
      "lng": 130.501465,
      "geocoding_level": null,
      "phone": "092-513-0337",
      "license_no": "",
      "license_date": null,
      "expire_date": null
    },
    {
      "name": "さわやか憩いの家大野城中央",
      "name_kana": "サワヤカイコイノイエオオノジョウチュウオウ",
      "business_type": "㉖ 集団給食施設",
      "address": "福岡県大野城市中央2丁目5-19",
      "lat": 33.522865,
      "lng": 130.48406,
      "geocoding_level": null,
      "phone": "092-501-0322",
      "license_no": "",
      "license_date": null,
      "expire_date": null
    },
    {
      "name": "リズム保育園",
      "name_kana": "リズムホイクエン",
      "business_type": "㉖ 集団給食施設",
      "address": "福岡県大野城市中央1丁目8番1号",
      "lat": 33.525299,
      "lng": 130.483573,
      "geocoding_level": null,
      "phone": "0925726455",
      "license_no": "",
      "license_date": null,
      "expire_date": null
    },
    {
      "name": "餃子工場もぐりん",
      "name_kana": "ギョウザコウジョウモグリン",
      "business_type": "⑬ その他の食料・飲料販売業",
      "address": "福岡県大野城市中2丁目4-15",
      "lat": 33.550582,
      "lng": 130.483911,
      "geocoding_level": null,
      "phone": "07084205766",
      "license_no": "",
      "license_date": null,
      "expire_date": null
    },
    {
      "name": "福太郎キッチンカー",
      "name_kana": "フクタロウキッチンカー",
      "business_type": "① 飲食店営業",
      "address": "福岡県大野城市白木原3丁目5-5番25号",
      "lat": 33.530646,
      "lng": 130.483199,
      "geocoding_level": null,
      "phone": "08074264853",
      "license_no": "03筑保第0570137号",
      "license_date": "2021-06-24",
      "expire_date": "2026-06-30"
    },
    {
      "name": "0H4095福岡",
      "name_kana": "ゼロエイチヨンゼロキュウゴウフクオカ",
      "business_type": "① 飲食店営業",
      "address": "福岡県大野城市乙金3-18-10",
      "lat": 33.542019,
      "lng": 130.49708,
      "geocoding_level": null,
      "phone": "092-558-3789",
      "license_no": "4筑保第20号-436",
      "license_date": "2023-04-03",
      "expire_date": "2031-03-31"
    },
    {
      "name": "白木フェスティ原",
      "name_kana": "シラキフェスティバル",
      "business_type": "⑬ その他の食料・飲料販売業",
      "address": "福岡県大野城市白木原1丁目6-1",
      "lat": 33.52811,
      "lng": 130.48323,
      "geocoding_level": null,
      "phone": "",
      "license_no": "",
      "license_date": null,
      "expire_date": null
    },
    {
      "name": "イレイト工房",
      "name_kana": "イレイトコウボウ",
      "business_type": "⑬ その他の食料・飲料販売業",
      "address": "福岡県大野城市曙町2丁目3-2",
      "lat": 33.534862,
      "lng": 130.479914,
      "geocoding_level": null,
      "phone": "092-572-7700",
      "license_no": "",
      "license_date": null,
      "expire_date": null
    },
    {
      "name": "イレイト工房",
      "name_kana": "イレイトコウボウ",
      "business_type": "⑬ その他の食料・飲料販売業",
      "address": "福岡県大野城市白木原3-5-25",
      "lat": 33.530439,
      "lng": 130.483047,
      "geocoding_level": null,
      "phone": "",
      "license_no": "",
      "license_date": null,
      "expire_date": null
    },
    {
      "name": "ピザクック大野城店",
      "name_kana": "ピザクックオオノジョウテン",
      "business_type": "① 飲食店営業",
      "address": "福岡県大野城市若草3-5-6 グランピア若草A　1F",
      "lat": 33.508383,
      "lng": 130.470572,
      "geocoding_level": null,
      "phone": "092-595-8020",
      "license_no": "4筑保第20号-5337",
      "license_date": "2023-03-17",
      "expire_date": "2030-03-31"
    },
    {
      "name": "ピザクック大野城若草店",
      "name_kana": "ピザクックオオノジョウテン",
      "business_type": "① 飲食店営業",
      "address": "福岡県大野城市若草3-5-6 グランピア若草A　1F",
      "lat": 33.508356,
      "lng": 130.470608,
      "geocoding_level": null,
      "phone": "092-595-8020",
      "license_no": "4筑保第20号-5337",
      "license_date": "2023-03-17",
      "expire_date": "2030-03-31"
    },
    {
      "name": "イオン乙金店",
      "name_kana": "イオンオトガナテン",
      "business_type": "㉕ 行商",
      "address": "福岡県大野城市乙金３丁目２４番１号",
      "lat": 33.543441,
      "lng": 130.497571,
      "geocoding_level": null,
      "phone": "092-513-0150",
      "license_no": "",
      "license_date": null,
      "expire_date": null
    },
    {
      "name": "ピザクック　桜並木店",
      "name_kana": "ピザクック　サクラナミキテン",
      "business_type": "① 飲食店営業",
      "address": "福岡県大野城市山田2-13-38",
      "lat": 33.544275,
      "lng": 130.471423,
      "geocoding_level": null,
      "phone": "092-915-8080",
      "license_no": "７筑保第８０号ー５３５９",
      "license_date": "2026-04-01",
      "expire_date": "2032-03-31"
    },
    {
      "name": "ピザクック　桜並木店",
      "name_kana": "ピザクック　サクラナミキテン",
      "business_type": "⑬ その他の食料・飲料販売業",
      "address": "福岡県大野城市山田2-13-38",
      "lat": 33.544275,
      "lng": 130.471423,
      "geocoding_level": null,
      "phone": "",
      "license_no": "",
      "license_date": null,
      "expire_date": null
    },
    {
      "name": "業餃業南ヶ丘店",
      "name_kana": "ギョウギョウギョウミナミガオカテン",
      "business_type": "⑬ その他の食料・飲料販売業",
      "address": "福岡県大野城市南ケ丘１丁目２－１ ウィングビル藤武１F",
      "lat": 33.507199,
      "lng": 130.481755,
      "geocoding_level": null,
      "phone": "06-4307-5688",
      "license_no": "",
      "license_date": null,
      "expire_date": null
    },
    {
      "name": "西日本新聞森永宅配センター博多",
      "name_kana": "ニシニッポンシンブンモリナガタクハイセンター",
      "business_type": "③ 乳類販売業",
      "address": "福岡県大野城市東大利3-3-12",
      "lat": 33.518657,
      "lng": 130.484365,
      "geocoding_level": null,
      "phone": "",
      "license_no": "",
      "license_date": null,
      "expire_date": null
    },
    {
      "name": "カフェ鶴田",
      "name_kana": "カフェツルタ",
      "business_type": "㉔ その他の食料品製造・加工業",
      "address": "福岡県大野城市上大利5-9-5",
      "lat": 33.515416,
      "lng": 130.480173,
      "geocoding_level": null,
      "phone": "",
      "license_no": "",
      "license_date": null,
      "expire_date": null
    },
    {
      "name": "フルーティッシモ",
      "name_kana": "フルーティッシモ",
      "business_type": "㉕ 行商",
      "address": "福岡県大野城市白木原3−5−25",
      "lat": 33.530439,
      "lng": 130.483047,
      "geocoding_level": null,
      "phone": "",
      "license_no": "",
      "license_date": null,
      "expire_date": null
    },
    {
      "name": "芋屋さるきち",
      "name_kana": "イモヤサルキチ",
      "business_type": "⑬ その他の食料・飲料販売業",
      "address": "福岡県大野城市牛頸481-1 中央公園",
      "lat": 33.470512,
      "lng": 130.48236,
      "geocoding_level": null,
      "phone": "",
      "license_no": "",
      "license_date": null,
      "expire_date": null
    },
    {
      "name": "大野城いこいの森中央公園",
      "name_kana": "オオノジョウイコイノモリチュウオウコウエン",
      "business_type": "⑬ その他の食料・飲料販売業",
      "address": "福岡県大野城市牛頸481-1 中央公園",
      "lat": 33.470512,
      "lng": 130.48236,
      "geocoding_level": null,
      "phone": "092-595-2300",
      "license_no": "",
      "license_date": null,
      "expire_date": null
    },
    {
      "name": "大野城いこい森中央公園",
      "name_kana": "オオノジョウイコイノモリチュウオウコウエン",
      "business_type": "⑬ その他の食料・飲料販売業",
      "address": "福岡県大野城市大字牛頸481-1 大野城いこい森中央公園管理事務所",
      "lat": 33.484743,
      "lng": 130.475331,
      "geocoding_level": null,
      "phone": "092-595-2300",
      "license_no": "",
      "license_date": null,
      "expire_date": null
    },
    {
      "name": "酒のマルタマ",
      "name_kana": "サケノマルタマ",
      "business_type": "⑬ その他の食料・飲料販売業",
      "address": "福岡県大野城市牛頸4-3-15",
      "lat": 33.504353,
      "lng": 130.470031,
      "geocoding_level": null,
      "phone": "0925967626",
      "license_no": "",
      "license_date": null,
      "expire_date": null
    },
    {
      "name": "南阿蘇むすひ",
      "name_kana": "ミナミアソムスヒ",
      "business_type": "① 飲食店営業",
      "address": "福岡県大野城市大野城市白木原３－５－２５",
      "lat": 33.530538,
      "lng": 130.483251,
      "geocoding_level": null,
      "phone": "",
      "license_no": "5筑保第3号-344",
      "license_date": "2024-02-08",
      "expire_date": "2029-03-31"
    },
    {
      "name": "葡萄の蔵",
      "name_kana": "ブドウノクラ",
      "business_type": "⑬ その他の食料・飲料販売業",
      "address": "福岡県大野城市白木原4-9-15",
      "lat": 33.527491,
      "lng": 130.485024,
      "geocoding_level": null,
      "phone": "070-5411-7120",
      "license_no": "",
      "license_date": null,
      "expire_date": null
    },
    {
      "name": "西極孝博",
      "name_kana": "サイゴクタカヒロ",
      "business_type": "⑮ いわゆる健康食品の製造・加工業",
      "address": "福岡県大野城市東大利2-6-37",
      "lat": 33.522243,
      "lng": 130.48952,
      "geocoding_level": null,
      "phone": "",
      "license_no": "",
      "license_date": null,
      "expire_date": null
    },
    {
      "name": "ウエルシアプラス大野城若草店",
      "name_kana": "ウエルプラスオオノジョウワカクサテン",
      "business_type": "⑪ 百貨店、総合スーパー",
      "address": "福岡県大野城市牛頸4丁目12-22",
      "lat": 33.502756,
      "lng": 130.470677,
      "geocoding_level": null,
      "phone": "092-558-9303",
      "license_no": "",
      "license_date": null,
      "expire_date": null
    },
    {
      "name": "ウエルシアプラス大野城中央店",
      "name_kana": "ウエルシアプラストモオカテン",
      "business_type": "⑪ 百貨店、総合スーパー",
      "address": "福岡県大野城市中央2丁目4番3号",
      "lat": 33.522616,
      "lng": 130.48318,
      "geocoding_level": null,
      "phone": "092-404-4824",
      "license_no": "",
      "license_date": null,
      "expire_date": null
    },
    {
      "name": "森永宅配センター大野城店",
      "name_kana": "モリナガタクハイセンターオオノジョウテン",
      "business_type": "③ 乳類販売業",
      "address": "福岡県大野城市大野城市白木原2-18-1",
      "lat": 33.526154,
      "lng": 130.481863,
      "geocoding_level": null,
      "phone": "07056938166",
      "license_no": "",
      "license_date": null,
      "expire_date": null
    },
    {
      "name": "ぷるるんまん",
      "name_kana": "プルルンマン",
      "business_type": "⑦ 野菜果物販売業",
      "address": "福岡県大野城市曙町2-3-1",
      "lat": 33.535554,
      "lng": 130.480075,
      "geocoding_level": null,
      "phone": "",
      "license_no": "",
      "license_date": null,
      "expire_date": null
    },
    {
      "name": "御菓子司　しょうふく",
      "name_kana": "オカシツカサ　ショウフク",
      "business_type": "⑬ その他の食料・飲料販売業",
      "address": "福岡県大野城市若草3丁目1-1 にしてつストアレガネット牛頸",
      "lat": 33.508732,
      "lng": 130.468589,
      "geocoding_level": null,
      "phone": "0925965200",
      "license_no": "",
      "license_date": null,
      "expire_date": null
    },
    {
      "name": "御菓子司　しょうふく",
      "name_kana": "オカシツカサ　ショウフク",
      "business_type": "⑬ その他の食料・飲料販売業",
      "address": "福岡県大野城市若草6-11 エフコープ大野城店",
      "lat": 33.52049,
      "lng": 130.493767,
      "geocoding_level": null,
      "phone": "0925967254",
      "license_no": "",
      "license_date": null,
      "expire_date": null
    },
    {
      "name": "ウエルシアイオン乙金店",
      "name_kana": "ウエルシアイオンオトガナテン",
      "business_type": "⑪ 百貨店、総合スーパー",
      "address": "福岡県大野城市乙金三丁目24番1号",
      "lat": 33.543441,
      "lng": 130.497571,
      "geocoding_level": null,
      "phone": "092-514-1133",
      "license_no": "",
      "license_date": null,
      "expire_date": null
    },
    {
      "name": "焚間珈琲",
      "name_kana": "タクマコーヒー",
      "business_type": "⑯ コーヒー製造・加工業（飲料の製造を除く。）",
      "address": "福岡県大野城市瑞穂町4丁目7－2 ルーベンスローザⅡ　101号",
      "lat": 33.531837,
      "lng": 130.478204,
      "geocoding_level": null,
      "phone": "090450105660",
      "license_no": "",
      "license_date": null,
      "expire_date": null
    },
    {
      "name": "SMILEMARCHE（ミードット）",
      "name_kana": "スマイルマルシェミードット",
      "business_type": "㉙ その他",
      "address": "福岡県大野城市若草4丁目3-19",
      "lat": 33.509068,
      "lng": 130.470137,
      "geocoding_level": null,
      "phone": "08017776429",
      "license_no": "",
      "license_date": null,
      "expire_date": null
    },
    {
      "name": "アミティエマルシェ（ミードット）",
      "name_kana": "アミティエマルシェミードット",
      "business_type": "㉙ その他",
      "address": "福岡県大野城市南大利1丁目1-1",
      "lat": 33.512118,
      "lng": 130.474963,
      "geocoding_level": null,
      "phone": "092-5588-8887",
      "license_no": "",
      "license_date": null,
      "expire_date": null
    },
    {
      "name": "岩田屋下大利サロン",
      "name_kana": "イワタヤシモオオリサロン",
      "business_type": "⑪ 百貨店、総合スーパー",
      "address": "福岡県大野城市下大利1丁目2-14",
      "lat": 33.520872,
      "lng": 130.485255,
      "geocoding_level": null,
      "phone": "",
      "license_no": "",
      "license_date": null,
      "expire_date": null
    },
    {
      "name": "花鳥風月",
      "name_kana": "カチョウフウゲツ",
      "business_type": "⑬ その他の食料・飲料販売業",
      "address": "福岡県大野城市大野城市若草3-1-1レガネット牛頸店内",
      "lat": 33.50879,
      "lng": 130.468732,
      "geocoding_level": null,
      "phone": "",
      "license_no": "",
      "license_date": null,
      "expire_date": null
    },
    {
      "name": "WABISABI COFFEE ROASTERS",
      "name_kana": "ワビサビ　コーヒー　ロースターズ",
      "business_type": "⑯ コーヒー製造・加工業（飲料の製造を除く。）",
      "address": "福岡県大野城市筒井4-14-22 フェバリットハウス202",
      "lat": 33.541303,
      "lng": 130.480918,
      "geocoding_level": null,
      "phone": "080-8386-5749",
      "license_no": "",
      "license_date": null,
      "expire_date": null
    },
    {
      "name": "イオン乙金ショッピングセンター",
      "name_kana": "イオンオトガナショッピングセンター",
      "business_type": "⑬ その他の食料・飲料販売業",
      "address": "福岡県大野城市乙金3-23-1",
      "lat": 33.545687,
      "lng": 130.496828,
      "geocoding_level": null,
      "phone": "",
      "license_no": "",
      "license_date": null,
      "expire_date": null
    },
    {
      "name": "グッデイ　大野城店",
      "name_kana": "グッデイ　オオノジョウテン",
      "business_type": "⑬ その他の食料・飲料販売業",
      "address": "福岡県大野城市御笠川6丁目8-1",
      "lat": 33.533749,
      "lng": 130.490278,
      "geocoding_level": null,
      "phone": "092-504-0141",
      "license_no": "",
      "license_date": null,
      "expire_date": null
    },
    {
      "name": "まろちゃんのやきいも",
      "name_kana": "マロチャンノヤキイモ",
      "business_type": "㉕ 行商",
      "address": "福岡県大野城市白木原３丁目５－５番２５号　県内一円（福岡市・北九州市・久留米市を除く）",
      "lat": 33.530547,
      "lng": 130.482976,
      "geocoding_level": null,
      "phone": "",
      "license_no": "",
      "license_date": null,
      "expire_date": null
    },
    {
      "name": "ＩＪＯＯＺ自動販売機　ミスターマックス 大野城店",
      "name_kana": "アイジュースジドウハンバイキ　ミスターマックス オオノジョウテン",
      "business_type": "② 調理機能を有する自動販売機（要許可）",
      "address": "福岡県大野城市瓦田５丁目３−１",
      "lat": 33.537146,
      "lng": 130.479928,
      "geocoding_level": null,
      "phone": "",
      "license_no": "7筑保第80号－259",
      "license_date": "2026-02-05",
      "expire_date": "2032-03-31"
    },
    {
      "name": "御笠川デンタルクリニック　ヒカリ",
      "name_kana": "ミカサガワデンタルクリニック　ヒカリ",
      "business_type": "① 魚介類販売業（包装済みの魚介類のみの販売）",
      "address": "福岡県大野城市御笠川2-15-2",
      "lat": 33.537746,
      "lng": 130.484696,
      "geocoding_level": null,
      "phone": "0925133315",
      "license_no": "",
      "license_date": null,
      "expire_date": null
    },
    {
      "name": "御笠川デンタルクリニック　ヒカリ",
      "name_kana": "ミカサガワデンタルクリニック　ヒカリ",
      "business_type": "② 食肉販売業（包装済みの食肉のみの販売）",
      "address": "福岡県大野城市御笠川2-15-2",
      "lat": 33.537746,
      "lng": 130.484696,
      "geocoding_level": null,
      "phone": "0925133315",
      "license_no": "",
      "license_date": null,
      "expire_date": null
    },
    {
      "name": "御笠川デンタルクリニック　ヒカリ",
      "name_kana": "ミカサガワデンタルクリニック　ヒカリ",
      "business_type": "③ 乳類販売業",
      "address": "福岡県大野城市御笠川2-15-2",
      "lat": 33.537746,
      "lng": 130.484696,
      "geocoding_level": null,
      "phone": "0925133315",
      "license_no": "",
      "license_date": null,
      "expire_date": null
    },
    {
      "name": "御笠川デンタルクリニック　ヒカリ",
      "name_kana": "ミカサガワデンタルクリニック　ヒカリ",
      "business_type": "⑦ 野菜果物販売業",
      "address": "福岡県大野城市御笠川2-15-2",
      "lat": 33.537746,
      "lng": 130.484696,
      "geocoding_level": null,
      "phone": "0925133315",
      "license_no": "",
      "license_date": null,
      "expire_date": null
    },
    {
      "name": "御笠川デンタルクリニック　ヒカリ",
      "name_kana": "ミカサガワデンタルクリニック　ヒカリ",
      "business_type": "⑧ 米穀類販売業",
      "address": "福岡県大野城市御笠川2-15-2",
      "lat": 33.537746,
      "lng": 130.484696,
      "geocoding_level": null,
      "phone": "0925133315",
      "license_no": "",
      "license_date": null,
      "expire_date": null
    },
    {
      "name": "御笠川デンタルクリニック　ヒカリ",
      "name_kana": "ミカサガワデンタルクリニック　ヒカリ",
      "business_type": "⑬ その他の食料・飲料販売業",
      "address": "福岡県大野城市御笠川2-15-2",
      "lat": 33.537746,
      "lng": 130.484696,
      "geocoding_level": null,
      "phone": "0925133315",
      "license_no": "",
      "license_date": null,
      "expire_date": null
    },
    {
      "name": "La Galette Fiesta",
      "name_kana": "ラ　ガレット　フィエスタ",
      "business_type": "① 飲食店営業",
      "address": "福岡県大野城市白木原3丁目5－5－25",
      "lat": 33.530547,
      "lng": 130.482976,
      "geocoding_level": null,
      "phone": "08032356414",
      "license_no": "５筑保第3号-229",
      "license_date": "2023-11-01",
      "expire_date": "2028-12-31"
    },
    {
      "name": "La Galette Fiesta",
      "name_kana": "ラ　ガレット　フィエスタ",
      "business_type": "⑬ その他の食料・飲料販売業",
      "address": "福岡県大野城市大野城市白木原3丁目5-5-25",
      "lat": 33.530547,
      "lng": 130.482976,
      "geocoding_level": null,
      "phone": "08032356414",
      "license_no": "",
      "license_date": null,
      "expire_date": null
    },
    {
      "name": "GOOD PURIN FACTORY",
      "name_kana": "グッド　プリン　ファクトリー",
      "business_type": "⑬ その他の食料・飲料販売業",
      "address": "福岡県大野城市福岡市内一円",
      "lat": 33.536964,
      "lng": 130.478597,
      "geocoding_level": null,
      "phone": "",
      "license_no": "",
      "license_date": null,
      "expire_date": null
    },
    {
      "name": "丸亀製麺大野城",
      "name_kana": "マルガメセイメンオオノジョウ",
      "business_type": "① 飲食店営業",
      "address": "福岡県大野城市白木原5-1-10",
      "lat": 33.531277,
      "lng": 130.485356,
      "geocoding_level": null,
      "phone": "092-593-4488",
      "license_no": "6筑保第11号-5213",
      "license_date": "2025-03-14",
      "expire_date": "2033-03-31"
    },
    {
      "name": "とんかつ浜勝大野城緑ヶ丘店",
      "name_kana": "トンカツハマカツオオノジョウミドリガオカテン",
      "business_type": "⑬ その他の食料・飲料販売業",
      "address": "福岡県大野城市緑ケ丘4-16-7",
      "lat": 33.500863,
      "lng": 130.486933,
      "geocoding_level": null,
      "phone": "092-589-2327",
      "license_no": "",
      "license_date": null,
      "expire_date": null
    },
    {
      "name": "ダイレックス大野城店",
      "name_kana": "ダイレックスオオノジョウテン",
      "business_type": "⑪ 百貨店、総合スーパー",
      "address": "福岡県大野城市筒井4丁目6-1",
      "lat": 33.543059,
      "lng": 130.479358,
      "geocoding_level": null,
      "phone": "092-588-1153",
      "license_no": "",
      "license_date": null,
      "expire_date": null
    },
    {
      "name": "菓匠将満",
      "name_kana": "カショウマサミツ",
      "business_type": "⑬ その他の食料・飲料販売業",
      "address": "福岡県大野城市錦町４丁目1-1 イオン大野城ショッピングセンター1階",
      "lat": 33.537816,
      "lng": 130.476216,
      "geocoding_level": null,
      "phone": "",
      "license_no": "",
      "license_date": null,
      "expire_date": null
    },
    {
      "name": "natural natural　イオン大野城店",
      "name_kana": "ナチュラルナチュラルイオンオオノジョウテン",
      "business_type": "⑪ 百貨店、総合スーパー",
      "address": "福岡県大野城市錦町4-1-1 イオン大野城１F",
      "lat": 33.537919,
      "lng": 130.475579,
      "geocoding_level": null,
      "phone": "092-404-2281",
      "license_no": "",
      "license_date": null,
      "expire_date": null
    },
    {
      "name": "しゃぐまる本舗",
      "name_kana": "シャグマルホンポ",
      "business_type": "⑬ その他の食料・飲料販売業",
      "address": "福岡県大野城市福岡県内一円",
      "lat": 33.536964,
      "lng": 130.478597,
      "geocoding_level": null,
      "phone": "",
      "license_no": "",
      "license_date": null,
      "expire_date": null
    },
    {
      "name": "パティスリーエビス",
      "name_kana": "パティスリーエビス",
      "business_type": "⑬ その他の食料・飲料販売業",
      "address": "福岡県大野城市錦町4-1-1 イオン大野城ショッピングセンター",
      "lat": 33.537919,
      "lng": 130.475579,
      "geocoding_level": null,
      "phone": "080-6951-0771",
      "license_no": "",
      "license_date": null,
      "expire_date": null
    },
    {
      "name": "大野城市大文字公園",
      "name_kana": "オオノジョウシダイモンジコウエン",
      "business_type": "㉘ 露店、仮設店舗等における飲食の提供のうち、営業とみなされないもの",
      "address": "福岡県大野城市瓦田4丁目1",
      "lat": 33.536385,
      "lng": 130.482741,
      "geocoding_level": null,
      "phone": "",
      "license_no": "",
      "license_date": null,
      "expire_date": null
    },
    {
      "name": "フィラーレ",
      "name_kana": "フィラーレ",
      "business_type": "① 飲食店営業",
      "address": "福岡県大野城市白木原1-4-14 ＨＯＥＩビル２階",
      "lat": 33.529076,
      "lng": 130.481575,
      "geocoding_level": null,
      "phone": "09073948703",
      "license_no": "6筑保第11号-190",
      "license_date": "2024-10-22",
      "expire_date": "2031-03-31"
    },
    {
      "name": "カレーパン専門店FAM",
      "name_kana": "カレーパンセンモンテンファム",
      "business_type": "⑬ その他の食料・飲料販売業",
      "address": "福岡県大野城市御笠川5-8-17 LIFESTUDIO（株）アーキテックス",
      "lat": 33.541407,
      "lng": 130.485465,
      "geocoding_level": null,
      "phone": "",
      "license_no": "",
      "license_date": null,
      "expire_date": null
    },
    {
      "name": "So What Coffee",
      "name_kana": "ソー　ワット　コーヒー",
      "business_type": "⑯ コーヒー製造・加工業（飲料の製造を除く。）",
      "address": "福岡県大野城市紫台25-17",
      "lat": 33.505287,
      "lng": 130.478249,
      "geocoding_level": null,
      "phone": "080-8575-7579",
      "license_no": "",
      "license_date": null,
      "expire_date": null
    },
    {
      "name": "トーホー工業株式会社　九州営業部（福岡）",
      "name_kana": "トーホーコウギョウ　キュウシュウ",
      "business_type": "㉗ 器具、容器包装の製造・加工業（合成樹脂が使用された器具又は容器包装の製造、加工に限る。）",
      "address": "福岡県大野城市御笠川5-11-11 オフィステリア3号室",
      "lat": 33.537849,
      "lng": 130.487532,
      "geocoding_level": null,
      "phone": "",
      "license_no": "",
      "license_date": null,
      "expire_date": null
    },
    {
      "name": "トコトコマーケット",
      "name_kana": "トコトコマーケット",
      "business_type": "⑬ その他の食料・飲料販売業",
      "address": "福岡県大野城市白木原3丁目5-25",
      "lat": 33.530538,
      "lng": 130.483251,
      "geocoding_level": null,
      "phone": "",
      "license_no": "",
      "license_date": null,
      "expire_date": null
    },
    {
      "name": "イオン大野城",
      "name_kana": "イオンオオノジョウ",
      "business_type": "㉔ その他の食料品製造・加工業",
      "address": "福岡県大野城市錦町4丁目1-1",
      "lat": 33.537919,
      "lng": 130.475579,
      "geocoding_level": null,
      "phone": "0925722100",
      "license_no": "",
      "license_date": null,
      "expire_date": null
    },
    {
      "name": "まるせん",
      "name_kana": "マルセン",
      "business_type": "⑦ 野菜果物販売業",
      "address": "福岡県大野城市下大利１丁目１３−８ 下大利駅前ビル１０５",
      "lat": 33.521531,
      "lng": 130.489313,
      "geocoding_level": null,
      "phone": "09094788939",
      "license_no": "",
      "license_date": null,
      "expire_date": null
    },
    {
      "name": "For.",
      "name_kana": "フォードット",
      "business_type": "⑯ コーヒー製造・加工業（飲料の製造を除く。）",
      "address": "福岡県大野城市月の浦5-8-7",
      "lat": 33.497819,
      "lng": 130.452519,
      "geocoding_level": null,
      "phone": "08015458297",
      "license_no": "",
      "license_date": null,
      "expire_date": null
    },
    {
      "name": "大野城まどかぴあ",
      "name_kana": "オオノジョウマドカピア",
      "business_type": "⑬ その他の食料・飲料販売業",
      "address": "福岡県大野城市曙町2丁目3-1",
      "lat": 33.535554,
      "lng": 130.480075,
      "geocoding_level": null,
      "phone": "092-586-4000",
      "license_no": "",
      "license_date": null,
      "expire_date": null
    }
  ]
}
