{
  "meta": {
    "updated": 1783568789,
    "sources": [
      {
        "source": "厚生労働省 食品衛生申請等システム（オープンデータ）",
        "license": "公共データ利用規約（第1.0版, PDL1.0）"
      }
    ]
  },
  "data": [
    {
      "name": "アスタラビスタ太刀洗店　清流物語",
      "name_kana": "アスタラビスタタチアライテン　セイリュウモノガタリ",
      "business_type": "⑫ 自動販売機による販売業（コップ式自動販売機（自動洗浄・屋内設置）及び営業許可の対象となる自動販売機を除く）",
      "address": "福岡県朝倉郡筑前町高田字下田2538-2",
      "lat": 33.419266,
      "lng": 130.632146,
      "geocoding_level": null,
      "phone": "",
      "license_no": "",
      "license_date": null,
      "expire_date": null
    },
    {
      "name": "マルキョウ朝倉店",
      "name_kana": "マルキョウアサクラテン",
      "business_type": "⑪ 百貨店、総合スーパー",
      "address": "福岡県朝倉郡筑前町依井399番地",
      "lat": 33.42967,
      "lng": 130.647019,
      "geocoding_level": null,
      "phone": "0946241911",
      "license_no": "",
      "license_date": null,
      "expire_date": null
    },
    {
      "name": "もろおか市場",
      "name_kana": "モロオカイチバ",
      "business_type": "⑦ 野菜果物販売業",
      "address": "福岡県朝倉郡筑前町中牟田888番地1",
      "lat": 33.465043,
      "lng": 130.575306,
      "geocoding_level": null,
      "phone": "",
      "license_no": "",
      "license_date": null,
      "expire_date": null
    },
    {
      "name": "師岡青果　ダイレックス夜須店",
      "name_kana": "モロオカセイカ　ダイレックスヤステン",
      "business_type": "⑦ 野菜果物販売業",
      "address": "福岡県朝倉郡筑前町篠隈338-1",
      "lat": 33.455385,
      "lng": 130.597517,
      "geocoding_level": null,
      "phone": "",
      "license_no": "",
      "license_date": null,
      "expire_date": null
    },
    {
      "name": "イーティーズ夜須店",
      "name_kana": "イーティーズヤステン",
      "business_type": "① 飲食店営業",
      "address": "福岡県朝倉郡筑前町篠隈338-1 ダイレックス夜須店内",
      "lat": 33.455385,
      "lng": 130.597517,
      "geocoding_level": null,
      "phone": "0946-42-2220",
      "license_no": "7北筑保第2401182号",
      "license_date": "2025-12-26",
      "expire_date": "2031-12-31"
    },
    {
      "name": "1320：400015：筑前梨ノ木城食品",
      "name_kana": "チクゼンナシノキジョウショクヒン",
      "business_type": "⑫ 自動販売機による販売業（コップ式自動販売機（自動洗浄・屋内設置）及び営業許可の対象となる自動販売機を除く）",
      "address": "福岡県朝倉郡筑前町弥永字梨ノ木城１７０９－１",
      "lat": 33.441879,
      "lng": 130.644714,
      "geocoding_level": null,
      "phone": "",
      "license_no": "",
      "license_date": null,
      "expire_date": null
    },
    {
      "name": "991：100010724：道の駅みなみの里（ＵＴ）",
      "name_kana": "ミチノエキミナミノサト",
      "business_type": "⑫ 自動販売機による販売業（コップ式自動販売機（自動洗浄・屋内設置）及び営業許可の対象となる自動販売機を除く）",
      "address": "福岡県朝倉郡筑前町三並８６６",
      "lat": 33.4673,
      "lng": 130.624951,
      "geocoding_level": null,
      "phone": "",
      "license_no": "",
      "license_date": null,
      "expire_date": null
    },
    {
      "name": "Ｉ-ＰＥＸ㈱太刀洗工場2Ｆ",
      "name_kana": "アイペックスカブシキガイシャタチアライコウジョウ",
      "business_type": "⑤ コップ式自動販売機（自動洗浄・屋内設置）",
      "address": "福岡県朝倉郡筑前町高田2455-1",
      "lat": 33.413318,
      "lng": 130.621436,
      "geocoding_level": null,
      "phone": "",
      "license_no": "",
      "license_date": null,
      "expire_date": null
    },
    {
      "name": "日清医療食品(株)　朝倉苑事業所",
      "name_kana": "アサクラエン",
      "business_type": "① 飲食店営業",
      "address": "福岡県朝倉郡筑前町原地蔵2226-3",
      "lat": 33.411335,
      "lng": 130.615717,
      "geocoding_level": null,
      "phone": "0946-22-2881",
      "license_no": "７北筑保第2400057号",
      "license_date": "2025-06-30",
      "expire_date": "2032-12-31"
    },
    {
      "name": "株式会社佐々木冷菓　福岡支店",
      "name_kana": "カブシキガイシャササキレイカ　フクオカシテン",
      "business_type": "① 魚介類販売業（包装済みの魚介類のみの販売）",
      "address": "福岡県朝倉郡筑前町安野45-1",
      "lat": 33.447523,
      "lng": 130.598898,
      "geocoding_level": null,
      "phone": "0946-42-8555",
      "license_no": "",
      "license_date": null,
      "expire_date": null
    },
    {
      "name": "株式会社佐々木冷菓　福岡支店",
      "name_kana": "カブシキガイシャササキレイカ　フクオカシテン",
      "business_type": "② 食肉販売業（包装済みの食肉のみの販売）",
      "address": "福岡県朝倉郡筑前町安野45-1",
      "lat": 33.447523,
      "lng": 130.598898,
      "geocoding_level": null,
      "phone": "0946-42-8555",
      "license_no": "",
      "license_date": null,
      "expire_date": null
    },
    {
      "name": "株式会社佐々木冷菓　福岡支店",
      "name_kana": "カブシキガイシャササキレイカ　フクオカシテン",
      "business_type": "⑬ その他の食料・飲料販売業",
      "address": "福岡県朝倉郡筑前町安野45-1",
      "lat": 33.447523,
      "lng": 130.598898,
      "geocoding_level": null,
      "phone": "0946-42-8555",
      "license_no": "",
      "license_date": null,
      "expire_date": null
    },
    {
      "name": "水本製袋工場",
      "name_kana": "ミズモトセイタイコウジョウ",
      "business_type": "㉗ 器具、容器包装の製造・加工業（合成樹脂が使用された器具又は容器包装の製造、加工に限る。）",
      "address": "福岡県朝倉郡筑前町安野90-4",
      "lat": 33.445428,
      "lng": 130.594651,
      "geocoding_level": null,
      "phone": "0946422311",
      "license_no": "",
      "license_date": null,
      "expire_date": null
    },
    {
      "name": "ドラッグコスモス大刀洗店",
      "name_kana": "ドラッグコスモスタチアライテン",
      "business_type": "⑪ 百貨店、総合スーパー",
      "address": "福岡県朝倉郡筑前町山隈1609番1",
      "lat": 33.411989,
      "lng": 130.610327,
      "geocoding_level": null,
      "phone": "0946-21-5066",
      "license_no": "",
      "license_date": null,
      "expire_date": null
    },
    {
      "name": "ドラッグコスモス夜須店",
      "name_kana": "ドラッグコスモスヤステン",
      "business_type": "⑪ 百貨店、総合スーパー",
      "address": "福岡県朝倉郡筑前町松延507",
      "lat": 33.461036,
      "lng": 130.584291,
      "geocoding_level": null,
      "phone": "0946-26-3025",
      "license_no": "",
      "license_date": null,
      "expire_date": null
    },
    {
      "name": "筑前町立夜須中学校　給食室",
      "name_kana": "チクゼンチョウリツヤスチュウガッコウ　キュウショクシツ",
      "business_type": "㉖ 集団給食施設",
      "address": "福岡県朝倉郡筑前町東小田3539番地1",
      "lat": 33.455962,
      "lng": 130.591317,
      "geocoding_level": null,
      "phone": "0946-42-4161",
      "license_no": "",
      "license_date": null,
      "expire_date": null
    },
    {
      "name": "ホームプラザナフコ　筑前店",
      "name_kana": "ホームプラザナフコ　チクゼンテン",
      "business_type": "⑬ その他の食料・飲料販売業",
      "address": "福岡県朝倉郡筑前町東小田１５１５－１",
      "lat": 33.454809,
      "lng": 130.588579,
      "geocoding_level": null,
      "phone": "0946-42-8121",
      "license_no": "",
      "license_date": null,
      "expire_date": null
    },
    {
      "name": "日本エコシステム株式会社",
      "name_kana": "ニホンエコシステムカブシキガイシャ",
      "business_type": "② 食肉販売業（包装済みの食肉のみの販売）",
      "address": "福岡県朝倉郡筑前町朝日239",
      "lat": 33.468111,
      "lng": 130.569874,
      "geocoding_level": null,
      "phone": "0946-42-8484",
      "license_no": "",
      "license_date": null,
      "expire_date": null
    },
    {
      "name": "くりんこ保育園",
      "name_kana": "クリンコホイクエン",
      "business_type": "⑬ その他の食料・飲料販売業",
      "address": "福岡県朝倉郡筑前町栗田1352-5",
      "lat": 33.44167,
      "lng": 130.624967,
      "geocoding_level": null,
      "phone": "0946-24-1635",
      "license_no": "",
      "license_date": null,
      "expire_date": null
    },
    {
      "name": "焼き菓子の旅ekUbo",
      "name_kana": "ヤキガシノタビエクボ",
      "business_type": "⑬ その他の食料・飲料販売業",
      "address": "福岡県朝倉郡筑前町三並1497",
      "lat": 33.468086,
      "lng": 130.621932,
      "geocoding_level": null,
      "phone": "",
      "license_no": "",
      "license_date": null,
      "expire_date": null
    },
    {
      "name": "焼き菓子の旅ekUbo",
      "name_kana": "ヤキガシノタビエクボ",
      "business_type": "㉙ その他",
      "address": "福岡県朝倉郡筑前町三並1497",
      "lat": 33.468086,
      "lng": 130.621932,
      "geocoding_level": null,
      "phone": "",
      "license_no": "",
      "license_date": null,
      "expire_date": null
    },
    {
      "name": "chokotto",
      "name_kana": "チョコット",
      "business_type": "⑰ 農産保存食料品製造・加工業",
      "address": "福岡県朝倉郡筑前町四三嶋1127-1",
      "lat": 33.432331,
      "lng": 130.590128,
      "geocoding_level": null,
      "phone": "",
      "license_no": "",
      "license_date": null,
      "expire_date": null
    },
    {
      "name": "ミツイモタイム朝倉店",
      "name_kana": "ミツイモタイムアサクラテン",
      "business_type": "⑬ その他の食料・飲料販売業",
      "address": "福岡県朝倉郡筑前町長者町474-1",
      "lat": 33.450649,
      "lng": 130.612033,
      "geocoding_level": null,
      "phone": "09052923448",
      "license_no": "",
      "license_date": null,
      "expire_date": null
    },
    {
      "name": "ミツイモタイム朝倉店",
      "name_kana": "ミツイモタイムアサクラテン",
      "business_type": "⑰ 農産保存食料品製造・加工業",
      "address": "福岡県朝倉郡筑前町長者町474-1",
      "lat": 33.450649,
      "lng": 130.612033,
      "geocoding_level": null,
      "phone": "09052923448",
      "license_no": "",
      "license_date": null,
      "expire_date": null
    },
    {
      "name": "ダイレックス夜須店",
      "name_kana": "ダイレックスヤステン",
      "business_type": "⑪ 百貨店、総合スーパー",
      "address": "福岡県朝倉郡筑前町篠隈３３８番１",
      "lat": 33.455385,
      "lng": 130.597517,
      "geocoding_level": null,
      "phone": "0946-42-8111",
      "license_no": "",
      "license_date": null,
      "expire_date": null
    },
    {
      "name": "AMASOU",
      "name_kana": "アマソウ",
      "business_type": "⑯ コーヒー製造・加工業（飲料の製造を除く。）",
      "address": "福岡県朝倉郡筑前町高田2501-3",
      "lat": 33.412994,
      "lng": 130.622905,
      "geocoding_level": null,
      "phone": "",
      "license_no": "",
      "license_date": null,
      "expire_date": null
    },
    {
      "name": "東洋コンサルタント株式会社",
      "name_kana": "トウヨウコンサルタント",
      "business_type": "⑧ 米穀類販売業",
      "address": "福岡県朝倉郡筑前町松延７９６番地３７",
      "lat": 33.467221,
      "lng": 130.586653,
      "geocoding_level": null,
      "phone": "",
      "license_no": "",
      "license_date": null,
      "expire_date": null
    },
    {
      "name": "manma",
      "name_kana": "マンマ",
      "business_type": "⑬ その他の食料・飲料販売業",
      "address": "福岡県朝倉郡筑前町久光951-1",
      "lat": 33.434343,
      "lng": 130.634678,
      "geocoding_level": null,
      "phone": "",
      "license_no": "",
      "license_date": null,
      "expire_date": null
    }
  ]
}
