{
  "meta": {
    "updated": 1783568789,
    "sources": [
      {
        "source": "厚生労働省 食品衛生申請等システム（オープンデータ）",
        "license": "公共データ利用規約（第1.0版, PDL1.0）"
      }
    ]
  },
  "data": [
    {
      "name": "アトリエロカル",
      "name_kana": "アトリエロカル",
      "business_type": "⑬ その他の食料・飲料販売業",
      "address": "北海道樺戸郡新十津川町字中央11-7",
      "lat": 43.552273,
      "lng": 141.865421,
      "geocoding_level": null,
      "phone": "",
      "license_no": "",
      "license_date": null,
      "expire_date": null
    },
    {
      "name": "アトリエロカル新十津川町役場店",
      "name_kana": "アトリエロカルシントツカワチョウヤクバテン",
      "business_type": "⑬ その他の食料・飲料販売業",
      "address": "北海道樺戸郡新十津川町字中央301-1",
      "lat": 43.548559,
      "lng": 141.876881,
      "geocoding_level": null,
      "phone": "0125745058",
      "license_no": "",
      "license_date": null,
      "expire_date": null
    },
    {
      "name": "アトリエトロカル",
      "name_kana": "アトリエトロカル",
      "business_type": "① 飲食店営業",
      "address": "北海道樺戸郡新十津川町中央7-11",
      "lat": 43.548524,
      "lng": 141.874899,
      "geocoding_level": null,
      "phone": "0125-74-6502",
      "license_no": "空滝生第9-36号",
      "license_date": "2024-06-12",
      "expire_date": "2030-09-28"
    },
    {
      "name": "アトリエトロカル",
      "name_kana": "アトリエトロカル",
      "business_type": "⑪ 菓子製造業",
      "address": "北海道樺戸郡新十津川町中央7-11",
      "lat": 43.548524,
      "lng": 141.874899,
      "geocoding_level": null,
      "phone": "0125-74-6502",
      "license_no": "空滝生第9-36号",
      "license_date": "2024-06-12",
      "expire_date": "2030-09-28"
    },
    {
      "name": "アトリエロカル",
      "name_kana": "アトリエロカル",
      "business_type": "① 飲食店営業",
      "address": "北海道樺戸郡新十津川町中央306-2",
      "lat": 43.548088,
      "lng": 141.875894,
      "geocoding_level": null,
      "phone": "0125-74-6502",
      "license_no": "空滝生第9-36号",
      "license_date": "2024-06-12",
      "expire_date": "2030-09-28"
    },
    {
      "name": "新十津川町総合健康福祉センター　ゆめりあ",
      "name_kana": "シントツカワチョウソウゴウケンコウフクシセンター　ユメリア",
      "business_type": "㉕ 行商",
      "address": "北海道樺戸郡新十津川町中央307‐１",
      "lat": 43.550389,
      "lng": 141.877428,
      "geocoding_level": null,
      "phone": "",
      "license_no": "",
      "license_date": null,
      "expire_date": null
    },
    {
      "name": "ハーブガーデン新十津川",
      "name_kana": "ハーブガーデンシントツカワ",
      "business_type": "① 飲食店営業",
      "address": "北海道樺戸郡新十津川町字中央515番地8",
      "lat": 43.544418,
      "lng": 141.875001,
      "geocoding_level": null,
      "phone": "0125-76-4461",
      "license_no": "7ｰ58",
      "license_date": "2022-06-21",
      "expire_date": "2028-09-28"
    },
    {
      "name": "特別養護老人ホームかおる園",
      "name_kana": "トクベツヨウゴロウジンホームカオルエン",
      "business_type": "① 飲食店営業",
      "address": "北海道樺戸郡新十津川町字花月201番地1",
      "lat": 43.499392,
      "lng": 141.859825,
      "geocoding_level": null,
      "phone": "0125-74-2766",
      "license_no": "7ｰ59",
      "license_date": "2022-06-21",
      "expire_date": "2028-09-28"
    },
    {
      "name": "田んぼのおやつ&Bakery",
      "name_kana": "タンボノオヤツアンドベーカリー",
      "business_type": "⑪ 菓子製造業",
      "address": "北海道樺戸郡新十津川町字弥生167番地5",
      "lat": 43.522861,
      "lng": 141.859398,
      "geocoding_level": null,
      "phone": "",
      "license_no": "7-115",
      "license_date": "2022-09-12",
      "expire_date": "2027-09-28"
    },
    {
      "name": "新十津川手打ちそば同好会夢創庵",
      "name_kana": "シントツカワテウチソバドウコウカイムソウアン",
      "business_type": "① 飲食店営業",
      "address": "北海道樺戸郡新十津川町中央7の31",
      "lat": 43.549473,
      "lng": 141.872303,
      "geocoding_level": null,
      "phone": "",
      "license_no": "2-22",
      "license_date": "2021-06-25",
      "expire_date": "2026-06-28"
    },
    {
      "name": "ハニービーズ　はちみつ工房",
      "name_kana": "ハニービーズ　ハチミツコウボウ",
      "business_type": "㉔ その他の食料品製造・加工業",
      "address": "北海道樺戸郡新十津川町中央12-60",
      "lat": 43.54528,
      "lng": 141.880961,
      "geocoding_level": null,
      "phone": "0125-74-5858",
      "license_no": "",
      "license_date": null,
      "expire_date": null
    },
    {
      "name": "有限会社札幌養蜂園",
      "name_kana": "ユウゲンガイシャサッポロヨウホウエン",
      "business_type": "㉚ 密封包装食品製造業",
      "address": "北海道樺戸郡新十津川町中央12-60",
      "lat": 43.545278,
      "lng": 141.881017,
      "geocoding_level": null,
      "phone": "0125-74-5858",
      "license_no": "空滝生第1-114号",
      "license_date": "2023-09-19",
      "expire_date": "2029-09-28"
    },
    {
      "name": "有限会社大畠精肉店",
      "name_kana": "ユウゲンガイシャオオハタセイニクテン",
      "business_type": "⑬ その他の食料・飲料販売業",
      "address": "北海道樺戸郡新十津川町中央70番地の29",
      "lat": 43.560538,
      "lng": 141.881226,
      "geocoding_level": null,
      "phone": "0125762929",
      "license_no": "",
      "license_date": null,
      "expire_date": null
    },
    {
      "name": "有限会社大畠精肉店食肉加工場",
      "name_kana": "ユウゲンガイシャオオハタセイニクテンショクニクカコウジョウ",
      "business_type": "③ 食肉販売業",
      "address": "北海道樺戸郡新十津川町中央115番地",
      "lat": 43.555004,
      "lng": 141.879301,
      "geocoding_level": null,
      "phone": "",
      "license_no": "2-148",
      "license_date": "2021-11-19",
      "expire_date": "2028-04-28"
    },
    {
      "name": "大畠精肉店",
      "name_kana": "オオハタセイニクテン",
      "business_type": "① 飲食店営業",
      "address": "北海道樺戸郡新十津川町吉野100-4",
      "lat": 43.596684,
      "lng": 141.731694,
      "geocoding_level": null,
      "phone": "",
      "license_no": "1-103",
      "license_date": "2023-08-21",
      "expire_date": "2028-09-28"
    },
    {
      "name": "有限会社大畠精肉店食肉加工場",
      "name_kana": "ユウゲンガイシャオオハタセイニクテンショクニクカコウジョウ",
      "business_type": "㉕ そうざい製造業",
      "address": "北海道樺戸郡新十津川町中央115番地",
      "lat": 43.555004,
      "lng": 141.879301,
      "geocoding_level": null,
      "phone": "",
      "license_no": "1-166",
      "license_date": "2023-12-12",
      "expire_date": "2030-04-28"
    },
    {
      "name": "有限会社大畠精肉店自動販売機",
      "name_kana": "ユウゲンガイシャオオハタセイニクテンジドウハンバイキ",
      "business_type": "⑫ 自動販売機による販売業（コップ式自動販売機（自動洗浄・屋内設置）及び営業許可の対象となる自動販売機を除く）",
      "address": "北海道樺戸郡新十津川町中央70番地の29",
      "lat": 43.560556,
      "lng": 141.881272,
      "geocoding_level": null,
      "phone": "0125762929",
      "license_no": "",
      "license_date": null,
      "expire_date": null
    },
    {
      "name": "Aコープピンネ新十津川店",
      "name_kana": "エーコープピンネシントツカワテン",
      "business_type": "③ 食肉販売業",
      "address": "北海道樺戸郡新十津川町中央6番地29",
      "lat": 43.548831,
      "lng": 141.875169,
      "geocoding_level": null,
      "phone": "0125-76-2226",
      "license_no": "2-88",
      "license_date": "2021-09-22",
      "expire_date": "2027-09-28"
    },
    {
      "name": "鮨お梅茶屋",
      "name_kana": "スシオウメチャヤ",
      "business_type": "① 飲食店営業",
      "address": "北海道樺戸郡新十津川町中央7-28",
      "lat": 43.548656,
      "lng": 141.874878,
      "geocoding_level": null,
      "phone": "",
      "license_no": "2-87",
      "license_date": "2021-09-22",
      "expire_date": "2027-09-28"
    },
    {
      "name": "お梅茶屋",
      "name_kana": "オウメチャヤ",
      "business_type": "㉕ 行商",
      "address": "北海道樺戸郡新十津川町中央",
      "lat": 43.555004,
      "lng": 141.879301,
      "geocoding_level": null,
      "phone": "",
      "license_no": "",
      "license_date": null,
      "expire_date": null
    },
    {
      "name": "Aコープピンネ新十津川店",
      "name_kana": "エーコープピンネシントツカワテン",
      "business_type": "④ 魚介類販売業",
      "address": "北海道樺戸郡新十津川町中央6番地29",
      "lat": 43.548831,
      "lng": 141.875169,
      "geocoding_level": null,
      "phone": "0125-76-2226",
      "license_no": "2-88",
      "license_date": "2021-09-22",
      "expire_date": "2027-09-28"
    },
    {
      "name": "Aコープピンネ新十津川店",
      "name_kana": "エーコープピンネシントツカワテン",
      "business_type": "① 飲食店営業",
      "address": "北海道樺戸郡新十津川町中央6番地29",
      "lat": 43.548831,
      "lng": 141.875169,
      "geocoding_level": null,
      "phone": "0125-76-2226",
      "license_no": "7-173",
      "license_date": "2022-12-16",
      "expire_date": "2029-04-28"
    },
    {
      "name": "Ａコープピンネ新十津川店",
      "name_kana": "エーコープピンネシントツカワテン",
      "business_type": "⑪ 百貨店、総合スーパー",
      "address": "北海道樺戸郡新十津川町字中央6-29",
      "lat": 43.548831,
      "lng": 141.875169,
      "geocoding_level": null,
      "phone": "0125-76-2226",
      "license_no": "",
      "license_date": null,
      "expire_date": null
    },
    {
      "name": "いしはら氷や",
      "name_kana": "イシハラコオリヤ",
      "business_type": "④ 氷雪販売業",
      "address": "北海道樺戸郡新十津川町中央83番地20",
      "lat": 43.557274,
      "lng": 141.87783,
      "geocoding_level": null,
      "phone": "",
      "license_no": "",
      "license_date": null,
      "expire_date": null
    },
    {
      "name": "ヴルストよしだ",
      "name_kana": "ヴルストヨシダ",
      "business_type": "⑫ 自動販売機による販売業（コップ式自動販売機（自動洗浄・屋内設置）及び営業許可の対象となる自動販売機を除く）",
      "address": "北海道樺戸郡新十津川町中央6-99",
      "lat": 43.54907,
      "lng": 141.875997,
      "geocoding_level": null,
      "phone": "",
      "license_no": "",
      "license_date": null,
      "expire_date": null
    },
    {
      "name": "ヴルストよしだキッチンカー",
      "name_kana": "ヴルストヨシダキッチンカー",
      "business_type": "① 飲食店営業",
      "address": "北海道樺戸郡新十津川町総進188",
      "lat": 43.53467,
      "lng": 141.8435,
      "geocoding_level": null,
      "phone": "",
      "license_no": "空滝生第9-55号",
      "license_date": "2024-07-09",
      "expire_date": "2029-09-28"
    },
    {
      "name": "ヴルストよしだ",
      "name_kana": "ヴルストヨシダ",
      "business_type": "① 飲食店営業",
      "address": "北海道樺戸郡新十津川町中央306-2",
      "lat": 43.550291,
      "lng": 141.876276,
      "geocoding_level": null,
      "phone": "",
      "license_no": "空滝生第1-126号",
      "license_date": "2025-09-22",
      "expire_date": "2031-04-28"
    },
    {
      "name": "空知中央病院",
      "name_kana": "ソラチチュウオウビョウイン",
      "business_type": "㉖ 集団給食施設",
      "address": "北海道樺戸郡新十津川町中央20-4",
      "lat": 43.544942,
      "lng": 141.875083,
      "geocoding_level": null,
      "phone": "0125-76-4111",
      "license_no": "",
      "license_date": null,
      "expire_date": null
    },
    {
      "name": "ジョブサポート　フレーバーカントリー",
      "name_kana": "ジョブサポート　フレーバーカントリー",
      "business_type": "㉖ 集団給食施設",
      "address": "北海道樺戸郡新十津川町字中央２７番地４",
      "lat": 43.54844,
      "lng": 141.865061,
      "geocoding_level": null,
      "phone": "0125-72-1130",
      "license_no": "",
      "license_date": null,
      "expire_date": null
    },
    {
      "name": "就労継続支援B型事業所ジョブサポートフレーバーカントリー",
      "name_kana": "シュウロウシエンビガタジムショジョブサポートフレーバーカントリー",
      "business_type": "⑮ 食肉製品製造業",
      "address": "北海道樺戸郡新十津川町字中央27番地4",
      "lat": 43.54844,
      "lng": 141.865061,
      "geocoding_level": null,
      "phone": "0125-72-1130",
      "license_no": "7-122",
      "license_date": "2022-09-22",
      "expire_date": "2029-04-28"
    },
    {
      "name": "就労継続支援B型事業所ジョブサポートフレーバーカントリー",
      "name_kana": "シュウロウシエンビガタジムショジョブサポートフレーバーカントリー",
      "business_type": "⑯ 水産製品製造業",
      "address": "北海道樺戸郡新十津川町字中央27番地4",
      "lat": 43.54844,
      "lng": 141.865061,
      "geocoding_level": null,
      "phone": "0125-72-1130",
      "license_no": "7-123",
      "license_date": "2022-09-22",
      "expire_date": "2029-04-28"
    },
    {
      "name": "就労継続支援B型事業所ジョブサポートフレーバーカントリー",
      "name_kana": "シュウロウケイゾクシエンビーガタジギョウショジョブサポートフレーバーカントリー",
      "business_type": "㉕ そうざい製造業",
      "address": "北海道樺戸郡新十津川町字中央27-4",
      "lat": 43.54844,
      "lng": 141.865061,
      "geocoding_level": null,
      "phone": "0125-72-1130",
      "license_no": "空滝生第1-173号",
      "license_date": "2025-11-25",
      "expire_date": "2032-04-28"
    },
    {
      "name": "学校法人  華園学園　新十津川保育園",
      "name_kana": "ガッコウホウジン  ハナゾノガクエン 　シントツカワホイクエン",
      "business_type": "㉖ 集団給食施設",
      "address": "北海道樺戸郡新十津川町字中央７２番地４８",
      "lat": 43.559284,
      "lng": 141.87677,
      "geocoding_level": null,
      "phone": "0125-76-2419",
      "license_no": "",
      "license_date": null,
      "expire_date": null
    },
    {
      "name": "有限会社三枝商店",
      "name_kana": "ユウゲンガイシャサイグサショウテン",
      "business_type": "① 飲食店営業",
      "address": "北海道樺戸郡新十津川町字中央309番地26",
      "lat": 43.547503,
      "lng": 141.879524,
      "geocoding_level": null,
      "phone": "0125-76-2630",
      "license_no": "2-154",
      "license_date": "2021-12-03",
      "expire_date": "2028-04-28"
    },
    {
      "name": "有限会社三枝商店",
      "name_kana": "ユウゲンガイシャサイグサショウテン",
      "business_type": "③ 食肉販売業",
      "address": "北海道樺戸郡新十津川町字中央309番地26",
      "lat": 43.547503,
      "lng": 141.879524,
      "geocoding_level": null,
      "phone": "0125-76-2630",
      "license_no": "2-154",
      "license_date": "2021-12-03",
      "expire_date": "2028-04-28"
    },
    {
      "name": "有限会社三枝商店",
      "name_kana": "ユウゲンガイシャサイグサショウテン",
      "business_type": "④ 魚介類販売業",
      "address": "北海道樺戸郡新十津川町字中央309番地26",
      "lat": 43.547503,
      "lng": 141.879524,
      "geocoding_level": null,
      "phone": "0125-76-2630",
      "license_no": "2-154",
      "license_date": "2021-12-03",
      "expire_date": "2028-04-28"
    },
    {
      "name": "有限会社三枝商店",
      "name_kana": "ユウゲンガイシャサイグサショウテン",
      "business_type": "⑪ 菓子製造業",
      "address": "北海道樺戸郡新十津川町字中央309番地26",
      "lat": 43.547503,
      "lng": 141.879524,
      "geocoding_level": null,
      "phone": "0125-76-2630",
      "license_no": "2-154",
      "license_date": "2021-12-03",
      "expire_date": "2028-04-28"
    },
    {
      "name": "長太農場",
      "name_kana": "ナガタノウジョウ",
      "business_type": "⑳ みそ又はしょうゆ製造業",
      "address": "北海道樺戸郡新十津川町字花月2-3",
      "lat": 43.516822,
      "lng": 141.871367,
      "geocoding_level": null,
      "phone": "",
      "license_no": "2-162",
      "license_date": "2021-12-07",
      "expire_date": "2028-04-28"
    },
    {
      "name": "長太農場",
      "name_kana": "ナガタノウジョウ",
      "business_type": "㉙ 漬物製造業",
      "address": "北海道樺戸郡新十津川町字花月2-3",
      "lat": 43.516822,
      "lng": 141.871367,
      "geocoding_level": null,
      "phone": "",
      "license_no": "2-162",
      "license_date": "2021-12-07",
      "expire_date": "2028-04-28"
    },
    {
      "name": "美緑の宿グリーンパークしんとつかわ（レストラン）",
      "name_kana": "ミリョクノヤドグリーンパークシントツカワレストラン",
      "business_type": "① 飲食店営業",
      "address": "北海道樺戸郡新十津川町総進189番地1",
      "lat": 43.531188,
      "lng": 141.844764,
      "geocoding_level": null,
      "phone": "0125-76-4000",
      "license_no": "2-176",
      "license_date": "2021-12-20",
      "expire_date": "2028-04-28"
    },
    {
      "name": "美緑の宿グリーンパークしんとつかわ（パントリー）",
      "name_kana": "ミリョクノヤドグリーンパークシントツカワパントリー",
      "business_type": "① 飲食店営業",
      "address": "北海道樺戸郡新十津川町字総進186番地1",
      "lat": 43.538082,
      "lng": 141.834859,
      "geocoding_level": null,
      "phone": "0125-76-4000",
      "license_no": "2-177",
      "license_date": "2021-12-20",
      "expire_date": "2028-04-28"
    },
    {
      "name": "グリーンバイツ",
      "name_kana": "グリーンバイツ",
      "business_type": "① 飲食店営業",
      "address": "北海道樺戸郡新十津川町総進 ふるさと公園内",
      "lat": 43.53712,
      "lng": 141.82032,
      "geocoding_level": null,
      "phone": "0125-76-4000",
      "license_no": "空滝生第9-23号",
      "license_date": "2024-04-30",
      "expire_date": "2029-09-28"
    },
    {
      "name": "株式会社新十津川総合振興公社 物産館",
      "name_kana": "カブシキガイシャシントツカワソウゴウシンコウコウシャ　ブッサンカン",
      "business_type": "⑬ その他の食料・飲料販売業",
      "address": "北海道樺戸郡新十津川町字中央５番地１",
      "lat": 43.550303,
      "lng": 141.87477,
      "geocoding_level": null,
      "phone": "0125763141",
      "license_no": "",
      "license_date": null,
      "expire_date": null
    },
    {
      "name": "サンヒルズ・サライ",
      "name_kana": "サンヒルズ・サライ",
      "business_type": "① 飲食店営業",
      "address": "北海道樺戸郡新十津川町総進188番地5",
      "lat": 43.534321,
      "lng": 141.844176,
      "geocoding_level": null,
      "phone": "0125-76-3000",
      "license_no": "2-234",
      "license_date": "2022-03-15",
      "expire_date": "2028-04-28"
    },
    {
      "name": "農林産物加工センター",
      "name_kana": "ノウリンサンブツカコウセンター",
      "business_type": "⑫ アイスクリーム類製造業",
      "address": "北海道樺戸郡新十津川町学園21番地3",
      "lat": 43.584498,
      "lng": 141.789497,
      "geocoding_level": null,
      "phone": "0125-73-2077",
      "license_no": "2-232",
      "license_date": "2022-03-15",
      "expire_date": "2028-04-28"
    },
    {
      "name": "レストランくじら",
      "name_kana": "レストランクジラ",
      "business_type": "① 飲食店営業",
      "address": "北海道樺戸郡新十津川町中央5番地1",
      "lat": 43.550303,
      "lng": 141.87477,
      "geocoding_level": null,
      "phone": "",
      "license_no": "7-61",
      "license_date": "2022-06-21",
      "expire_date": "2028-09-28"
    },
    {
      "name": "株式会社新十津川総合振興公社農林産物加工センター",
      "name_kana": "カブシキガイシャシントツカワソウゴウシンコウコウシャノウリンスイサンブツカコウセンター",
      "business_type": "⑭ 清涼飲料水製造業",
      "address": "北海道樺戸郡新十津川町字学園21-3",
      "lat": 43.584498,
      "lng": 141.789497,
      "geocoding_level": null,
      "phone": "0125-73-2077",
      "license_no": "空滝生第9-40号",
      "license_date": "2024-06-17",
      "expire_date": "2030-09-28"
    },
    {
      "name": "新十津川総合振興公社",
      "name_kana": "シントツカワソウゴウシンコウコウシャ",
      "business_type": "① 飲食店営業",
      "address": "北海道樺戸郡新十津川町字中央306",
      "lat": 43.548088,
      "lng": 141.875894,
      "geocoding_level": null,
      "phone": "",
      "license_no": "空滝生第9-98号",
      "license_date": "2024-09-18",
      "expire_date": "2029-09-28"
    },
    {
      "name": "ほおずき農産加工室",
      "name_kana": "ホオズキノウサンカコウシツ",
      "business_type": "⑪ 菓子製造業",
      "address": "北海道樺戸郡新十津川町中央13番26号 社会福祉法人明和会法人本部内",
      "lat": 43.546975,
      "lng": 141.878936,
      "geocoding_level": null,
      "phone": "0125-74-6032",
      "license_no": "２－２１２",
      "license_date": "2022-02-02",
      "expire_date": "2028-04-28"
    },
    {
      "name": "北海道新十津川農業高等学校",
      "name_kana": "ホッカイドウシントツカワノウギョウコウトウガッコウ",
      "business_type": "⑪ 菓子製造業",
      "address": "北海道樺戸郡新十津川町字中央13番地",
      "lat": 43.555004,
      "lng": 141.879301,
      "geocoding_level": null,
      "phone": "0125-76-2621",
      "license_no": "1-201",
      "license_date": "2024-02-20",
      "expire_date": "2031-04-28"
    },
    {
      "name": "金滴酒造株式会社",
      "name_kana": "キンテキシュゾウカブシキカイシャ",
      "business_type": "㉑ 酒類製造業",
      "address": "北海道樺戸郡新十津川町中央71番地7",
      "lat": 43.559271,
      "lng": 141.881289,
      "geocoding_level": null,
      "phone": "0125-76-2341",
      "license_no": "2-236",
      "license_date": "2022-03-15",
      "expire_date": "2027-04-28"
    },
    {
      "name": "金滴酒造株式会社",
      "name_kana": "キンテキシュゾウカブシキガイシャ",
      "business_type": "⑬ その他の食料・飲料販売業",
      "address": "北海道樺戸郡新十津川町字中央71番地7",
      "lat": 43.559271,
      "lng": 141.881289,
      "geocoding_level": null,
      "phone": "0125-76-2341",
      "license_no": "",
      "license_date": null,
      "expire_date": null
    },
    {
      "name": "そっち岳スキー場ロッジ厨房",
      "name_kana": "ソッチダケスキージョウロッジチュウボウ",
      "business_type": "① 飲食店営業",
      "address": "北海道樺戸郡新十津川町総進29４－1",
      "lat": 43.538017,
      "lng": 141.79883,
      "geocoding_level": null,
      "phone": "",
      "license_no": "7-176",
      "license_date": "2022-12-21",
      "expire_date": "2029-04-28"
    },
    {
      "name": "ピンネ荘",
      "name_kana": "ピンネソウ",
      "business_type": "㉔ 麺類製造業",
      "address": "北海道樺戸郡新十津川町字総進254-2",
      "lat": 43.524926,
      "lng": 141.838508,
      "geocoding_level": null,
      "phone": "",
      "license_no": "1-110",
      "license_date": "2023-09-12",
      "expire_date": "2028-09-28"
    },
    {
      "name": "ピンネ荘",
      "name_kana": "ピンネソウ",
      "business_type": "① 飲食店営業",
      "address": "北海道樺戸郡新十津川町字総進254-2",
      "lat": 43.524926,
      "lng": 141.838508,
      "geocoding_level": null,
      "phone": "",
      "license_no": "空滝生第1-223号",
      "license_date": "2026-03-23",
      "expire_date": "2032-04-28"
    },
    {
      "name": "合同会社２００",
      "name_kana": "ゴウドウガイシャニーマルマル",
      "business_type": "① 飲食店営業",
      "address": "北海道樺戸郡新十津川町字中央6－71",
      "lat": 43.548859,
      "lng": 141.875919,
      "geocoding_level": null,
      "phone": "",
      "license_no": "７－１８２",
      "license_date": "2022-12-22",
      "expire_date": "2029-04-28"
    },
    {
      "name": "アテトサイ",
      "name_kana": "アテトサイ",
      "business_type": "① 飲食店営業",
      "address": "北海道樺戸郡新十津川町字中央6-99",
      "lat": 43.549152,
      "lng": 141.875856,
      "geocoding_level": null,
      "phone": "",
      "license_no": "1-60",
      "license_date": "2023-07-07",
      "expire_date": "2028-09-28"
    },
    {
      "name": "京",
      "name_kana": "キョウ",
      "business_type": "㉕ 行商",
      "address": "北海道樺戸郡新十津川町中央6-29",
      "lat": 43.548868,
      "lng": 141.87515,
      "geocoding_level": null,
      "phone": "",
      "license_no": "",
      "license_date": null,
      "expire_date": null
    },
    {
      "name": "京",
      "name_kana": "キョウ",
      "business_type": "① 飲食店営業",
      "address": "北海道樺戸郡新十津川町字弥生169番地1",
      "lat": 43.520541,
      "lng": 141.858394,
      "geocoding_level": null,
      "phone": "",
      "license_no": "1-49",
      "license_date": "2023-06-20",
      "expire_date": "2028-09-28"
    },
    {
      "name": "京",
      "name_kana": "キョウ",
      "business_type": "① 飲食店営業",
      "address": "北海道樺戸郡新十津川町字中央301-1",
      "lat": 43.548936,
      "lng": 141.87741,
      "geocoding_level": null,
      "phone": "",
      "license_no": "1-50",
      "license_date": "2023-06-20",
      "expire_date": "2028-09-28"
    },
    {
      "name": "新十津川町学校給食センター",
      "name_kana": "シントツカワチョウキュウショクセンター",
      "business_type": "① 飲食店営業",
      "address": "北海道樺戸郡新十津川町中央28番地1",
      "lat": 43.545055,
      "lng": 141.868255,
      "geocoding_level": null,
      "phone": "0125-76-2528",
      "license_no": "7-218",
      "license_date": "2023-03-15",
      "expire_date": "2030-04-28"
    },
    {
      "name": "新十津川町学校給食センター",
      "name_kana": "シントツカワギョウガッコウキュウショクセンター",
      "business_type": "① 飲食店営業",
      "address": "北海道樺戸郡新十津川町中央28番地1",
      "lat": 43.545055,
      "lng": 141.868255,
      "geocoding_level": null,
      "phone": "0125-76-2528",
      "license_no": "7-218",
      "license_date": "2023-03-15",
      "expire_date": "2030-04-28"
    },
    {
      "name": "フーテン食堂",
      "name_kana": "フーテンショクドウ",
      "business_type": "① 飲食店営業",
      "address": "北海道樺戸郡新十津川町総進217-21",
      "lat": 43.52749,
      "lng": 141.838032,
      "geocoding_level": null,
      "phone": "",
      "license_no": "1-2",
      "license_date": "2023-04-05",
      "expire_date": "2028-04-28"
    },
    {
      "name": "フーテン食堂",
      "name_kana": "フーテンショクドウ",
      "business_type": "㉕ そうざい製造業",
      "address": "北海道樺戸郡新十津川町総進217-21",
      "lat": 43.52749,
      "lng": 141.838032,
      "geocoding_level": null,
      "phone": "0125-74-4814",
      "license_no": "1-43",
      "license_date": "2025-05-28",
      "expire_date": "2030-09-28"
    },
    {
      "name": "フーテン食堂",
      "name_kana": "フーテンショクドウ",
      "business_type": "① 飲食店営業",
      "address": "北海道樺戸郡新十津川町中央306-3",
      "lat": 43.550951,
      "lng": 141.876477,
      "geocoding_level": null,
      "phone": "0125-74-4814",
      "license_no": "空滝生第13-16号",
      "license_date": "2026-04-20",
      "expire_date": "2031-04-28"
    },
    {
      "name": "株式会社中島物産",
      "name_kana": "カブシキガイシャナカジマブッサン",
      "business_type": "⑬ その他の食料・飲料販売業",
      "address": "北海道樺戸郡新十津川町字花月201-12",
      "lat": 43.498851,
      "lng": 141.862137,
      "geocoding_level": null,
      "phone": "",
      "license_no": "",
      "license_date": null,
      "expire_date": null
    },
    {
      "name": "ゆめの村マルシェ",
      "name_kana": "ユメノムラマルシェ",
      "business_type": "① 飲食店営業",
      "address": "北海道樺戸郡新十津川町字弥生8-11",
      "lat": 43.541478,
      "lng": 141.879381,
      "geocoding_level": null,
      "phone": "0125-72-2163",
      "license_no": "空滝生第9-38号",
      "license_date": "2024-06-13",
      "expire_date": "2029-09-28"
    },
    {
      "name": "CrossLab Donut&Cafe",
      "name_kana": "クロスラボドーナツアンドカフェ",
      "business_type": "① 飲食店営業",
      "address": "北海道樺戸郡新十津川町字中央5番地96",
      "lat": 43.550856,
      "lng": 141.875048,
      "geocoding_level": null,
      "phone": "0125-74-6942",
      "license_no": "1-155",
      "license_date": "2023-11-30",
      "expire_date": "2030-04-28"
    },
    {
      "name": "CrossLab Donut&Cafe",
      "name_kana": "クロスラボドーナツアンドカフェ",
      "business_type": "⑪ 菓子製造業",
      "address": "北海道樺戸郡新十津川町字中央5番地96",
      "lat": 43.550856,
      "lng": 141.875048,
      "geocoding_level": null,
      "phone": "0125-74-6942",
      "license_no": "1-155",
      "license_date": "2023-11-30",
      "expire_date": "2030-04-28"
    },
    {
      "name": "デザートハウスニース",
      "name_kana": "デザートハウスニース",
      "business_type": "① 飲食店営業",
      "address": "北海道樺戸郡新十津川町字中央73-31",
      "lat": 43.557866,
      "lng": 141.878412,
      "geocoding_level": null,
      "phone": "",
      "license_no": "1-161",
      "license_date": "2023-12-07",
      "expire_date": "2030-04-28"
    },
    {
      "name": "なこたこ",
      "name_kana": "ナコタコ",
      "business_type": "① 飲食店営業",
      "address": "北海道樺戸郡新十津川町中央306-3",
      "lat": 43.55099,
      "lng": 141.876386,
      "geocoding_level": null,
      "phone": "",
      "license_no": "7-199",
      "license_date": "2023-01-26",
      "expire_date": "2028-04-28"
    },
    {
      "name": "なこたこ（店舗）",
      "name_kana": "ナコタコ　テンポ",
      "business_type": "① 飲食店営業",
      "address": "北海道樺戸郡新十津川町字中央305-1",
      "lat": 43.547714,
      "lng": 141.878021,
      "geocoding_level": null,
      "phone": "0125-74-6705",
      "license_no": "1-142",
      "license_date": "2023-11-06",
      "expire_date": "2030-04-28"
    },
    {
      "name": "なこたこ（店舗）",
      "name_kana": "ナコタコ　テンポ",
      "business_type": "⑪ 菓子製造業",
      "address": "北海道樺戸郡新十津川町字中央305-1",
      "lat": 43.547714,
      "lng": 141.878021,
      "geocoding_level": null,
      "phone": "0125-74-6705",
      "license_no": "1-142",
      "license_date": "2023-11-06",
      "expire_date": "2030-04-28"
    },
    {
      "name": "なこたこ（キッチンカー）",
      "name_kana": "ナコタコ　キッチンカー",
      "business_type": "① 飲食店営業",
      "address": "北海道樺戸郡新十津川町字中央305-1",
      "lat": 43.547694,
      "lng": 141.878026,
      "geocoding_level": null,
      "phone": "",
      "license_no": "空滝生第9-113号",
      "license_date": "2024-10-03",
      "expire_date": "2030-04-28"
    },
    {
      "name": "なこたこキッチンカー２",
      "name_kana": "ナコタコキッチンカーツー",
      "business_type": "① 飲食店営業",
      "address": "北海道樺戸郡新十津川町中央305−1",
      "lat": 43.547694,
      "lng": 141.878026,
      "geocoding_level": null,
      "phone": "",
      "license_no": "空滝生第1-164号",
      "license_date": "2025-11-17",
      "expire_date": "2031-04-28"
    },
    {
      "name": "セイコーマート　新十津川",
      "name_kana": "セイコーマート　シントツカワ",
      "business_type": "⑩ コンビニエンスストア",
      "address": "北海道樺戸郡新十津川町弥生1番地8",
      "lat": 43.540661,
      "lng": 141.882776,
      "geocoding_level": null,
      "phone": "0125-72-1070",
      "license_no": "",
      "license_date": null,
      "expire_date": null
    },
    {
      "name": "セイコーマート　新十津川中央",
      "name_kana": "セイコーマート　シントツカワチュウオウ",
      "business_type": "⑩ コンビニエンスストア",
      "address": "北海道樺戸郡新十津川町中央73番41号",
      "lat": 43.558642,
      "lng": 141.87929,
      "geocoding_level": null,
      "phone": "0125-76-2112",
      "license_no": "",
      "license_date": null,
      "expire_date": null
    },
    {
      "name": "やまじゅう池田屋本舗",
      "name_kana": "ヤマジュウイケダヤホンポ",
      "business_type": "① 飲食店営業",
      "address": "北海道樺戸郡新十津川町中央6-29 エーコープピンネ新十津川店内",
      "lat": 43.548868,
      "lng": 141.87515,
      "geocoding_level": null,
      "phone": "",
      "license_no": "空滝生第1-162号",
      "license_date": "2025-10-30",
      "expire_date": "2030-12-28"
    },
    {
      "name": "ＤＣＭニコット新十津川店",
      "name_kana": "ディーシーエムニコットシントツカワテン",
      "business_type": "⑬ その他の食料・飲料販売業",
      "address": "北海道樺戸郡新十津川町字中央309番地19",
      "lat": 43.547504,
      "lng": 141.879469,
      "geocoding_level": null,
      "phone": "0125-72-1200",
      "license_no": "",
      "license_date": null,
      "expire_date": null
    },
    {
      "name": "円満寺仏婦キッチン",
      "name_kana": "エンマンジブップキッキン",
      "business_type": "㉕ そうざい製造業",
      "address": "北海道樺戸郡新十津川町字中央13-26明和会本部内",
      "lat": 43.546987,
      "lng": 141.878938,
      "geocoding_level": null,
      "phone": "0125-76-2698",
      "license_no": "空滝生第9-3号",
      "license_date": "2024-04-04",
      "expire_date": "2030-04-28"
    },
    {
      "name": "ファミリーマート新十津川店",
      "name_kana": "ファミリーマートシントツカワテン",
      "business_type": "① 飲食店営業",
      "address": "北海道樺戸郡新十津川町字中央6番58",
      "lat": 43.548411,
      "lng": 141.87533,
      "geocoding_level": null,
      "phone": "0125-72-2528",
      "license_no": "空滝生第9-4号",
      "license_date": "2024-04-04",
      "expire_date": "2030-04-28"
    },
    {
      "name": "ファミリーマート新十津川店",
      "name_kana": "ファミリーマートシントツカワテン",
      "business_type": "⑩ コンビニエンスストア",
      "address": "北海道樺戸郡新十津川町字中央6番58",
      "lat": 43.548411,
      "lng": 141.87533,
      "geocoding_level": null,
      "phone": "0125-72-2528",
      "license_no": "",
      "license_date": null,
      "expire_date": null
    },
    {
      "name": "五十嵐威暢美術館かぜのび",
      "name_kana": "イガラシタケノブビジュツカンカゼノビ",
      "business_type": "① 飲食店営業",
      "address": "北海道樺戸郡新十津川町字吉野100-4",
      "lat": 43.596684,
      "lng": 141.731694,
      "geocoding_level": null,
      "phone": "0125-73-2600",
      "license_no": "空滝生第9-18号",
      "license_date": "2024-04-25",
      "expire_date": "2030-04-28"
    },
    {
      "name": "株式会社Mt.",
      "name_kana": "カブシキガイシャエムティー",
      "business_type": "① 飲食店営業",
      "address": "北海道樺戸郡新十津川町字中央306番地2",
      "lat": 43.555004,
      "lng": 141.879301,
      "geocoding_level": null,
      "phone": "0126-38-5528",
      "license_no": "空滝生第9-58号",
      "license_date": "2024-07-12",
      "expire_date": "2029-09-28"
    },
    {
      "name": "ameyuki",
      "name_kana": "アメユキ",
      "business_type": "① 飲食店営業",
      "address": "北海道樺戸郡新十津川町字学園16-12",
      "lat": 43.581241,
      "lng": 141.80892,
      "geocoding_level": null,
      "phone": "",
      "license_no": "空滝生第1-50号",
      "license_date": "2025-06-18",
      "expire_date": "2030-09-28"
    },
    {
      "name": "ameyuki",
      "name_kana": "アメユキ",
      "business_type": "⑪ 菓子製造業",
      "address": "北海道樺戸郡新十津川町字学園16-12",
      "lat": 43.581241,
      "lng": 141.80892,
      "geocoding_level": null,
      "phone": "",
      "license_no": "空滝生第1-50号",
      "license_date": "2025-06-18",
      "expire_date": "2030-09-28"
    },
    {
      "name": "セブンイレブン新十津川中央店",
      "name_kana": "セブンイレブンシントツカワチュウオウテン",
      "business_type": "① 飲食店営業",
      "address": "北海道樺戸郡新十津川町字中央86-46",
      "lat": 43.548088,
      "lng": 141.875894,
      "geocoding_level": null,
      "phone": "0125-76-2007",
      "license_no": "空滝生第1-119号",
      "license_date": "2025-09-19",
      "expire_date": "2031-09-28"
    },
    {
      "name": "セブンイレブン新十津川中央店",
      "name_kana": "セブンイレブンシントツカワチュウオウテン",
      "business_type": "⑩ コンビニエンスストア",
      "address": "北海道樺戸郡新十津川町字中央86-46",
      "lat": 43.548088,
      "lng": 141.875894,
      "geocoding_level": null,
      "phone": "0125-76-2007",
      "license_no": "",
      "license_date": null,
      "expire_date": null
    },
    {
      "name": "ドライブイン　ピットイン",
      "name_kana": "ドライブイン　ピットイン",
      "business_type": "① 飲食店営業",
      "address": "北海道樺戸郡新十津川町中央307",
      "lat": 43.548088,
      "lng": 141.875894,
      "geocoding_level": null,
      "phone": "",
      "license_no": "空滝生第1-138号",
      "license_date": "2025-09-29",
      "expire_date": "2031-04-28"
    },
    {
      "name": "ピットイン観光有限会社",
      "name_kana": "ピットインカンコウユウゲンガイシャ",
      "business_type": "① 飲食店営業",
      "address": "北海道樺戸郡新十津川町字中央49-36",
      "lat": 43.567712,
      "lng": 141.875096,
      "geocoding_level": null,
      "phone": "0125-76-3621",
      "license_no": "空滝生第1-187号",
      "license_date": "2025-12-16",
      "expire_date": "2032-04-28"
    },
    {
      "name": "ラーメン7SEVEN",
      "name_kana": "ラーメンセブン",
      "business_type": "① 飲食店営業",
      "address": "北海道樺戸郡新十津川町中央18-20 中央ビル1F",
      "lat": 43.548068,
      "lng": 141.875196,
      "geocoding_level": null,
      "phone": "",
      "license_no": "空滝生第1-175号",
      "license_date": "2025-11-26",
      "expire_date": "2032-04-28"
    },
    {
      "name": "炭火焼鳥　漬物京",
      "name_kana": "スミビヤキトリ　ツケモノキョウ",
      "business_type": "① 飲食店営業",
      "address": "北海道樺戸郡新十津川町中央18-20 中央ビル",
      "lat": 43.548062,
      "lng": 141.875189,
      "geocoding_level": null,
      "phone": "",
      "license_no": "空滝生第1-224号",
      "license_date": "2026-03-24",
      "expire_date": "2032-04-28"
    },
    {
      "name": "就労継続支援B型事業所ぴあねっと笑顔社",
      "name_kana": "シュウロウケイゾクシエンビーガタジギョウショピアネットワガシャ",
      "business_type": "㉔ その他の食料品製造・加工業",
      "address": "北海道樺戸郡新十津川町字中央18-2",
      "lat": 43.545993,
      "lng": 141.874186,
      "geocoding_level": null,
      "phone": "",
      "license_no": "",
      "license_date": null,
      "expire_date": null
    }
  ]
}
