{
  "meta": {
    "updated": 1783568789,
    "sources": [
      {
        "source": "厚生労働省 食品衛生申請等システム（オープンデータ）",
        "license": "公共データ利用規約（第1.0版, PDL1.0）"
      }
    ]
  },
  "data": [
    {
      "name": "豊﨑屋",
      "name_kana": "トヨサキヤ",
      "business_type": "⑧ 米穀類販売業",
      "address": "茨城県かすみがうら市中志筑2481-1",
      "lat": 36.180093,
      "lng": 140.228557,
      "geocoding_level": null,
      "phone": "0299-59-6551",
      "license_no": "",
      "license_date": null,
      "expire_date": null
    },
    {
      "name": "ダイソー　かすみがうら稲吉店",
      "name_kana": "ダイソー　カスミガウライナヨシテン",
      "business_type": "⑬ その他の食料・飲料販売業",
      "address": "茨城県かすみがうら市稲吉２－１７－３",
      "lat": 36.124058,
      "lng": 140.24691,
      "geocoding_level": null,
      "phone": "",
      "license_no": "",
      "license_date": null,
      "expire_date": null
    },
    {
      "name": "水戸ヤクルト販売㈱かすみがうらセンター",
      "name_kana": "ミトヤクルトハンバイカブシキガイシャカスミガウラセンター",
      "business_type": "⑬ その他の食料・飲料販売業",
      "address": "茨城県かすみがうら市下稲吉2607-71",
      "lat": 36.12308,
      "lng": 140.255397,
      "geocoding_level": null,
      "phone": "029-832-0277",
      "license_no": "",
      "license_date": null,
      "expire_date": null
    },
    {
      "name": "ヨークベニマル千代田モール店",
      "name_kana": "ヨークベニマルチヨダモールテン",
      "business_type": "⑪ 百貨店、総合スーパー",
      "address": "茨城県かすみがうら市下稲吉字逆西2633番地7",
      "lat": 36.137686,
      "lng": 140.23732,
      "geocoding_level": null,
      "phone": "029-834-1755",
      "license_no": "",
      "license_date": null,
      "expire_date": null
    },
    {
      "name": "株式会社セイミヤかすみがうら店",
      "name_kana": "カブシキガイシャセイミヤカスミガウラテン",
      "business_type": "⑪ 百貨店、総合スーパー",
      "address": "茨城県かすみがうら市西成井2557-16",
      "lat": 36.094932,
      "lng": 140.33504,
      "geocoding_level": null,
      "phone": "0298409551",
      "license_no": "",
      "license_date": null,
      "expire_date": null
    },
    {
      "name": "ツルハドラッグ千代田店",
      "name_kana": "ツルハドラッグチヨダテン",
      "business_type": "⑪ 百貨店、総合スーパー",
      "address": "茨城県かすみがうら市新治1827-32",
      "lat": 36.13492,
      "lng": 140.241042,
      "geocoding_level": null,
      "phone": "0299-37-7708",
      "license_no": "",
      "license_date": null,
      "expire_date": null
    },
    {
      "name": "かすみがうら市　あじさい館　自販機コーナー",
      "name_kana": "カスミガウラシ　アジサイカン　ジハンキコーナー",
      "business_type": "⑤ コップ式自動販売機（自動洗浄・屋内設置）",
      "address": "茨城県かすみがうら市深谷3719-1",
      "lat": 36.086705,
      "lng": 140.313114,
      "geocoding_level": null,
      "phone": "",
      "license_no": "",
      "license_date": null,
      "expire_date": null
    },
    {
      "name": "株式会社せき　石岡花きセンター",
      "name_kana": "カブシキカイシャセキ　イシオカカキセンター",
      "business_type": "⑤ コップ式自動販売機（自動洗浄・屋内設置）",
      "address": "茨城県かすみがうら市西野寺730-17",
      "lat": 36.170448,
      "lng": 140.254851,
      "geocoding_level": null,
      "phone": "",
      "license_no": "",
      "license_date": null,
      "expire_date": null
    },
    {
      "name": "薬王堂　かすみがうら下稲吉店",
      "name_kana": "ヤクオウドウ　カスミガウラシモイナヨシテン",
      "business_type": "① 魚介類販売業（包装済みの魚介類のみの販売）",
      "address": "茨城県かすみがうら市下稲吉1624番地10",
      "lat": 36.135679,
      "lng": 140.239508,
      "geocoding_level": null,
      "phone": "0299-56-3825",
      "license_no": "",
      "license_date": null,
      "expire_date": null
    },
    {
      "name": "薬王堂　かすみがうら下稲吉店",
      "name_kana": "ヤクオウドウ　カスミガウラシモイナヨシテン",
      "business_type": "② 食肉販売業（包装済みの食肉のみの販売）",
      "address": "茨城県かすみがうら市下稲吉1624番地10",
      "lat": 36.135679,
      "lng": 140.239508,
      "geocoding_level": null,
      "phone": "0299-56-3825",
      "license_no": "",
      "license_date": null,
      "expire_date": null
    },
    {
      "name": "薬王堂　かすみがうら下稲吉店",
      "name_kana": "ヤクオウドウ　カスミガウラシモイナヨシテン",
      "business_type": "③ 乳類販売業",
      "address": "茨城県かすみがうら市下稲吉1624番地10",
      "lat": 36.135679,
      "lng": 140.239508,
      "geocoding_level": null,
      "phone": "0299-56-3825",
      "license_no": "",
      "license_date": null,
      "expire_date": null
    },
    {
      "name": "ヤックスドラッグ千代田店",
      "name_kana": "ヤックスドラッグチヨダテン",
      "business_type": "⑬ その他の食料・飲料販売業",
      "address": "茨城県かすみがうら市稲吉2-17-3",
      "lat": 36.124058,
      "lng": 140.24691,
      "geocoding_level": null,
      "phone": "0298323483",
      "license_no": "",
      "license_date": null,
      "expire_date": null
    },
    {
      "name": "セゴビアゴルフクラブ　イン　チヨダ",
      "name_kana": "セゴビアゴルフクラブ　イン　チヨダ",
      "business_type": "⑬ その他の食料・飲料販売業",
      "address": "茨城県かすみがうら市高倉1384 セゴビアゴルフクラブ　イン　チヨダ",
      "lat": 36.205353,
      "lng": 140.223879,
      "geocoding_level": null,
      "phone": "0299-22-6000",
      "license_no": "",
      "license_date": null,
      "expire_date": null
    },
    {
      "name": "オートリブ株式会社筑波事業所",
      "name_kana": "オートリブカブシキガイシャツクバジギョウショ",
      "business_type": "⑤ コップ式自動販売機（自動洗浄・屋内設置）",
      "address": "茨城県かすみがうら市上稲吉1764-12",
      "lat": 36.130834,
      "lng": 140.208832,
      "geocoding_level": null,
      "phone": "",
      "license_no": "",
      "license_date": null,
      "expire_date": null
    },
    {
      "name": "出島ゴルフクラブ",
      "name_kana": "デジマゴルフクラブ",
      "business_type": "⑤ コップ式自動販売機（自動洗浄・屋内設置）",
      "address": "茨城県かすみがうら市下軽部８８１",
      "lat": 36.103043,
      "lng": 140.342135,
      "geocoding_level": null,
      "phone": "",
      "license_no": "",
      "license_date": null,
      "expire_date": null
    },
    {
      "name": "オートリブ株式会社食堂",
      "name_kana": "オートリブ",
      "business_type": "⑫ 自動販売機による販売業（コップ式自動販売機（自動洗浄・屋内設置）及び営業許可の対象となる自動販売機を除く）",
      "address": "茨城県かすみがうら市上稲吉1764-12",
      "lat": 36.130838,
      "lng": 140.208859,
      "geocoding_level": null,
      "phone": "",
      "license_no": "",
      "license_date": null,
      "expire_date": null
    },
    {
      "name": "スーパーセンタートライアルかすみがうら店",
      "name_kana": "スーパーセンタートライアルカスミガウラテン",
      "business_type": "⑪ 百貨店、総合スーパー",
      "address": "茨城県かすみがうら市下稲吉字西山２６５４番地１",
      "lat": 36.133189,
      "lng": 140.229438,
      "geocoding_level": null,
      "phone": "029-959-0533",
      "license_no": "",
      "license_date": null,
      "expire_date": null
    },
    {
      "name": "クスリのアオキ稲吉店",
      "name_kana": "クスリノアオキイナヨシテン",
      "business_type": "⑪ 百貨店、総合スーパー",
      "address": "茨城県かすみがうら市稲吉五丁目2番1号",
      "lat": 36.129655,
      "lng": 140.242547,
      "geocoding_level": null,
      "phone": "029-869-8220",
      "license_no": "",
      "license_date": null,
      "expire_date": null
    },
    {
      "name": "ＪＡ水郷つくば　サンフレッシュ霞ヶ浦店",
      "name_kana": "サンフレッシュニイカスミガウラテン",
      "business_type": "⑬ その他の食料・飲料販売業",
      "address": "茨城県かすみがうら市深谷3467-4",
      "lat": 36.090032,
      "lng": 140.307775,
      "geocoding_level": null,
      "phone": "029-897-0682",
      "license_no": "",
      "license_date": null,
      "expire_date": null
    },
    {
      "name": "ＪＡ水郷つくば　サンフレッシュ花野果",
      "name_kana": "サンフレッシュハナヤカ",
      "business_type": "⑬ その他の食料・飲料販売業",
      "address": "茨城県かすみがうら市下稲吉2633-14",
      "lat": 36.125656,
      "lng": 140.229754,
      "geocoding_level": null,
      "phone": "029-937-7502",
      "license_no": "",
      "license_date": null,
      "expire_date": null
    },
    {
      "name": "JA水郷つくば　サンフレッシュ霞ヶ浦店　移動販売車",
      "name_kana": "サンフレッシュカスミガウラテン　イドウハンバイシャ",
      "business_type": "⑬ その他の食料・飲料販売業",
      "address": "茨城県かすみがうら市深谷3467-4",
      "lat": 36.090032,
      "lng": 140.307775,
      "geocoding_level": null,
      "phone": "029-897-0682",
      "license_no": "",
      "license_date": null,
      "expire_date": null
    },
    {
      "name": "ラーメン山岡家かすみがうら店",
      "name_kana": "ラーメンヤマオカヤカスミガウラテン",
      "business_type": "⑬ その他の食料・飲料販売業",
      "address": "茨城県かすみがうら市上稲吉1943-19",
      "lat": 36.131314,
      "lng": 140.22563,
      "geocoding_level": null,
      "phone": "0299-59-7750",
      "license_no": "",
      "license_date": null,
      "expire_date": null
    },
    {
      "name": "セイコーマート　上志筑",
      "name_kana": "セイコーマート　カミシヅク",
      "business_type": "⑩ コンビニエンスストア",
      "address": "茨城県かすみがうら市上志筑字白畑174番地3",
      "lat": 36.188975,
      "lng": 140.224609,
      "geocoding_level": null,
      "phone": "0299594911",
      "license_no": "",
      "license_date": null,
      "expire_date": null
    },
    {
      "name": "蔵出し焼き芋かいつかかすみがうら本店",
      "name_kana": "クラダシヤキイモカイツカカスミガウラホンテン",
      "business_type": "⑦ 野菜果物販売業",
      "address": "茨城県かすみがうら市大和田字地蔵前517",
      "lat": 36.093688,
      "lng": 140.326252,
      "geocoding_level": null,
      "phone": "029-879-8077",
      "license_no": "",
      "license_date": null,
      "expire_date": null
    },
    {
      "name": "株式会社四万騎農園",
      "name_kana": "カブシキガイシャシマキノウエン",
      "business_type": "⑰ 農産保存食料品製造・加工業",
      "address": "茨城県かすみがうら市上土田１０２０－２４",
      "lat": 36.159097,
      "lng": 140.224,
      "geocoding_level": null,
      "phone": "0299592038",
      "license_no": "",
      "license_date": null,
      "expire_date": null
    },
    {
      "name": "株式会社セイコーフレッシュフーズ茨城配送センター",
      "name_kana": "セイコーフレッシュフーズイバラキハイソウセンター",
      "business_type": "⑬ その他の食料・飲料販売業",
      "address": "茨城県かすみがうら市上稲吉字東清水2045-2",
      "lat": 36.12571,
      "lng": 140.22699,
      "geocoding_level": null,
      "phone": "029-834-1567",
      "license_no": "",
      "license_date": null,
      "expire_date": null
    },
    {
      "name": "ISブルーベリーファーム",
      "name_kana": "アイエスブルーベリーファーム",
      "business_type": "㉔ その他の食料品製造・加工業",
      "address": "茨城県かすみがうら市下志筑１０６番地",
      "lat": 36.184207,
      "lng": 140.244827,
      "geocoding_level": null,
      "phone": "0299-23-6882",
      "license_no": "",
      "license_date": null,
      "expire_date": null
    },
    {
      "name": "ウエルシアかすみがうら大和田店",
      "name_kana": "ウエルシアカスミガウラオオワダテン",
      "business_type": "⑪ 百貨店、総合スーパー",
      "address": "茨城県かすみがうら市大和田592番地45",
      "lat": 36.094591,
      "lng": 140.333547,
      "geocoding_level": null,
      "phone": "029-897-0348",
      "license_no": "",
      "license_date": null,
      "expire_date": null
    },
    {
      "name": "出島ゴルフクラブ（食堂売店）",
      "name_kana": "デジマゴルフクラブショクドウバイテン",
      "business_type": "⑬ その他の食料・飲料販売業",
      "address": "茨城県かすみがうら市下軽部881",
      "lat": 36.103043,
      "lng": 140.342135,
      "geocoding_level": null,
      "phone": "0298961011",
      "license_no": "",
      "license_date": null,
      "expire_date": null
    },
    {
      "name": "出島ゴルフクラブ（ホール）",
      "name_kana": "デジマゴルフクラブホール",
      "business_type": "⑬ その他の食料・飲料販売業",
      "address": "茨城県かすみがうら市下軽部881",
      "lat": 36.103043,
      "lng": 140.342135,
      "geocoding_level": null,
      "phone": "0298961011",
      "license_no": "",
      "license_date": null,
      "expire_date": null
    },
    {
      "name": "出島ゴルフクラブ",
      "name_kana": "デジマゴルフクラブ",
      "business_type": "⑬ その他の食料・飲料販売業",
      "address": "茨城県かすみがうら市下軽部881",
      "lat": 36.103043,
      "lng": 140.342135,
      "geocoding_level": null,
      "phone": "",
      "license_no": "",
      "license_date": null,
      "expire_date": null
    },
    {
      "name": "出島ゴルフクラブ（アウトコース売店）",
      "name_kana": "デジマゴルフクラブアウトコースバイテン",
      "business_type": "⑬ その他の食料・飲料販売業",
      "address": "茨城県かすみがうら市下軽部881",
      "lat": 36.103043,
      "lng": 140.342135,
      "geocoding_level": null,
      "phone": "",
      "license_no": "",
      "license_date": null,
      "expire_date": null
    },
    {
      "name": "出島ゴルフクラブ（インコース売店）",
      "name_kana": "デジマゴルフクラブインコースバイテン",
      "business_type": "⑬ その他の食料・飲料販売業",
      "address": "茨城県かすみがうら市下軽部881",
      "lat": 36.103043,
      "lng": 140.342135,
      "geocoding_level": null,
      "phone": "",
      "license_no": "",
      "license_date": null,
      "expire_date": null
    },
    {
      "name": "株式会社マルカファーム",
      "name_kana": "カブシキガイシャマルカファーム",
      "business_type": "⑰ 農産保存食料品製造・加工業",
      "address": "茨城県かすみがうら市下土田１０５９−2",
      "lat": 36.165628,
      "lng": 140.250463,
      "geocoding_level": null,
      "phone": "09046691174",
      "license_no": "",
      "license_date": null,
      "expire_date": null
    },
    {
      "name": "てのひら",
      "name_kana": "テノヒラ",
      "business_type": "㉔ その他の食料品製造・加工業",
      "address": "茨城県かすみがうら市加茂343-1",
      "lat": 36.065008,
      "lng": 140.291438,
      "geocoding_level": null,
      "phone": "029-828-7551",
      "license_no": "",
      "license_date": null,
      "expire_date": null
    },
    {
      "name": "松屋　かすみがうら店",
      "name_kana": "マツヤ　カスミガウラテン",
      "business_type": "① 飲食店営業",
      "address": "茨城県かすみがうら市上稲吉1943-32",
      "lat": 36.131186,
      "lng": 140.225384,
      "geocoding_level": null,
      "phone": "080-9021-6668",
      "license_no": "土保指令法第240670号",
      "license_date": "2024-10-22",
      "expire_date": "2030-12-31"
    },
    {
      "name": "すき家　6号かすみがうら店",
      "name_kana": "スキヤ　ロクゴウカスミガウラテン",
      "business_type": "① 飲食店営業",
      "address": "茨城県かすみがうら市上稲吉1964-1",
      "lat": 36.133119,
      "lng": 140.215716,
      "geocoding_level": null,
      "phone": "",
      "license_no": "土保指令法第240210号",
      "license_date": "2024-04-23",
      "expire_date": "2030-07-31"
    },
    {
      "name": "すき家　6号かすみがうら店",
      "name_kana": "スキヤ　ロクゴウカスミガウラテン",
      "business_type": "⑬ その他の食料・飲料販売業",
      "address": "茨城県かすみがうら市上稲吉1964-1",
      "lat": 36.133119,
      "lng": 140.215716,
      "geocoding_level": null,
      "phone": "",
      "license_no": "",
      "license_date": null,
      "expire_date": null
    },
    {
      "name": "ホームプラザナフコかすみがうら店",
      "name_kana": "ホームプラザナフコカスミガウラテン",
      "business_type": "⑬ その他の食料・飲料販売業",
      "address": "茨城県かすみがうら市深谷2806-6",
      "lat": 36.09239,
      "lng": 140.302303,
      "geocoding_level": null,
      "phone": "029-834-6351",
      "license_no": "",
      "license_date": null,
      "expire_date": null
    },
    {
      "name": "株式会社テクニカルコールド関東　低温物流センター",
      "name_kana": "カブシキガイシャテクニカルコールドカントウ　テイオンブツリュウセンター",
      "business_type": "㉙ その他",
      "address": "茨城県かすみがうら市上稲吉１９８０番地３",
      "lat": 36.126203,
      "lng": 140.221324,
      "geocoding_level": null,
      "phone": "0298316112",
      "license_no": "",
      "license_date": null,
      "expire_date": null
    },
    {
      "name": "サンシャインつくば",
      "name_kana": "サンシャインツクバ",
      "business_type": "㉙ その他",
      "address": "茨城県かすみがうら市上大堤210‐27",
      "lat": 36.10869,
      "lng": 140.288409,
      "geocoding_level": null,
      "phone": "0298970101",
      "license_no": "",
      "license_date": null,
      "expire_date": null
    },
    {
      "name": "歩崎公園（Haze Marche）2023年9月30日～10月1日",
      "name_kana": "アユミザキコウエンヘイズマルシェ",
      "business_type": "㉙ その他",
      "address": "茨城県かすみがうら市坂4784",
      "lat": 36.070762,
      "lng": 140.375103,
      "geocoding_level": null,
      "phone": "",
      "license_no": "",
      "license_date": null,
      "expire_date": null
    },
    {
      "name": "志筑城楽市楽座(志筑城跡)2024年12月21日～2024年12月22日",
      "name_kana": "シヅクジョウラクイチラクザ",
      "business_type": "㉙ その他",
      "address": "茨城県かすみがうら市中志筑1037",
      "lat": 36.192321,
      "lng": 140.234624,
      "geocoding_level": null,
      "phone": "",
      "license_no": "",
      "license_date": null,
      "expire_date": null
    },
    {
      "name": "フードマーケット  カスミ（千代田店）",
      "name_kana": "フードマーケット  カスミ チヨダテン",
      "business_type": "⑬ その他の食料・飲料販売業",
      "address": "茨城県かすみがうら市新治　茨城県内一円（水戸市を除く）",
      "lat": 36.150438,
      "lng": 140.257931,
      "geocoding_level": null,
      "phone": "0299-59-0171",
      "license_no": "",
      "license_date": null,
      "expire_date": null
    },
    {
      "name": "K's Village　　4/28 5/5",
      "name_kana": "ケーズビレッジ",
      "business_type": "⑥ 弁当販売業",
      "address": "茨城県かすみがうら市坂4784番地地先",
      "lat": 36.070762,
      "lng": 140.375103,
      "geocoding_level": null,
      "phone": "",
      "license_no": "",
      "license_date": null,
      "expire_date": null
    },
    {
      "name": "K's Village　6.7月　毎週日曜日",
      "name_kana": "ケーズビレッジ",
      "business_type": "⑥ 弁当販売業",
      "address": "茨城県かすみがうら市坂4784番地地先　歩崎公園内",
      "lat": 36.071321,
      "lng": 140.375552,
      "geocoding_level": null,
      "phone": "",
      "license_no": "",
      "license_date": null,
      "expire_date": null
    },
    {
      "name": "ピュアフードふるさと",
      "name_kana": "ピュアフードフルサト",
      "business_type": "① 飲食店営業",
      "address": "茨城県かすみがうら市新治1811-6",
      "lat": 36.140549,
      "lng": 140.248506,
      "geocoding_level": null,
      "phone": "",
      "license_no": "土保指令第260172号",
      "license_date": "2026-03-18",
      "expire_date": "2032-07-31"
    },
    {
      "name": "セイコーマート　稲吉東店",
      "name_kana": "セイコーマート　イナヨシヒガシテン",
      "business_type": "⑩ コンビニエンスストア",
      "address": "茨城県かすみがうら市稲吉東4丁目14番7号",
      "lat": 36.126949,
      "lng": 140.248774,
      "geocoding_level": null,
      "phone": "029-832-9500",
      "license_no": "",
      "license_date": null,
      "expire_date": null
    },
    {
      "name": "コメリハードアンドグリーン千代田店",
      "name_kana": "コメリハードアンドグリーンチヨダテン",
      "business_type": "⑧ 米穀類販売業",
      "address": "茨城県かすみがうら市稲吉南３丁目２０８２－１",
      "lat": 36.128938,
      "lng": 140.241728,
      "geocoding_level": null,
      "phone": "029-834-1080",
      "license_no": "",
      "license_date": null,
      "expire_date": null
    },
    {
      "name": "コメリハードアンドグリーン出島店",
      "name_kana": "コメリハードアンドグリーンデジマテン",
      "business_type": "⑧ 米穀類販売業",
      "address": "茨城県かすみがうら市大和田４９３－１",
      "lat": 36.09255,
      "lng": 140.32855,
      "geocoding_level": null,
      "phone": "029-840-8030",
      "license_no": "",
      "license_date": null,
      "expire_date": null
    },
    {
      "name": "有限会社アイキ",
      "name_kana": "アイキ",
      "business_type": "㉑ 製茶業",
      "address": "茨城県かすみがうら市新治609-4",
      "lat": 36.156629,
      "lng": 140.257345,
      "geocoding_level": null,
      "phone": "",
      "license_no": "",
      "license_date": null,
      "expire_date": null
    }
  ]
}
