{
  "meta": {
    "updated": 1783568789,
    "sources": [
      {
        "source": "厚生労働省 食品衛生申請等システム（オープンデータ）",
        "license": "公共データ利用規約（第1.0版, PDL1.0）"
      }
    ]
  },
  "data": [
    {
      "name": "株式会社パートナーズ袖ケ浦農場たまごらんど",
      "name_kana": "カブシキガイシャパートナーズソデガウラノウジョウタマゴランド",
      "business_type": "⑬ その他の食料・飲料販売業",
      "address": "千葉県袖ケ浦市林563",
      "lat": 35.388685,
      "lng": 140.077163,
      "geocoding_level": null,
      "phone": "",
      "license_no": "",
      "license_date": null,
      "expire_date": null
    },
    {
      "name": "カーニーズ福王台店　清流物語",
      "name_kana": "カーニーズフクオウダイテン　セイリュウモノガタリ",
      "business_type": "⑫ 自動販売機による販売業（コップ式自動販売機（自動洗浄・屋内設置）及び営業許可の対象となる自動販売機を除く）",
      "address": "千葉県袖ケ浦市神納1-1-3",
      "lat": 35.42526,
      "lng": 139.958212,
      "geocoding_level": null,
      "phone": "",
      "license_no": "",
      "license_date": null,
      "expire_date": null
    },
    {
      "name": "主婦の店長浦店　清流物語",
      "name_kana": "シュフノミセナガウラテン　セイリュウモノガタリ",
      "business_type": "⑫ 自動販売機による販売業（コップ式自動販売機（自動洗浄・屋内設置）及び営業許可の対象となる自動販売機を除く）",
      "address": "千葉県袖ケ浦市長浦駅前2-4-3",
      "lat": 35.448527,
      "lng": 140.002306,
      "geocoding_level": null,
      "phone": "",
      "license_no": "",
      "license_date": null,
      "expire_date": null
    },
    {
      "name": "千葉県ヤクルト販売㈱ヤクルト長浦センター",
      "name_kana": "チバケンヤクルトハンバイカブシキガイシャナガウラセンター",
      "business_type": "③ 乳類販売業",
      "address": "千葉県袖ケ浦市蔵波台4-11-3",
      "lat": 35.441736,
      "lng": 139.994992,
      "geocoding_level": null,
      "phone": "0438-63-8960",
      "license_no": "",
      "license_date": null,
      "expire_date": null
    },
    {
      "name": "千葉県ヤクルト販売㈱ヤクルト長浦センター",
      "name_kana": "チバケンヤクルトハンバイカブシキガイシャナガウラセンター",
      "business_type": "⑬ その他の食料・飲料販売業",
      "address": "千葉県袖ケ浦市蔵波台4-11-3",
      "lat": 35.441736,
      "lng": 139.994992,
      "geocoding_level": null,
      "phone": "0438-63-8960",
      "license_no": "",
      "license_date": null,
      "expire_date": null
    },
    {
      "name": "ANYTIME FITNESS袖ヶ浦蔵波店",
      "name_kana": "エニタイムフィットネスソデガウラクラナミテン",
      "business_type": "⑫ 自動販売機による販売業（コップ式自動販売機（自動洗浄・屋内設置）及び営業許可の対象となる自動販売機を除く）",
      "address": "千葉県袖ケ浦市蔵波台7-9-9",
      "lat": 35.442511,
      "lng": 140.003201,
      "geocoding_level": null,
      "phone": "0438421562",
      "license_no": "",
      "license_date": null,
      "expire_date": null
    },
    {
      "name": "東京ドイツ村ユーポーランド",
      "name_kana": "トウキョウドイツムラユーポーランド",
      "business_type": "⑬ その他の食料・飲料販売業",
      "address": "千葉県袖ケ浦市永吉４１９",
      "lat": 35.404644,
      "lng": 140.05523,
      "geocoding_level": null,
      "phone": "",
      "license_no": "",
      "license_date": null,
      "expire_date": null
    },
    {
      "name": "サンドラッグ蔵波台店",
      "name_kana": "サンドラッグクラナミダイテン",
      "business_type": "⑪ 百貨店、総合スーパー",
      "address": "千葉県袖ケ浦市蔵波台2－6－2",
      "lat": 35.440168,
      "lng": 139.989931,
      "geocoding_level": null,
      "phone": "0438-80-9974",
      "license_no": "",
      "license_date": null,
      "expire_date": null
    },
    {
      "name": "東京ドイツ村こども動物園前",
      "name_kana": "トウキョウドイツムラコドモドウブツエンマエ",
      "business_type": "⑬ その他の食料・飲料販売業",
      "address": "千葉県袖ケ浦市永吉４１９",
      "lat": 35.404644,
      "lng": 140.05523,
      "geocoding_level": null,
      "phone": "",
      "license_no": "",
      "license_date": null,
      "expire_date": null
    },
    {
      "name": "東京ドイツ村おもしろ自転車横",
      "name_kana": "トウキョウドイツムラオモシロジテンシャヨコ",
      "business_type": "⑬ その他の食料・飲料販売業",
      "address": "千葉県袖ケ浦市永吉４１９",
      "lat": 35.404644,
      "lng": 140.05523,
      "geocoding_level": null,
      "phone": "",
      "license_no": "",
      "license_date": null,
      "expire_date": null
    },
    {
      "name": "東京ドイツ村わんぱく広場",
      "name_kana": "トウキョウドイツムラワンパクヒロバ",
      "business_type": "⑬ その他の食料・飲料販売業",
      "address": "千葉県袖ケ浦市永吉４１９",
      "lat": 35.404644,
      "lng": 140.05523,
      "geocoding_level": null,
      "phone": "",
      "license_no": "",
      "license_date": null,
      "expire_date": null
    },
    {
      "name": "イーグル袖ヶ浦",
      "name_kana": "イーグルソデガウラ",
      "business_type": "⑬ その他の食料・飲料販売業",
      "address": "千葉県袖ケ浦市蔵波台２－２２－８",
      "lat": 35.441776,
      "lng": 139.992182,
      "geocoding_level": null,
      "phone": "",
      "license_no": "",
      "license_date": null,
      "expire_date": null
    },
    {
      "name": "千葉県立槇の実特別支援学校",
      "name_kana": "チバケンリツマキノミトクベツシエンガッコウ",
      "business_type": "㉖ 集団給食施設",
      "address": "千葉県袖ケ浦市蔵波3108-113",
      "lat": 35.429528,
      "lng": 140.022023,
      "geocoding_level": null,
      "phone": "0438-62-1164",
      "license_no": "",
      "license_date": null,
      "expire_date": null
    },
    {
      "name": "ヤックスドラッグ横田店",
      "name_kana": "ヤックスドラッグヨコタテン",
      "business_type": "① 魚介類販売業（包装済みの魚介類のみの販売）",
      "address": "千葉県袖ケ浦市横田1210",
      "lat": 35.384328,
      "lng": 140.024552,
      "geocoding_level": null,
      "phone": "0438757796",
      "license_no": "",
      "license_date": null,
      "expire_date": null
    },
    {
      "name": "ヤックスドラッグ横田店",
      "name_kana": "ヤックスドラッグヨコタテン",
      "business_type": "② 食肉販売業（包装済みの食肉のみの販売）",
      "address": "千葉県袖ケ浦市横田1210",
      "lat": 35.384328,
      "lng": 140.024552,
      "geocoding_level": null,
      "phone": "0438757796",
      "license_no": "",
      "license_date": null,
      "expire_date": null
    },
    {
      "name": "ヤックスドラッグ袖ケ浦店",
      "name_kana": "ヤックスドラッグソデガウラテン",
      "business_type": "⑪ 百貨店、総合スーパー",
      "address": "千葉県袖ケ浦市蔵波台5-19-3",
      "lat": 35.43867,
      "lng": 139.996456,
      "geocoding_level": null,
      "phone": "0438640544",
      "license_no": "",
      "license_date": null,
      "expire_date": null
    },
    {
      "name": "ヤックスドラッグ横田店",
      "name_kana": "ヤックスドラッグヨコタテン",
      "business_type": "① 魚介類販売業（包装済みの魚介類のみの販売）",
      "address": "千葉県袖ケ浦市横田1210",
      "lat": 35.384347,
      "lng": 140.024466,
      "geocoding_level": null,
      "phone": "0438757796",
      "license_no": "",
      "license_date": null,
      "expire_date": null
    },
    {
      "name": "ヤックスドラッグ横田店",
      "name_kana": "ヤックスドラッグヨコタテン",
      "business_type": "② 食肉販売業（包装済みの食肉のみの販売）",
      "address": "千葉県袖ケ浦市横田1210",
      "lat": 35.384347,
      "lng": 140.024466,
      "geocoding_level": null,
      "phone": "0438757796",
      "license_no": "",
      "license_date": null,
      "expire_date": null
    },
    {
      "name": "ヤックスドラッグ横田店",
      "name_kana": "ヤックスドラッグヨコタテン",
      "business_type": "③ 乳類販売業",
      "address": "千葉県袖ケ浦市横田1210",
      "lat": 35.384347,
      "lng": 140.024466,
      "geocoding_level": null,
      "phone": "0438757796",
      "license_no": "",
      "license_date": null,
      "expire_date": null
    },
    {
      "name": "ヤックスドラッグ袖ヶ浦店",
      "name_kana": "ヤックスドラッグソデガウラテン",
      "business_type": "⑪ 百貨店、総合スーパー",
      "address": "千葉県袖ケ浦市蔵波台5-19-3",
      "lat": 35.43867,
      "lng": 139.996456,
      "geocoding_level": null,
      "phone": "0438640544",
      "license_no": "",
      "license_date": null,
      "expire_date": null
    },
    {
      "name": "業務スーパー袖ケ浦店",
      "name_kana": "ギョウムスーパーソデガウラテン",
      "business_type": "⑪ 百貨店、総合スーパー",
      "address": "千葉県袖ケ浦市奈良輪239-1",
      "lat": 35.43337,
      "lng": 139.965179,
      "geocoding_level": null,
      "phone": "0438405741",
      "license_no": "",
      "license_date": null,
      "expire_date": null
    },
    {
      "name": "長浦ＴＴプラント",
      "name_kana": "ナガウラティーティープラント",
      "business_type": "⑤ コップ式自動販売機（自動洗浄・屋内設置）",
      "address": "千葉県袖ケ浦市蔵波１９９２−１１９９２−１",
      "lat": 35.4484,
      "lng": 139.990936,
      "geocoding_level": null,
      "phone": "",
      "license_no": "",
      "license_date": null,
      "expire_date": null
    },
    {
      "name": "日鉄エポキシ製造株式会社",
      "name_kana": "ニッテツエポキシセイゾウカブシキガイシャ",
      "business_type": "⑤ コップ式自動販売機（自動洗浄・屋内設置）",
      "address": "千葉県袖ケ浦市北袖１１－５",
      "lat": 35.466433,
      "lng": 139.995469,
      "geocoding_level": null,
      "phone": "0438-63-1171",
      "license_no": "",
      "license_date": null,
      "expire_date": null
    },
    {
      "name": "東京湾カントリークラブ",
      "name_kana": "トウキョウワンカントリークラブ",
      "business_type": "⑤ コップ式自動販売機（自動洗浄・屋内設置）",
      "address": "千葉県袖ケ浦市蔵波１１４７",
      "lat": 35.438281,
      "lng": 140.010965,
      "geocoding_level": null,
      "phone": "0438-63-3211",
      "license_no": "",
      "license_date": null,
      "expire_date": null
    },
    {
      "name": "東京酸素窒素株式会社",
      "name_kana": "トウキヨウサンソチツソカブシキガイシヤ",
      "business_type": "⑭ 添加物製造・加工業（法第13 条第１項の規定により規格が定められた添加物の製造を除く。）",
      "address": "千葉県袖ケ浦市中袖１番の１",
      "lat": 35.470792,
      "lng": 139.977032,
      "geocoding_level": null,
      "phone": "0438629361",
      "license_no": "",
      "license_date": null,
      "expire_date": null
    },
    {
      "name": "ＮＡＴＴＯ　ＤＩＮＩＮＧ　団栗",
      "name_kana": "ナットウダイニングドングリ",
      "business_type": "① 飲食店営業",
      "address": "千葉県袖ケ浦市袖ケ浦駅前１－３９－１０ ゆりまち袖ケ浦駅前モール１階",
      "lat": 35.433838,
      "lng": 139.955916,
      "geocoding_level": null,
      "phone": "0438-38-3489",
      "license_no": "20210149",
      "license_date": "2021-06-11",
      "expire_date": "2028-06-30"
    },
    {
      "name": "富分スーパー伊藤",
      "name_kana": "トミブンスーパーイトウ",
      "business_type": "① 飲食店営業",
      "address": "千葉県袖ケ浦市野里１７７８",
      "lat": 35.395227,
      "lng": 140.041251,
      "geocoding_level": null,
      "phone": "0438-75-2411",
      "license_no": "20210129",
      "license_date": "2021-06-01",
      "expire_date": "2028-06-30"
    },
    {
      "name": "富分スーパー伊藤",
      "name_kana": "トミブンスーパーイトウ",
      "business_type": "④ 魚介類販売業",
      "address": "千葉県袖ケ浦市野里１７７８",
      "lat": 35.395227,
      "lng": 140.041251,
      "geocoding_level": null,
      "phone": "0438-75-2411",
      "license_no": "20210009",
      "license_date": "2021-06-01",
      "expire_date": "2028-06-30"
    },
    {
      "name": "富分スーパー伊藤",
      "name_kana": "トミブンスーパーイトウ",
      "business_type": "⑨ 食肉処理業",
      "address": "千葉県袖ケ浦市野里１７７８",
      "lat": 35.395227,
      "lng": 140.041251,
      "geocoding_level": null,
      "phone": "0438-75-2411",
      "license_no": "20210001",
      "license_date": "2021-06-01",
      "expire_date": "2028-06-30"
    },
    {
      "name": "富分スーパー伊藤",
      "name_kana": "トミブンスーパーイトウ",
      "business_type": "③ 乳類販売業",
      "address": "千葉県袖ケ浦市野里１７７８",
      "lat": 35.395227,
      "lng": 140.041251,
      "geocoding_level": null,
      "phone": "0438-75-2411",
      "license_no": "",
      "license_date": null,
      "expire_date": null
    },
    {
      "name": "富分スーパー伊藤",
      "name_kana": "トミブンスーパーイトウ",
      "business_type": "⑦ 野菜果物販売業",
      "address": "千葉県袖ケ浦市野里１７７８",
      "lat": 35.395227,
      "lng": 140.041251,
      "geocoding_level": null,
      "phone": "0438-75-2411",
      "license_no": "",
      "license_date": null,
      "expire_date": null
    },
    {
      "name": "生鮮スーパー富分 のぞみ野店",
      "name_kana": "セイセンスーパートミブン ノゾミノテン",
      "business_type": "⑪ 百貨店、総合スーパー",
      "address": "千葉県袖ケ浦市のぞみ野66-1",
      "lat": 35.418845,
      "lng": 140.025452,
      "geocoding_level": null,
      "phone": "0438-53-7160",
      "license_no": "",
      "license_date": null,
      "expire_date": null
    },
    {
      "name": "生鮮スーパー富分 のぞみ野店",
      "name_kana": "セイセンスーパートミブン ノゾミノテン",
      "business_type": "③ 食肉販売業",
      "address": "千葉県袖ケ浦市のぞみ野66-1",
      "lat": 35.418845,
      "lng": 140.025452,
      "geocoding_level": null,
      "phone": "0438-53-7160",
      "license_no": "20250003",
      "license_date": "2025-09-01",
      "expire_date": "2032-09-30"
    },
    {
      "name": "生鮮スーパー富分 のぞみ野店",
      "name_kana": "セイセンスーパートミブン ノゾミノテン",
      "business_type": "④ 魚介類販売業",
      "address": "千葉県袖ケ浦市のぞみ野66-1",
      "lat": 35.418845,
      "lng": 140.025452,
      "geocoding_level": null,
      "phone": "0438-53-7160",
      "license_no": "20250005",
      "license_date": "2025-09-01",
      "expire_date": "2032-09-30"
    },
    {
      "name": "生鮮スーパー富分 のぞみ野店",
      "name_kana": "セイセンスーパートミブン ノゾミノテン",
      "business_type": "① 飲食店営業",
      "address": "千葉県袖ケ浦市のぞみ野66-1",
      "lat": 35.418845,
      "lng": 140.025452,
      "geocoding_level": null,
      "phone": "0438-53-7160",
      "license_no": "20250226",
      "license_date": "2025-09-01",
      "expire_date": "2032-09-30"
    },
    {
      "name": "生鮮スーパー富分 のぞみ野店",
      "name_kana": "セイセンスーパートミブン ノゾミノテン",
      "business_type": "① 飲食店営業",
      "address": "千葉県袖ケ浦市のぞみ野66-1",
      "lat": 35.418845,
      "lng": 140.025452,
      "geocoding_level": null,
      "phone": "0438-53-7160",
      "license_no": "20250227",
      "license_date": "2025-09-01",
      "expire_date": "2031-09-30"
    },
    {
      "name": "生鮮スーパー富分 のぞみ野店",
      "name_kana": "セイセンスーパートミブン ノゾミノテン",
      "business_type": "① 飲食店営業",
      "address": "千葉県袖ケ浦市のぞみ野66-1",
      "lat": 35.418845,
      "lng": 140.025452,
      "geocoding_level": null,
      "phone": "0438-53-7160",
      "license_no": "20250228",
      "license_date": "2025-09-01",
      "expire_date": "2031-09-30"
    },
    {
      "name": "生鮮スーパー富分 のぞみ野店",
      "name_kana": "セイセンスーパートミブン ノゾミノテン",
      "business_type": "③ 乳類販売業",
      "address": "千葉県袖ケ浦市のぞみ野66-1",
      "lat": 35.418845,
      "lng": 140.025452,
      "geocoding_level": null,
      "phone": "0438-53-7160",
      "license_no": "",
      "license_date": null,
      "expire_date": null
    },
    {
      "name": "魚民",
      "name_kana": "ウオタミ",
      "business_type": "⑬ その他の食料・飲料販売業",
      "address": "千葉県袖ケ浦市袖ケ浦駅前一丁目３９番地１０ ゆりまち袖ケ浦駅前モール　１階",
      "lat": 35.432694,
      "lng": 139.954419,
      "geocoding_level": null,
      "phone": "0438-63-9388",
      "license_no": "",
      "license_date": null,
      "expire_date": null
    },
    {
      "name": "魚民",
      "name_kana": "ウオタミ",
      "business_type": "① 飲食店営業",
      "address": "千葉県袖ケ浦市袖ケ浦駅前一丁目39番地10 ゆりまち袖ケ浦駅前モール　1階",
      "lat": 35.432694,
      "lng": 139.954419,
      "geocoding_level": null,
      "phone": "0438-63-9388",
      "license_no": "20250176",
      "license_date": "2025-07-11",
      "expire_date": "2031-08-31"
    },
    {
      "name": "夢庵 袖ケ浦店",
      "name_kana": "ユメアンソデガウラテン",
      "business_type": "① 飲食店営業",
      "address": "千葉県袖ケ浦市福王台２丁目３－２",
      "lat": 35.428025,
      "lng": 139.96333,
      "geocoding_level": null,
      "phone": "0438-62-1922",
      "license_no": "20240351",
      "license_date": "2024-10-11",
      "expire_date": "2030-11-30"
    },
    {
      "name": "夢庵 袖ヶ浦店",
      "name_kana": "ユメアンソデガウラテン",
      "business_type": "⑬ その他の食料・飲料販売業",
      "address": "千葉県袖ケ浦市福王台２丁目３－２",
      "lat": 35.428025,
      "lng": 139.96333,
      "geocoding_level": null,
      "phone": "0438-62-1922",
      "license_no": "",
      "license_date": null,
      "expire_date": null
    },
    {
      "name": "ガスト 袖ヶ浦店",
      "name_kana": "ガストソデガウラテン",
      "business_type": "① 飲食店営業",
      "address": "千葉県袖ケ浦市神納２丁目１６－１",
      "lat": 35.423202,
      "lng": 139.960533,
      "geocoding_level": null,
      "phone": "0438-60-1300",
      "license_no": "20260076",
      "license_date": "2026-05-15",
      "expire_date": "2033-06-30"
    },
    {
      "name": "ガスト 袖ヶ浦店",
      "name_kana": "ガストソデガウラテン",
      "business_type": "⑬ その他の食料・飲料販売業",
      "address": "千葉県袖ケ浦市神納２丁目１６－１",
      "lat": 35.423202,
      "lng": 139.960533,
      "geocoding_level": null,
      "phone": "0438-60-1300",
      "license_no": "",
      "license_date": null,
      "expire_date": null
    },
    {
      "name": "バーミヤン 袖ヶ浦店",
      "name_kana": "バーミヤンソデガウラテン",
      "business_type": "⑬ その他の食料・飲料販売業",
      "address": "千葉県袖ケ浦市蔵波台６丁目５－１１",
      "lat": 35.438263,
      "lng": 139.997338,
      "geocoding_level": null,
      "phone": "0438-60-1306",
      "license_no": "",
      "license_date": null,
      "expire_date": null
    },
    {
      "name": "袖ケ浦さつき台病院",
      "name_kana": "ソデガウラサツキダイビョウイン",
      "business_type": "① 飲食店営業",
      "address": "千葉県袖ケ浦市長浦駅前5丁目21番地",
      "lat": 35.445909,
      "lng": 140.006257,
      "geocoding_level": null,
      "phone": "",
      "license_no": "20240092",
      "license_date": "2024-05-16",
      "expire_date": "2031-05-31"
    },
    {
      "name": "ドラッグストアマツモトキヨシ長浦店",
      "name_kana": "ドラッグストアマツモトキヨシナガウラテン",
      "business_type": "③ 乳類販売業",
      "address": "千葉県袖ケ浦市長浦駅前3-3-1",
      "lat": 35.448167,
      "lng": 140.000621,
      "geocoding_level": null,
      "phone": "0438-62-3520",
      "license_no": "",
      "license_date": null,
      "expire_date": null
    },
    {
      "name": "寿食堂",
      "name_kana": "コトブキショクドウ",
      "business_type": "① 飲食店営業",
      "address": "千葉県袖ケ浦市坂戸市場１４３９－８",
      "lat": 35.423176,
      "lng": 139.954305,
      "geocoding_level": null,
      "phone": "",
      "license_no": "20210117",
      "license_date": "2021-06-01",
      "expire_date": "2027-06-30"
    },
    {
      "name": "オランダ家　袖ヶ浦店",
      "name_kana": "オランダヤ　ソデガウラテン",
      "business_type": "⑬ その他の食料・飲料販売業",
      "address": "千葉県袖ケ浦市福王台1-28-4",
      "lat": 35.427115,
      "lng": 139.962629,
      "geocoding_level": null,
      "phone": "0438-63-2370",
      "license_no": "",
      "license_date": null,
      "expire_date": null
    },
    {
      "name": "カメリアヒルズ　カントリークラブ　コース内仮設レストラン",
      "name_kana": "カメリアヒルズ　カントリークラブ　コースナイカセツレストラン",
      "business_type": "① 飲食店営業",
      "address": "千葉県袖ケ浦市大竹２６５",
      "lat": 35.360087,
      "lng": 140.02278,
      "geocoding_level": null,
      "phone": "",
      "license_no": "20210170",
      "license_date": "2021-06-21",
      "expire_date": "2026-06-30"
    },
    {
      "name": "ドラッグセイムス長浦店",
      "name_kana": "ドラッグセイムスナガウラテン",
      "business_type": "⑬ その他の食料・飲料販売業",
      "address": "千葉県袖ケ浦市長浦駅前4-11-1",
      "lat": 35.44403,
      "lng": 140.004755,
      "geocoding_level": null,
      "phone": "0438602161",
      "license_no": "",
      "license_date": null,
      "expire_date": null
    },
    {
      "name": "ドラッグセイムス福王台店",
      "name_kana": "ドラッグセイムスフクオウダイテン",
      "business_type": "⑬ その他の食料・飲料販売業",
      "address": "千葉県袖ケ浦市福王台1-27-1",
      "lat": 35.428254,
      "lng": 139.961004,
      "geocoding_level": null,
      "phone": "0438-60-1086",
      "license_no": "",
      "license_date": null,
      "expire_date": null
    },
    {
      "name": "ドラッグセイムス福王台バイパス店",
      "name_kana": "ドラッグセイムスフクオウダイバイパステン",
      "business_type": "⑬ その他の食料・飲料販売業",
      "address": "千葉県袖ケ浦市福王台2-3-4",
      "lat": 35.428432,
      "lng": 139.96353,
      "geocoding_level": null,
      "phone": "0438607371",
      "license_no": "",
      "license_date": null,
      "expire_date": null
    },
    {
      "name": "ドラッグセイムスゆりまち袖ケ浦駅前モール店",
      "name_kana": "ドラッグセイムスユリマチソデガウラエキマエモールテン",
      "business_type": "⑬ その他の食料・飲料販売業",
      "address": "千葉県袖ケ浦市袖ケ浦駅前1-39-10",
      "lat": 35.432694,
      "lng": 139.954419,
      "geocoding_level": null,
      "phone": "0438977037",
      "license_no": "",
      "license_date": null,
      "expire_date": null
    },
    {
      "name": "ビジネスホテル　汐美",
      "name_kana": "ビジネスホテルシオミ",
      "business_type": "① 飲食店営業",
      "address": "千葉県袖ケ浦市蔵波５１－２",
      "lat": 35.449794,
      "lng": 139.995089,
      "geocoding_level": null,
      "phone": "",
      "license_no": "20210123",
      "license_date": "2021-06-01",
      "expire_date": "2028-06-30"
    },
    {
      "name": "ドライブイン　栄華",
      "name_kana": "ドライブインエイカ",
      "business_type": "① 飲食店営業",
      "address": "千葉県袖ケ浦市三箇1046",
      "lat": 35.386186,
      "lng": 140.044456,
      "geocoding_level": null,
      "phone": "",
      "license_no": "20210124",
      "license_date": "2021-06-01",
      "expire_date": "2027-06-30"
    },
    {
      "name": "レストラン　菜心味",
      "name_kana": "レストラン　ナゴミ",
      "business_type": "① 飲食店営業",
      "address": "千葉県袖ケ浦市福王台1-1-4",
      "lat": 35.429707,
      "lng": 139.9589,
      "geocoding_level": null,
      "phone": "0438-60-1753",
      "license_no": "20220344",
      "license_date": "2022-09-08",
      "expire_date": "2029-10-31"
    },
    {
      "name": "かまた惣菜店",
      "name_kana": "カマタソウザイテン",
      "business_type": "㉕ そうざい製造業",
      "address": "千葉県袖ケ浦市長浦駅前３－１２－２",
      "lat": 35.447539,
      "lng": 140.002946,
      "geocoding_level": null,
      "phone": "0438-63-5729",
      "license_no": "20210004",
      "license_date": "2021-06-01",
      "expire_date": "2027-06-30"
    },
    {
      "name": "居酒屋　参百両",
      "name_kana": "イザカヤサンビャクリョウ",
      "business_type": "① 飲食店営業",
      "address": "千葉県袖ケ浦市蔵波台４－１２－５",
      "lat": 35.441255,
      "lng": 139.996732,
      "geocoding_level": null,
      "phone": "",
      "license_no": "20210127",
      "license_date": "2021-06-01",
      "expire_date": "2027-06-30"
    },
    {
      "name": "小料理　しな乃",
      "name_kana": "コリョウリシナノ",
      "business_type": "① 飲食店営業",
      "address": "千葉県袖ケ浦市長浦駅前１－１０－１２",
      "lat": 35.450199,
      "lng": 139.999076,
      "geocoding_level": null,
      "phone": "0438-62-3984",
      "license_no": "20210128",
      "license_date": "2021-06-01",
      "expire_date": "2026-06-30"
    },
    {
      "name": "デニーズ　袖ヶ浦店",
      "name_kana": "デニーズ　ソデガウラテン",
      "business_type": "⑬ その他の食料・飲料販売業",
      "address": "千葉県袖ケ浦市福王台2-3-1",
      "lat": 35.427785,
      "lng": 139.963019,
      "geocoding_level": null,
      "phone": "080-3458-9742",
      "license_no": "",
      "license_date": null,
      "expire_date": null
    },
    {
      "name": "イオン長浦店 畜産",
      "name_kana": "イオンナガウラテン チクサン",
      "business_type": "③ 食肉販売業",
      "address": "千葉県袖ケ浦市長浦駅前1-7",
      "lat": 35.450789,
      "lng": 139.997915,
      "geocoding_level": null,
      "phone": "0438-63-4741",
      "license_no": "20240009",
      "license_date": "2025-03-21",
      "expire_date": "2032-04-30"
    },
    {
      "name": "イオン長浦店 水産",
      "name_kana": "イオンナガウラテン　スイサン",
      "business_type": "④ 魚介類販売業",
      "address": "千葉県袖ケ浦市長浦駅前1-7",
      "lat": 35.450789,
      "lng": 139.997915,
      "geocoding_level": null,
      "phone": "0438-63-4741",
      "license_no": "20240012",
      "license_date": "2025-03-21",
      "expire_date": "2032-04-30"
    },
    {
      "name": "イオン長浦店 デリカ",
      "name_kana": "イオンナガウラテン　デリカ",
      "business_type": "① 飲食店営業",
      "address": "千葉県袖ケ浦市長浦駅前1-7",
      "lat": 35.450789,
      "lng": 139.997915,
      "geocoding_level": null,
      "phone": "0438-63-4741",
      "license_no": "20240631",
      "license_date": "2025-03-21",
      "expire_date": "2032-04-30"
    },
    {
      "name": "イオン長浦店 ピザ",
      "name_kana": "イオンナガウラテン　ピザ",
      "business_type": "① 飲食店営業",
      "address": "千葉県袖ケ浦市長浦駅前1-7",
      "lat": 35.450789,
      "lng": 139.997915,
      "geocoding_level": null,
      "phone": "0438-63-4741",
      "license_no": "20240632",
      "license_date": "2025-03-21",
      "expire_date": "2032-04-30"
    },
    {
      "name": "イオン長浦店",
      "name_kana": "イオンナガウラテン",
      "business_type": "⑪ 百貨店、総合スーパー",
      "address": "千葉県袖ケ浦市長浦駅前1-7",
      "lat": 35.450789,
      "lng": 139.997915,
      "geocoding_level": null,
      "phone": "0438-63-4741",
      "license_no": "",
      "license_date": null,
      "expire_date": null
    },
    {
      "name": "イオン長浦店ベーカリー",
      "name_kana": "イオンナガウラテン ベーカリー",
      "business_type": "⑪ 菓子製造業",
      "address": "千葉県袖ケ浦市長浦駅前1-7",
      "lat": 35.450789,
      "lng": 139.997915,
      "geocoding_level": null,
      "phone": "",
      "license_no": "20250010",
      "license_date": "2025-05-23",
      "expire_date": "2032-06-30"
    },
    {
      "name": "Ｌｉｔｔｌｅ　Ｓｗｅｅｔｓ　Ｓｈｏｐ　Ａｎｔｈｏｎｙ",
      "name_kana": "リトルスイーツショップアンソニー",
      "business_type": "⑪ 菓子製造業",
      "address": "千葉県袖ケ浦市福王台１－１３－１ 石井店舗Ｂ",
      "lat": 35.428544,
      "lng": 139.96057,
      "geocoding_level": null,
      "phone": "",
      "license_no": "20210020",
      "license_date": "2021-08-20",
      "expire_date": "2027-08-31"
    },
    {
      "name": "ＧｏｔＺＡ",
      "name_kana": "ゴッザ",
      "business_type": "① 飲食店営業",
      "address": "千葉県袖ケ浦市長浦駅前２－３－９",
      "lat": 35.448426,
      "lng": 140.001182,
      "geocoding_level": null,
      "phone": "0438-63-0636",
      "license_no": "20210178",
      "license_date": "2021-07-01",
      "expire_date": "2026-07-31"
    },
    {
      "name": "クスリのアオキ神納店",
      "name_kana": "クスリノアオキカンノウテン",
      "business_type": "⑪ 百貨店、総合スーパー",
      "address": "千葉県袖ケ浦市奈良輪249番地1",
      "lat": 35.433708,
      "lng": 139.966018,
      "geocoding_level": null,
      "phone": "0438-97-5505",
      "license_no": "",
      "license_date": null,
      "expire_date": null
    },
    {
      "name": "クスリのアオキのぞみ野店",
      "name_kana": "クスリノアオキノゾミノテン",
      "business_type": "⑪ 百貨店、総合スーパー",
      "address": "千葉県袖ケ浦市のぞみ野70番地3",
      "lat": 35.418476,
      "lng": 140.027186,
      "geocoding_level": null,
      "phone": "0438-97-6661",
      "license_no": "",
      "license_date": null,
      "expire_date": null
    },
    {
      "name": "中華　一龍",
      "name_kana": "チュウカイチリュウ",
      "business_type": "① 飲食店営業",
      "address": "千葉県袖ケ浦市蔵波台5-8-12",
      "lat": 35.441435,
      "lng": 139.994367,
      "geocoding_level": null,
      "phone": "0438-62-7944",
      "license_no": "20210166",
      "license_date": "2021-07-01",
      "expire_date": "2027-07-31"
    },
    {
      "name": "みちのく",
      "name_kana": "ミチノク",
      "business_type": "① 飲食店営業",
      "address": "千葉県袖ケ浦市長浦駅前３－１２－３",
      "lat": 35.447394,
      "lng": 140.003307,
      "geocoding_level": null,
      "phone": "0438-63-5189",
      "license_no": "20210174",
      "license_date": "2021-07-01",
      "expire_date": "2027-07-31"
    },
    {
      "name": "としまや弁当　蔵波台店",
      "name_kana": "トシマヤベントウクラナミダイテン",
      "business_type": "① 飲食店営業",
      "address": "千葉県袖ケ浦市蔵波台５－１－２０",
      "lat": 35.439527,
      "lng": 139.991786,
      "geocoding_level": null,
      "phone": "",
      "license_no": "20210285",
      "license_date": "2021-07-26",
      "expire_date": "2027-08-31"
    },
    {
      "name": "（株）としまや商事",
      "name_kana": "トシマヤショウジ",
      "business_type": "① 飲食店営業",
      "address": "千葉県袖ケ浦市今井１丁目５８番地（県内一円）",
      "lat": 35.439362,
      "lng": 139.973966,
      "geocoding_level": null,
      "phone": "",
      "license_no": "20210286",
      "license_date": "2021-07-26",
      "expire_date": "2026-08-31"
    },
    {
      "name": "（株）としまや商事",
      "name_kana": "トシマヤショウジ",
      "business_type": "① 飲食店営業",
      "address": "千葉県袖ケ浦市今井１丁目５８番地（県内一円）",
      "lat": 35.439362,
      "lng": 139.973966,
      "geocoding_level": null,
      "phone": "",
      "license_no": "20210287",
      "license_date": "2021-07-26",
      "expire_date": "2026-08-31"
    },
    {
      "name": "（株）としまや商事",
      "name_kana": "トシマヤショウジ",
      "business_type": "① 飲食店営業",
      "address": "千葉県袖ケ浦市今井１丁目５８番地（県内一円）",
      "lat": 35.439362,
      "lng": 139.973966,
      "geocoding_level": null,
      "phone": "",
      "license_no": "20210288",
      "license_date": "2021-07-26",
      "expire_date": "2026-08-31"
    },
    {
      "name": "としまや弁当蔵波台店",
      "name_kana": "トシマヤベントウクラナミダイテン",
      "business_type": "③ 乳類販売業",
      "address": "千葉県袖ケ浦市蔵波台５－１－２０",
      "lat": 35.439527,
      "lng": 139.991786,
      "geocoding_level": null,
      "phone": "",
      "license_no": "",
      "license_date": null,
      "expire_date": null
    },
    {
      "name": "株式会社としまや商事",
      "name_kana": "カブシキガイシャトシマヤショウジ",
      "business_type": "⑨ 食肉処理業",
      "address": "千葉県袖ケ浦市今井１－５８",
      "lat": 35.439348,
      "lng": 139.973974,
      "geocoding_level": null,
      "phone": "0438-63-2300",
      "license_no": "20230005",
      "license_date": "2024-03-08",
      "expire_date": "2030-04-30"
    },
    {
      "name": "株式会社としまや商事",
      "name_kana": "カブシキガイシャトシマヤショウジ",
      "business_type": "㉕ そうざい製造業",
      "address": "千葉県袖ケ浦市今井１－５８",
      "lat": 35.439348,
      "lng": 139.973974,
      "geocoding_level": null,
      "phone": "0438-63-2300",
      "license_no": "20230029",
      "license_date": "2024-03-08",
      "expire_date": "2030-04-30"
    },
    {
      "name": "出光興産（株）　次世代技術研究所内食堂",
      "name_kana": "イデミツコウサンカブシキガイシャ　ジセダイギジュツケンキュウジョナイショクドウ",
      "business_type": "① 飲食店営業",
      "address": "千葉県袖ケ浦市上泉１２８０",
      "lat": 35.411719,
      "lng": 140.049606,
      "geocoding_level": null,
      "phone": "0438-75-4316",
      "license_no": "20210175",
      "license_date": "2021-07-01",
      "expire_date": "2028-07-31"
    },
    {
      "name": "京葉シーバース株式会社　社員食堂",
      "name_kana": "ケイヨウシーバースカブシキガイシャシャインショクドウ",
      "business_type": "① 飲食店営業",
      "address": "千葉県袖ケ浦市長浦拓１号１番１８",
      "lat": 35.449001,
      "lng": 139.985408,
      "geocoding_level": null,
      "phone": "0438-62-1211",
      "license_no": "20210623",
      "license_date": "2022-01-13",
      "expire_date": "2028-02-29"
    },
    {
      "name": "プリメーロ袖ケ浦公園前店",
      "name_kana": "プリメーロソデガウラコウエンマエテン",
      "business_type": "① 飲食店営業",
      "address": "千葉県袖ケ浦市飯富１６２８－２",
      "lat": 35.418336,
      "lng": 139.991842,
      "geocoding_level": null,
      "phone": "0438-40-5665",
      "license_no": "20210181",
      "license_date": "2021-07-01",
      "expire_date": "2026-07-31"
    },
    {
      "name": "日本料理　天麩羅　ありはら",
      "name_kana": "ニホンリョウリ　テンプラ　アリハラ",
      "business_type": "① 飲食店営業",
      "address": "千葉県袖ケ浦市今井１－１－３３",
      "lat": 35.443668,
      "lng": 139.983685,
      "geocoding_level": null,
      "phone": "0438-63-0665",
      "license_no": "20210173",
      "license_date": "2021-07-01",
      "expire_date": "2028-07-31"
    },
    {
      "name": "ローソン袖ケ浦滝の口店",
      "name_kana": "ローソンソデガウラタキノクチテン",
      "business_type": "① 飲食店営業",
      "address": "千葉県袖ケ浦市滝の口２６６－１４",
      "lat": 35.376141,
      "lng": 140.012804,
      "geocoding_level": null,
      "phone": "0438-75-8277",
      "license_no": "20210248",
      "license_date": "2021-07-26",
      "expire_date": "2027-08-31"
    },
    {
      "name": "ローソン袖ケ浦野里店",
      "name_kana": "ローソンソデガウラノザトテン",
      "business_type": "① 飲食店営業",
      "address": "千葉県袖ケ浦市野里４６３－１",
      "lat": 35.394169,
      "lng": 140.039281,
      "geocoding_level": null,
      "phone": "0438-75-5086",
      "license_no": "20210625",
      "license_date": "2022-01-11",
      "expire_date": "2028-02-29"
    },
    {
      "name": "ローソン袖ケ浦野里店",
      "name_kana": "ローソンソデガウラノザトテン",
      "business_type": "⑪ 菓子製造業",
      "address": "千葉県袖ケ浦市野里４６３－１",
      "lat": 35.394169,
      "lng": 140.039281,
      "geocoding_level": null,
      "phone": "0438-75-5086",
      "license_no": "20210052",
      "license_date": "2022-01-13",
      "expire_date": "2028-02-29"
    },
    {
      "name": "ローソン袖ケ浦野里店",
      "name_kana": "ローソンソデガウラノザトテン",
      "business_type": "⑩ コンビニエンスストア",
      "address": "千葉県袖ケ浦市野里４６３－１",
      "lat": 35.394169,
      "lng": 140.039281,
      "geocoding_level": null,
      "phone": "0438-75-5086",
      "license_no": "",
      "license_date": null,
      "expire_date": null
    },
    {
      "name": "ル・ミトロン食パン　袖ケ浦ゆりまち店",
      "name_kana": "ルミトロンショクパンソデガウラユリマチテン",
      "business_type": "⑬ その他の食料・飲料販売業",
      "address": "千葉県袖ケ浦市袖ケ浦駅前1-39-12 ゆりまち袖ケ浦駅前モール内",
      "lat": 35.433838,
      "lng": 139.955916,
      "geocoding_level": null,
      "phone": "0438386651",
      "license_no": "",
      "license_date": null,
      "expire_date": null
    },
    {
      "name": "Ｒｏａｓｔ　＆　Ｗｉｎｅ　Ｇｏｃｃｉ",
      "name_kana": "ローストアンドワインゴッチ",
      "business_type": "① 飲食店営業",
      "address": "千葉県袖ケ浦市袖ケ浦駅前１－３９－１２ ゆりまち袖ケ浦駅前モール",
      "lat": 35.433037,
      "lng": 139.956913,
      "geocoding_level": null,
      "phone": "0438-38-6698",
      "license_no": "20230058",
      "license_date": "2023-05-19",
      "expire_date": "2029-05-31"
    },
    {
      "name": "セブンーイレブン　袖ケ浦のぞみ野通り北店",
      "name_kana": "セブンイレブンノゾミノドオリキタテン",
      "business_type": "① 飲食店営業",
      "address": "千葉県袖ケ浦市蔵波９９４－７",
      "lat": 35.428776,
      "lng": 140.029113,
      "geocoding_level": null,
      "phone": "0438-63-6233",
      "license_no": "20210227",
      "license_date": "2021-07-21",
      "expire_date": "2027-08-31"
    },
    {
      "name": "セブンーイレブン袖ケ浦のぞみ野通り北店",
      "name_kana": "セブンイレブンソデガウラノゾミノドオリキタテン",
      "business_type": "⑩ コンビニエンスストア",
      "address": "千葉県袖ケ浦市蔵波９９４－７",
      "lat": 35.428776,
      "lng": 140.029113,
      "geocoding_level": null,
      "phone": "0438-63-6233",
      "license_no": "",
      "license_date": null,
      "expire_date": null
    },
    {
      "name": "セブンーイレブン袖ケ浦宮田大橋店",
      "name_kana": "セブンイレブンソデガウラミヤタオオハシテン",
      "business_type": "① 飲食店営業",
      "address": "千葉県袖ケ浦市下宮田３０－２",
      "lat": 35.36138,
      "lng": 140.00876,
      "geocoding_level": null,
      "phone": "0438-75-7776",
      "license_no": "20210522",
      "license_date": "2021-11-08",
      "expire_date": "2026-12-31"
    },
    {
      "name": "セブンーイレブン袖ケ浦宮田大橋店",
      "name_kana": "セブンイレブンソデガウラミヤタオオハシテン",
      "business_type": "⑩ コンビニエンスストア",
      "address": "千葉県袖ケ浦市下宮田３０－２",
      "lat": 35.36138,
      "lng": 140.00876,
      "geocoding_level": null,
      "phone": "",
      "license_no": "",
      "license_date": null,
      "expire_date": null
    },
    {
      "name": "セブン－イレブン  袖ケ浦のぞみ野店",
      "name_kana": "セブンイレブンソデガウラノゾミノテン",
      "business_type": "① 飲食店営業",
      "address": "千葉県袖ケ浦市のぞみ野７０－４",
      "lat": 35.418755,
      "lng": 140.022615,
      "geocoding_level": null,
      "phone": "0438-60-7073",
      "license_no": "20240254",
      "license_date": "2024-08-22",
      "expire_date": "2030-08-31"
    },
    {
      "name": "セブンーイレブン　袖ケ浦のぞみ野店",
      "name_kana": "セブンイレブンソデガウラノゾミノテン",
      "business_type": "⑩ コンビニエンスストア",
      "address": "千葉県袖ケ浦市のぞみ野７０－４",
      "lat": 35.418755,
      "lng": 140.022615,
      "geocoding_level": null,
      "phone": "0438-60-7073",
      "license_no": "",
      "license_date": null,
      "expire_date": null
    },
    {
      "name": "ファミリーマート　袖ケ浦蔵波店",
      "name_kana": "ファミリーマートソデガウラクラナミテン",
      "business_type": "① 飲食店営業",
      "address": "千葉県袖ケ浦市蔵波台７丁目１５番２１",
      "lat": 35.442223,
      "lng": 140.003471,
      "geocoding_level": null,
      "phone": "0438-60-8300",
      "license_no": "20210241",
      "license_date": "2021-07-21",
      "expire_date": "2026-08-31"
    },
    {
      "name": "お好み焼　海亀",
      "name_kana": "オコノミヤキタートル",
      "business_type": "① 飲食店営業",
      "address": "千葉県袖ケ浦市長浦駅前３－２－１",
      "lat": 35.448419,
      "lng": 139.999619,
      "geocoding_level": null,
      "phone": "0438-62-2321",
      "license_no": "20210240",
      "license_date": "2021-07-21",
      "expire_date": "2027-08-31"
    },
    {
      "name": "袖ケ浦市農畜産物直売所「ゆりの里」",
      "name_kana": "ソデガウラシノウチクサンブツチョクバイジョ　ユリノサト",
      "business_type": "① 飲食店営業",
      "address": "千葉県袖ケ浦市飯富１６３５－１",
      "lat": 35.416894,
      "lng": 139.992343,
      "geocoding_level": null,
      "phone": "0438-60-2550",
      "license_no": "20210489",
      "license_date": "2021-10-21",
      "expire_date": "2028-11-30"
    },
    {
      "name": "袖ケ浦市農畜産物直売所「ゆりの里」",
      "name_kana": "ソデガウラシノウチクサンブツチョクバイジョ　ユリノサト",
      "business_type": "⑪ 菓子製造業",
      "address": "千葉県袖ケ浦市飯富１６３５－１",
      "lat": 35.416894,
      "lng": 139.992343,
      "geocoding_level": null,
      "phone": "0438-60-2550",
      "license_no": "20210037",
      "license_date": "2021-10-21",
      "expire_date": "2028-11-30"
    },
    {
      "name": "袖ケ浦市農畜産物直売所「ゆりの里」",
      "name_kana": "ソデガウラシノウチクサンブツチョクバイジョ　ユリノサト",
      "business_type": "㉕ そうざい製造業",
      "address": "千葉県袖ケ浦市飯富１６３５－１",
      "lat": 35.416894,
      "lng": 139.992343,
      "geocoding_level": null,
      "phone": "0438-60-2550",
      "license_no": "20210019",
      "license_date": "2021-10-21",
      "expire_date": "2028-11-30"
    },
    {
      "name": "袖ケ浦市農畜産物直売所「ゆりの里」",
      "name_kana": "ソデガウラシノウチクサンブツチョクバイジョ　ユリノサト",
      "business_type": "② 食肉販売業（包装済みの食肉のみの販売）",
      "address": "千葉県袖ケ浦市飯富１６３５－１",
      "lat": 35.416894,
      "lng": 139.992343,
      "geocoding_level": null,
      "phone": "",
      "license_no": "",
      "license_date": null,
      "expire_date": null
    },
    {
      "name": "袖ケ浦市農畜産物直売所「ゆりの里」",
      "name_kana": "ソデガウラシノウチクサンブツチョクバイジョ　ユリノサト",
      "business_type": "③ 乳類販売業",
      "address": "千葉県袖ケ浦市飯富１６３５－１",
      "lat": 35.416894,
      "lng": 139.992343,
      "geocoding_level": null,
      "phone": "",
      "license_no": "",
      "license_date": null,
      "expire_date": null
    },
    {
      "name": "袖ケ浦市農畜産物直売所「ゆりの里」　ＭＩＬＫ　ＨＯＵＳＥ",
      "name_kana": "ソデガウラシノウチクサンブツチョクバイジョユリノサトミルクハウス",
      "business_type": "① 飲食店営業",
      "address": "千葉県袖ケ浦市飯富１６３５－１",
      "lat": 35.416894,
      "lng": 139.992343,
      "geocoding_level": null,
      "phone": "0438-60-2550",
      "license_no": "20220680",
      "license_date": "2023-03-17",
      "expire_date": "2029-03-31"
    },
    {
      "name": "袖ケ浦市農畜産物直売所「ゆりの里」　ＭＩＬＫ　ＨＯＵＳＥ",
      "name_kana": "ソデガウラシノウチクサンブツチョクバイジョユリノサトミルクハウス",
      "business_type": "⑫ アイスクリーム類製造業",
      "address": "千葉県袖ケ浦市横田１２０－１",
      "lat": 35.388437,
      "lng": 140.037195,
      "geocoding_level": null,
      "phone": "0438-60-2550",
      "license_no": "20230001",
      "license_date": "2023-04-10",
      "expire_date": "2029-04-30"
    },
    {
      "name": "袖ケ浦加工室",
      "name_kana": "ソデガウラカコウシツ",
      "business_type": "⑪ 菓子製造業",
      "address": "千葉県袖ケ浦市横田120-1",
      "lat": 35.388645,
      "lng": 140.037046,
      "geocoding_level": null,
      "phone": "0438-75-2001",
      "license_no": "20260008",
      "license_date": "2026-05-22",
      "expire_date": "2033-06-30"
    },
    {
      "name": "袖ケ浦加工室",
      "name_kana": "ソデガウラカコウシツ",
      "business_type": "⑳ みそ又はしょうゆ製造業",
      "address": "千葉県袖ケ浦市横田120-1",
      "lat": 35.388645,
      "lng": 140.037046,
      "geocoding_level": null,
      "phone": "0438-75-2001",
      "license_no": "20260001",
      "license_date": "2026-05-22",
      "expire_date": "2033-06-30"
    },
    {
      "name": "袖ケ浦加工室",
      "name_kana": "ソデガウラカコウシツ",
      "business_type": "㉕ そうざい製造業",
      "address": "千葉県袖ケ浦市横田120-1",
      "lat": 35.388645,
      "lng": 140.037046,
      "geocoding_level": null,
      "phone": "0438-75-2001",
      "license_no": "20260004",
      "license_date": "2026-05-22",
      "expire_date": "2033-06-30"
    },
    {
      "name": "袖ケ浦加工室",
      "name_kana": "ソデガウラカコウシツ",
      "business_type": "㉚ 密封包装食品製造業",
      "address": "千葉県袖ケ浦市横田120-1",
      "lat": 35.388645,
      "lng": 140.037046,
      "geocoding_level": null,
      "phone": "0438-75-2001",
      "license_no": "20260001",
      "license_date": "2026-05-22",
      "expire_date": "2033-06-30"
    },
    {
      "name": "メフォス東日本１０３３４号店",
      "name_kana": "メフォスヒガシニホンイチゼロサンサンヨンゴウテン",
      "business_type": "① 飲食店営業",
      "address": "千葉県袖ケ浦市代宿８８－１７",
      "lat": 35.458872,
      "lng": 140.024716,
      "geocoding_level": null,
      "phone": "",
      "license_no": "20240064",
      "license_date": "2024-04-26",
      "expire_date": "2030-05-31"
    },
    {
      "name": "スクルドエンジェル保育園袖ケ浦園Ⅰ",
      "name_kana": "スクルドエンジェルホイクエンソデガウラエンイチ",
      "business_type": "㉖ 集団給食施設",
      "address": "千葉県袖ケ浦市袖ケ浦駅前一丁目39番地10",
      "lat": 35.432694,
      "lng": 139.954419,
      "geocoding_level": null,
      "phone": "0438421553",
      "license_no": "",
      "license_date": null,
      "expire_date": null
    },
    {
      "name": "スクルドエンジェル保育園袖ケ浦園Ⅱ",
      "name_kana": "スクルドエンジェルホイクエンソデガウラエンニ",
      "business_type": "㉖ 集団給食施設",
      "address": "千葉県袖ケ浦市袖ケ浦駅前一丁目39番地10",
      "lat": 35.432694,
      "lng": 139.954419,
      "geocoding_level": null,
      "phone": "0438421553",
      "license_no": "",
      "license_date": null,
      "expire_date": null
    },
    {
      "name": "スクルドエンジェル保育園望海園",
      "name_kana": "スクルドエンジェルホイクエンノゾミエン",
      "business_type": "㉖ 集団給食施設",
      "address": "千葉県袖ケ浦市袖ケ浦駅前2丁目14番6号",
      "lat": 35.437372,
      "lng": 139.951166,
      "geocoding_level": null,
      "phone": "0438421743",
      "license_no": "",
      "license_date": null,
      "expire_date": null
    },
    {
      "name": "スクルドエンジェル保育園神納園",
      "name_kana": "スクルドエンジェルホイクエンカンノウエン",
      "business_type": "㉖ 集団給食施設",
      "address": "千葉県袖ケ浦市神納2722-3",
      "lat": 35.4292,
      "lng": 139.980261,
      "geocoding_level": null,
      "phone": "0438421045",
      "license_no": "",
      "license_date": null,
      "expire_date": null
    },
    {
      "name": "スクルドエンジェル保育園袖ケ浦園Ⅲ",
      "name_kana": "スクルドエンジェルホイクエンソデガウラエンサン",
      "business_type": "㉖ 集団給食施設",
      "address": "千葉県袖ケ浦市袖ケ浦駅前1-39-13 ウィザースレジデンス袖ケ浦Ⅱ 1F",
      "lat": 35.433838,
      "lng": 139.955916,
      "geocoding_level": null,
      "phone": "0438-73-3624",
      "license_no": "",
      "license_date": null,
      "expire_date": null
    },
    {
      "name": "横河システム建築　千葉工場　社員食堂",
      "name_kana": "ヨコカワシステムケンセツチバコウジョウシャインショクドウ",
      "business_type": "① 飲食店営業",
      "address": "千葉県袖ケ浦市南袖１１",
      "lat": 35.443913,
      "lng": 139.95922,
      "geocoding_level": null,
      "phone": "",
      "license_no": "20210591",
      "license_date": "2021-12-17",
      "expire_date": "2027-12-31"
    },
    {
      "name": "エア・ウオーター・ハイドロ㈱　袖ヶ浦工場",
      "name_kana": "エア・ウオーター・ハイドロカブシキカイシャ　ソデガウラコウジョウ",
      "business_type": "⑭ 添加物製造・加工業（法第13 条第１項の規定により規格が定められた添加物の製造を除く。）",
      "address": "千葉県袖ケ浦市北袖24番地",
      "lat": 35.460942,
      "lng": 140.002525,
      "geocoding_level": null,
      "phone": "0438-62-0771",
      "license_no": "",
      "license_date": null,
      "expire_date": null
    },
    {
      "name": "有限会社サンイチ商事",
      "name_kana": "ユウゲンガイシャサンイチショウジ",
      "business_type": "③ 乳類販売業",
      "address": "千葉県袖ケ浦市今井3-28-2",
      "lat": 35.439303,
      "lng": 139.969638,
      "geocoding_level": null,
      "phone": "0438630015",
      "license_no": "",
      "license_date": null,
      "expire_date": null
    },
    {
      "name": "サンライズファーム　東京ドイツ村店",
      "name_kana": "サンライズファームトウキョウドイツムラテン",
      "business_type": "① 飲食店営業",
      "address": "千葉県袖ケ浦市永吉４１９ 東京ドイツ村内サンライズファーム",
      "lat": 35.404644,
      "lng": 140.055249,
      "geocoding_level": null,
      "phone": "",
      "license_no": "20230386",
      "license_date": "2023-10-23",
      "expire_date": "2028-10-31"
    },
    {
      "name": "袖ケ浦市立　平川保育所",
      "name_kana": "ソデガウラシリツヒラカワホイクジョ",
      "business_type": "① 飲食店営業",
      "address": "千葉県袖ケ浦市三箇１９６５",
      "lat": 35.389037,
      "lng": 140.057447,
      "geocoding_level": null,
      "phone": "",
      "license_no": "20210383",
      "license_date": "2021-09-16",
      "expire_date": "2028-09-30"
    },
    {
      "name": "袖ケ浦市立　福王台保育所",
      "name_kana": "ソデガウラシリツフクオウダイホイクショ",
      "business_type": "① 飲食店営業",
      "address": "千葉県袖ケ浦市神納２－１９－４",
      "lat": 35.422095,
      "lng": 139.960924,
      "geocoding_level": null,
      "phone": "",
      "license_no": "20210381",
      "license_date": "2021-09-14",
      "expire_date": "2028-09-30"
    },
    {
      "name": "袖ケ浦市立　久保田保育所",
      "name_kana": "ソデガウラシリツクボタホイクショ",
      "business_type": "① 飲食店営業",
      "address": "千葉県袖ケ浦市久保田１７９９－３",
      "lat": 35.445451,
      "lng": 140.015276,
      "geocoding_level": null,
      "phone": "",
      "license_no": "20210379",
      "license_date": "2021-09-14",
      "expire_date": "2028-09-30"
    },
    {
      "name": "袖ケ浦市立　根形保育所",
      "name_kana": "ソデガウラシリツネガタホイクショ",
      "business_type": "① 飲食店営業",
      "address": "千葉県袖ケ浦市下新田１０６－１",
      "lat": 35.414571,
      "lng": 139.999398,
      "geocoding_level": null,
      "phone": "",
      "license_no": "20210380",
      "license_date": "2021-09-14",
      "expire_date": "2028-09-30"
    },
    {
      "name": "袖ケ浦学園",
      "name_kana": "ソデガウラガクエン",
      "business_type": "① 飲食店営業",
      "address": "千葉県袖ケ浦市上泉１７６７－２１",
      "lat": 35.421574,
      "lng": 140.053705,
      "geocoding_level": null,
      "phone": "0438-75-4585",
      "license_no": "20210826",
      "license_date": "2022-03-24",
      "expire_date": "2028-04-30"
    },
    {
      "name": "みどりの風　袖ケ浦",
      "name_kana": "ミドリノカゼ　ソデガウラ",
      "business_type": "① 飲食店営業",
      "address": "千葉県袖ケ浦市下泉１４２５",
      "lat": 35.421511,
      "lng": 140.034768,
      "geocoding_level": null,
      "phone": "0438758686",
      "license_no": "20220265",
      "license_date": "2022-07-21",
      "expire_date": "2028-08-31"
    },
    {
      "name": "福王台外科内科",
      "name_kana": "フクオウダイゲカナイカ",
      "business_type": "① 飲食店営業",
      "address": "千葉県袖ケ浦市福王台１－１０－９",
      "lat": 35.428554,
      "lng": 139.958904,
      "geocoding_level": null,
      "phone": "",
      "license_no": "20230090",
      "license_date": "2023-05-25",
      "expire_date": "2030-06-30"
    },
    {
      "name": "特別養護老人ホーム　みどりの樹",
      "name_kana": "ミドリノキ",
      "business_type": "① 飲食店営業",
      "address": "千葉県袖ケ浦市下泉１４２４－３",
      "lat": 35.421148,
      "lng": 140.034756,
      "geocoding_level": null,
      "phone": "",
      "license_no": "20230097",
      "license_date": "2023-05-25",
      "expire_date": "2030-06-30"
    },
    {
      "name": "みどりの丘保育園",
      "name_kana": "ミドリノオカホイクエン",
      "business_type": "① 飲食店営業",
      "address": "千葉県袖ケ浦市蔵波３１０８－１７７",
      "lat": 35.428831,
      "lng": 140.02565,
      "geocoding_level": null,
      "phone": "0438-97-7610",
      "license_no": "20250640",
      "license_date": "2026-03-19",
      "expire_date": "2033-04-30"
    },
    {
      "name": "ありはら",
      "name_kana": "アリハラ",
      "business_type": "① 飲食店営業",
      "address": "千葉県袖ケ浦市百目木２１８",
      "lat": 35.379902,
      "lng": 140.03304,
      "geocoding_level": null,
      "phone": "",
      "license_no": "20210329",
      "license_date": "2021-08-12",
      "expire_date": "2027-09-30"
    },
    {
      "name": "ありはら",
      "name_kana": "アリハラ",
      "business_type": "⑪ 菓子製造業",
      "address": "千葉県袖ケ浦市百目木２１８",
      "lat": 35.379902,
      "lng": 140.03304,
      "geocoding_level": null,
      "phone": "",
      "license_no": "20210022",
      "license_date": "2021-08-12",
      "expire_date": "2027-09-30"
    },
    {
      "name": "有限会社鈴木安太郎商店千葉冷蔵センター",
      "name_kana": "ユウゲンカイシャ　スズキヤスタロウショウテン　チバレイゾウセンター",
      "business_type": "㉙ その他",
      "address": "千葉県袖ケ浦市南袖４１",
      "lat": 35.44891,
      "lng": 139.957759,
      "geocoding_level": null,
      "phone": "0438633338",
      "license_no": "",
      "license_date": null,
      "expire_date": null
    },
    {
      "name": "東京湾カントリークラブ",
      "name_kana": "トウキョウワンカントリークラブ",
      "business_type": "⑪ 百貨店、総合スーパー",
      "address": "千葉県袖ケ浦市蔵波１１４７番地",
      "lat": 35.43827,
      "lng": 140.010973,
      "geocoding_level": null,
      "phone": "0438-60-2028",
      "license_no": "",
      "license_date": null,
      "expire_date": null
    },
    {
      "name": "東京湾カントリークラブ",
      "name_kana": "トウキョウワンカントリークラブ",
      "business_type": "① 飲食店営業",
      "address": "千葉県袖ケ浦市蔵波１１４７",
      "lat": 35.43827,
      "lng": 140.010973,
      "geocoding_level": null,
      "phone": "0438-60-2028",
      "license_no": "20220035",
      "license_date": "2022-04-14",
      "expire_date": "2028-05-31"
    },
    {
      "name": "ジョイフーズ　横田店",
      "name_kana": "ジョイフーズ　ヨコタテン",
      "business_type": "⑪ 百貨店、総合スーパー",
      "address": "千葉県袖ケ浦市横田１９１５",
      "lat": 35.384869,
      "lng": 140.023841,
      "geocoding_level": null,
      "phone": "0120-944-307",
      "license_no": "",
      "license_date": null,
      "expire_date": null
    },
    {
      "name": "尾張屋　長浦店",
      "name_kana": "オワリヤナガウラテン",
      "business_type": "⑪ 百貨店、総合スーパー",
      "address": "千葉県袖ケ浦市蔵波台４－２３－１２",
      "lat": 35.441014,
      "lng": 140.000648,
      "geocoding_level": null,
      "phone": "0120-944-307",
      "license_no": "",
      "license_date": null,
      "expire_date": null
    },
    {
      "name": "ジョイフーズ　横田店",
      "name_kana": "ジョイフーズ　ヨコタテン",
      "business_type": "④ 魚介類販売業",
      "address": "千葉県袖ケ浦市横田１９１５",
      "lat": 35.384869,
      "lng": 140.023841,
      "geocoding_level": null,
      "phone": "0438-20-6555",
      "license_no": "20220005",
      "license_date": "2022-09-29",
      "expire_date": "2028-10-31"
    },
    {
      "name": "ジョイフーズ　横田店",
      "name_kana": "ジョイフーズ　ヨコタテン",
      "business_type": "③ 食肉販売業",
      "address": "千葉県袖ケ浦市横田１９１５",
      "lat": 35.384869,
      "lng": 140.023841,
      "geocoding_level": null,
      "phone": "0438-20-6555",
      "license_no": "20220004",
      "license_date": "2022-09-29",
      "expire_date": "2028-10-31"
    },
    {
      "name": "ジョイフーズ　横田店",
      "name_kana": "ジョイフーズ　ヨコタテン",
      "business_type": "① 飲食店営業",
      "address": "千葉県袖ケ浦市横田1915",
      "lat": 35.384869,
      "lng": 140.023841,
      "geocoding_level": null,
      "phone": "",
      "license_no": "20240286",
      "license_date": "2024-08-23",
      "expire_date": "2030-09-30"
    },
    {
      "name": "ジョイフーズ　横田店",
      "name_kana": "ジョイフーズ　ヨコタテン",
      "business_type": "① 飲食店営業",
      "address": "千葉県袖ケ浦市横田1915",
      "lat": 35.384869,
      "lng": 140.023841,
      "geocoding_level": null,
      "phone": "",
      "license_no": "20240312",
      "license_date": "2024-09-13",
      "expire_date": "2030-10-31"
    },
    {
      "name": "ローズヒップ",
      "name_kana": "ローズヒップ",
      "business_type": "① 飲食店営業",
      "address": "千葉県袖ケ浦市蔵波２８８７－１",
      "lat": 35.436881,
      "lng": 139.99561,
      "geocoding_level": null,
      "phone": "0438-63-5352",
      "license_no": "20210384",
      "license_date": "2021-09-16",
      "expire_date": "2027-10-31"
    },
    {
      "name": "創作ダイニング　タベルネ　ペッシュ",
      "name_kana": "ソウサクダイニングタベルネペッシュ",
      "business_type": "① 飲食店営業",
      "address": "千葉県袖ケ浦市長浦駅前３－１－３",
      "lat": 35.448996,
      "lng": 139.998256,
      "geocoding_level": null,
      "phone": "",
      "license_no": "20210353",
      "license_date": "2021-08-30",
      "expire_date": "2026-09-30"
    },
    {
      "name": "カラオケＢａｒ　環",
      "name_kana": "カラオケバータマキ",
      "business_type": "① 飲食店営業",
      "address": "千葉県袖ケ浦市今井１－４６",
      "lat": 35.440218,
      "lng": 139.976455,
      "geocoding_level": null,
      "phone": "",
      "license_no": "20210362",
      "license_date": "2021-09-02",
      "expire_date": "2027-10-31"
    },
    {
      "name": "ウエルシア袖ケ浦奈良輪店",
      "name_kana": "ウエルシアソデガウラナラワテン",
      "business_type": "⑪ 百貨店、総合スーパー",
      "address": "千葉県袖ケ浦市奈良輪1416",
      "lat": 35.434211,
      "lng": 139.959762,
      "geocoding_level": null,
      "phone": "0438-63-8031",
      "license_no": "",
      "license_date": null,
      "expire_date": null
    },
    {
      "name": "ウエルシア袖ケ浦奈良輪店",
      "name_kana": "ウエルシアソデガウラナラワテン",
      "business_type": "⑫ 自動販売機による販売業（コップ式自動販売機（自動洗浄・屋内設置）及び営業許可の対象となる自動販売機を除く）",
      "address": "千葉県袖ケ浦市奈良輪1416",
      "lat": 35.434211,
      "lng": 139.959762,
      "geocoding_level": null,
      "phone": "0438-63-8031",
      "license_no": "",
      "license_date": null,
      "expire_date": null
    },
    {
      "name": "ＦＡＲＭ　ＣＯＵＲＴ",
      "name_kana": "ファームコート",
      "business_type": "⑬ その他の食料・飲料販売業",
      "address": "千葉県袖ケ浦市袖ケ浦駅前１－３９－１２ ゆりまち袖ケ浦駅前モール内",
      "lat": 35.433037,
      "lng": 139.956913,
      "geocoding_level": null,
      "phone": "0438-97-7855",
      "license_no": "",
      "license_date": null,
      "expire_date": null
    },
    {
      "name": "FARM COURT",
      "name_kana": "ファームコート",
      "business_type": "① 飲食店営業",
      "address": "千葉県袖ケ浦市袖ケ浦駅前１－３９－１２ ゆりまち袖ケ浦駅前モール内",
      "lat": 35.433037,
      "lng": 139.956913,
      "geocoding_level": null,
      "phone": "0438-97-7855",
      "license_no": "20210387",
      "license_date": "2021-09-24",
      "expire_date": "2027-09-30"
    },
    {
      "name": "ほっともっと長浦店",
      "name_kana": "ホットモットナガウラテン",
      "business_type": "① 飲食店営業",
      "address": "千葉県袖ケ浦市長浦駅前2-2-15",
      "lat": 35.448976,
      "lng": 139.999298,
      "geocoding_level": null,
      "phone": "0438-60-2492",
      "license_no": "20220135",
      "license_date": "2022-06-17",
      "expire_date": "2028-06-30"
    },
    {
      "name": "ウエルシア袖ケ浦横田店",
      "name_kana": "ウエルシアソデガウラヨコタテン",
      "business_type": "⑪ 百貨店、総合スーパー",
      "address": "千葉県袖ケ浦市横田2632番1",
      "lat": 35.384488,
      "lng": 140.016995,
      "geocoding_level": null,
      "phone": "0438-75-7781",
      "license_no": "",
      "license_date": null,
      "expire_date": null
    },
    {
      "name": "ウエルシア袖ケ浦横田店",
      "name_kana": "ウエルシアソデガウラヨコタテン",
      "business_type": "⑫ 自動販売機による販売業（コップ式自動販売機（自動洗浄・屋内設置）及び営業許可の対象となる自動販売機を除く）",
      "address": "千葉県袖ケ浦市横田2632番1",
      "lat": 35.384488,
      "lng": 140.016995,
      "geocoding_level": null,
      "phone": "0438-75-7781",
      "license_no": "",
      "license_date": null,
      "expire_date": null
    },
    {
      "name": "ＨＣ神納",
      "name_kana": "カンノウ",
      "business_type": "① 飲食店営業",
      "address": "千葉県袖ケ浦市神納４１８１番２０",
      "lat": 35.437782,
      "lng": 139.99026,
      "geocoding_level": null,
      "phone": "0438-64-0250",
      "license_no": "20210396",
      "license_date": "2021-09-30",
      "expire_date": "2028-10-31"
    },
    {
      "name": "ミニストップ袖ケ浦福王台３丁目店",
      "name_kana": "ミニストップソデガウラフクオウダイサンチョウメテン",
      "business_type": "① 飲食店営業",
      "address": "千葉県袖ケ浦市福王台３－１－５",
      "lat": 35.426969,
      "lng": 139.963403,
      "geocoding_level": null,
      "phone": "",
      "license_no": "20210410",
      "license_date": "2021-09-28",
      "expire_date": "2027-10-31"
    },
    {
      "name": "ミニストップ袖ケ浦福王台3丁目店",
      "name_kana": "ミニストップソデガウラフクオウダイサンチョウメテン",
      "business_type": "⑩ コンビニエンスストア",
      "address": "千葉県袖ケ浦市福王台３－１－５",
      "lat": 35.426969,
      "lng": 139.963403,
      "geocoding_level": null,
      "phone": "",
      "license_no": "",
      "license_date": null,
      "expire_date": null
    },
    {
      "name": "ミニストップ　袖ケ浦神納店",
      "name_kana": "ミニストップソデガウラカンノウテン",
      "business_type": "① 飲食店営業",
      "address": "千葉県袖ケ浦市神納１１５１－４",
      "lat": 35.419917,
      "lng": 139.957681,
      "geocoding_level": null,
      "phone": "0438-60-8170",
      "license_no": "20210572",
      "license_date": "2021-12-06",
      "expire_date": "2029-01-31"
    },
    {
      "name": "ミニストップ　袖ケ浦神納店",
      "name_kana": "ミニストップソデガウラカンノウテン",
      "business_type": "⑩ コンビニエンスストア",
      "address": "千葉県袖ケ浦市神納１１５１－４",
      "lat": 35.419917,
      "lng": 139.957681,
      "geocoding_level": null,
      "phone": "0438-60-8170",
      "license_no": "",
      "license_date": null,
      "expire_date": null
    },
    {
      "name": "セブンイレブン袖ヶ浦東横田店",
      "name_kana": "セブンイレブンソデガウラヒガシヨコタテン",
      "business_type": "① 飲食店営業",
      "address": "千葉県袖ケ浦市横田４０８",
      "lat": 35.385265,
      "lng": 140.031459,
      "geocoding_level": null,
      "phone": "0438-75-2228",
      "license_no": "20210742",
      "license_date": "2022-03-14",
      "expire_date": "2028-03-31"
    },
    {
      "name": "セブンイレブン袖ケ浦東横田店",
      "name_kana": "セブンイレブンソデガウラヒガシヨコタテン",
      "business_type": "⑩ コンビニエンスストア",
      "address": "千葉県袖ケ浦市横田４０８",
      "lat": 35.385265,
      "lng": 140.031459,
      "geocoding_level": null,
      "phone": "",
      "license_no": "",
      "license_date": null,
      "expire_date": null
    },
    {
      "name": "セブンイレブン袖ケ浦駅北口店",
      "name_kana": "セブンイレブンソデガウラエキキタグチテン",
      "business_type": "① 飲食店営業",
      "address": "千葉県袖ケ浦市袖ケ浦駅前１－３３－２",
      "lat": 35.430472,
      "lng": 139.956877,
      "geocoding_level": null,
      "phone": "0438-62-7113",
      "license_no": "20210743",
      "license_date": "2022-03-03",
      "expire_date": "2028-03-31"
    },
    {
      "name": "セブンイレブン袖ケ浦駅北口店",
      "name_kana": "セブンイレブンソデガウラエキキタグチテン",
      "business_type": "⑩ コンビニエンスストア",
      "address": "千葉県袖ケ浦市袖ケ浦駅前１－３３－２",
      "lat": 35.435126,
      "lng": 139.953352,
      "geocoding_level": null,
      "phone": "0438-62-7113",
      "license_no": "",
      "license_date": null,
      "expire_date": null
    },
    {
      "name": "セブンイレブン袖ヶ浦福王台店",
      "name_kana": "セブンイレブンソデガウラフクオウダイテン",
      "business_type": "① 飲食店営業",
      "address": "千葉県袖ケ浦市福王台３－３０－１２",
      "lat": 35.431617,
      "lng": 139.967435,
      "geocoding_level": null,
      "phone": "0438-63-1070",
      "license_no": "20210741",
      "license_date": "2022-03-03",
      "expire_date": "2028-03-31"
    },
    {
      "name": "セブンイレブン袖ヶ浦福王台店",
      "name_kana": "セブンイレブンソデガウラフクオウダイテン",
      "business_type": "⑩ コンビニエンスストア",
      "address": "千葉県袖ケ浦市福王台３－３０－１２",
      "lat": 35.431617,
      "lng": 139.967435,
      "geocoding_level": null,
      "phone": "0438-63-1070",
      "license_no": "",
      "license_date": null,
      "expire_date": null
    },
    {
      "name": "セブンイレブン袖ケ浦市役所北店",
      "name_kana": "セブンイレブンソデガウラシヤクショキタテン",
      "business_type": "① 飲食店営業",
      "address": "千葉県袖ケ浦市袖ケ浦駅前１－９－７",
      "lat": 35.435126,
      "lng": 139.953352,
      "geocoding_level": null,
      "phone": "0438-60-1218",
      "license_no": "20210740",
      "license_date": "2022-03-03",
      "expire_date": "2028-03-31"
    },
    {
      "name": "フジフーズ株式会社　袖ヶ浦工場",
      "name_kana": "フジフーズカブシキガイシャソデガウラコウジョウ",
      "business_type": "㉖ 複合型そうざい製造業",
      "address": "千葉県袖ケ浦市大鳥居６２２－１",
      "lat": 35.390755,
      "lng": 139.997995,
      "geocoding_level": null,
      "phone": "0438-75-3511",
      "license_no": "20230001",
      "license_date": "2023-07-13",
      "expire_date": "2029-08-31"
    },
    {
      "name": "木更津ホルモン　長浦駅前店",
      "name_kana": "キサラヅホルモン　ナガウラエキマエテン",
      "business_type": "① 飲食店営業",
      "address": "千葉県袖ケ浦市長浦駅前１－５－７－２号",
      "lat": 35.449276,
      "lng": 139.998416,
      "geocoding_level": null,
      "phone": "0438626858",
      "license_no": "20220111",
      "license_date": "2022-05-31",
      "expire_date": "2028-06-30"
    },
    {
      "name": "美川屋千葉880あ20-15",
      "name_kana": "ミカワヤ",
      "business_type": "⑬ その他の食料・飲料販売業",
      "address": "千葉県袖ケ浦市神納1-17-25",
      "lat": 35.424155,
      "lng": 139.959121,
      "geocoding_level": null,
      "phone": "09078624637",
      "license_no": "",
      "license_date": null,
      "expire_date": null
    },
    {
      "name": "やなせストアー",
      "name_kana": "ヤナセストアー",
      "business_type": "⑬ その他の食料・飲料販売業",
      "address": "千葉県袖ケ浦市坂戸市場１５３３",
      "lat": 35.425579,
      "lng": 139.949546,
      "geocoding_level": null,
      "phone": "",
      "license_no": "",
      "license_date": null,
      "expire_date": null
    },
    {
      "name": "信寿司",
      "name_kana": "シンズシ",
      "business_type": "① 飲食店営業",
      "address": "千葉県袖ケ浦市横田３７３７－７",
      "lat": 35.383578,
      "lng": 140.016258,
      "geocoding_level": null,
      "phone": "",
      "license_no": "20210431",
      "license_date": "2021-10-07",
      "expire_date": "2027-11-30"
    },
    {
      "name": "ユーカリ保育園",
      "name_kana": "ユーカリホイクエン",
      "business_type": "㉖ 集団給食施設",
      "address": "千葉県袖ケ浦市袖ケ浦駅前１－２２－３",
      "lat": 35.435126,
      "lng": 139.953352,
      "geocoding_level": null,
      "phone": "0438-40-5356",
      "license_no": "",
      "license_date": null,
      "expire_date": null
    },
    {
      "name": "小僧寿し　長浦店",
      "name_kana": "コゾウズシナガウラテン",
      "business_type": "① 飲食店営業",
      "address": "千葉県袖ケ浦市長浦駅前２－４－６",
      "lat": 35.448221,
      "lng": 140.001712,
      "geocoding_level": null,
      "phone": "",
      "license_no": "20230002",
      "license_date": "2023-04-06",
      "expire_date": "2029-05-31"
    },
    {
      "name": "小僧寿し　長浦店",
      "name_kana": "コゾウスシナガウラテン",
      "business_type": "⑬ その他の食料・飲料販売業",
      "address": "千葉県袖ケ浦市長浦駅前２－４－６",
      "lat": 35.448221,
      "lng": 140.001712,
      "geocoding_level": null,
      "phone": "",
      "license_no": "",
      "license_date": null,
      "expire_date": null
    },
    {
      "name": "お好み焼　安芸",
      "name_kana": "オコノミヤキアキ",
      "business_type": "① 飲食店営業",
      "address": "千葉県袖ケ浦市福王台１－１１－１６",
      "lat": 35.428637,
      "lng": 139.959381,
      "geocoding_level": null,
      "phone": "0438-63-5110",
      "license_no": "2021-446",
      "license_date": "2021-10-14",
      "expire_date": "2027-11-30"
    },
    {
      "name": "千代寿司",
      "name_kana": "チヨズシ",
      "business_type": "① 飲食店営業",
      "address": "千葉県袖ケ浦市長浦駅前４－１－１",
      "lat": 35.446257,
      "lng": 140.005078,
      "geocoding_level": null,
      "phone": "0438-63-5758",
      "license_no": "20210465",
      "license_date": "2021-10-14",
      "expire_date": "2027-11-30"
    },
    {
      "name": "居酒屋　れん",
      "name_kana": "イザカヤレン",
      "business_type": "① 飲食店営業",
      "address": "千葉県袖ケ浦市蔵波台２－２２－７",
      "lat": 35.442107,
      "lng": 139.991882,
      "geocoding_level": null,
      "phone": "0438-63-0065",
      "license_no": "20210476",
      "license_date": "2021-10-21",
      "expire_date": "2027-11-30"
    },
    {
      "name": "豊ガスケット株式会社",
      "name_kana": "ユタカガスケットカブシキガイシャ",
      "business_type": "㉗ 器具、容器包装の製造・加工業（合成樹脂が使用された器具又は容器包装の製造、加工に限る。）",
      "address": "千葉県袖ケ浦市上泉１７６４－８",
      "lat": 35.422636,
      "lng": 140.046935,
      "geocoding_level": null,
      "phone": "0439-40-4491",
      "license_no": "",
      "license_date": null,
      "expire_date": null
    },
    {
      "name": "牛角　袖ヶ浦店",
      "name_kana": "ギュウカク　ソデガウラテン",
      "business_type": "① 飲食店営業",
      "address": "千葉県袖ケ浦市蔵波台5－19－1",
      "lat": 35.439003,
      "lng": 139.997788,
      "geocoding_level": null,
      "phone": "0438608829",
      "license_no": "20240619",
      "license_date": "2025-03-14",
      "expire_date": "2031-04-30"
    },
    {
      "name": "生活協同組合コープみらい　ミニコープ蔵波店",
      "name_kana": "セイカツキョウドウクミアイ　ミニコープクラナミテン",
      "business_type": "⑪ 百貨店、総合スーパー",
      "address": "千葉県袖ケ浦市蔵波台2-28-20",
      "lat": 35.443295,
      "lng": 139.991193,
      "geocoding_level": null,
      "phone": "0438-63-7579",
      "license_no": "",
      "license_date": null,
      "expire_date": null
    },
    {
      "name": "生活協同組合コープみらい　コープの移動店舗ふれあい便",
      "name_kana": "セイカツキョウドウクミアイコープミライ　コープノイドウテンポフレアイビン",
      "business_type": "⑬ その他の食料・飲料販売業",
      "address": "千葉県袖ケ浦市蔵波台2-28-20(県内一円)",
      "lat": 35.443295,
      "lng": 139.991193,
      "geocoding_level": null,
      "phone": "0438-63-7579",
      "license_no": "",
      "license_date": null,
      "expire_date": null
    },
    {
      "name": "生活協同組合コープみらい　ミニコープ蔵波店（惣菜作業室）",
      "name_kana": "セイカツキョウドウクミアイコープミライ　ミニコープクラナミテン",
      "business_type": "① 飲食店営業",
      "address": "千葉県袖ケ浦市蔵波台２－２８－２０",
      "lat": 35.443282,
      "lng": 139.99121,
      "geocoding_level": null,
      "phone": "0438-63-7579",
      "license_no": "20260083",
      "license_date": "2026-05-15",
      "expire_date": "2032-06-30"
    },
    {
      "name": "多機能型事業所かんてら",
      "name_kana": "タキノウガタジギョウショカンテラ",
      "business_type": "⑰ 農産保存食料品製造・加工業",
      "address": "千葉県袖ケ浦市吉野田１４４番地",
      "lat": 35.364175,
      "lng": 140.006936,
      "geocoding_level": null,
      "phone": "0438-75-8188",
      "license_no": "",
      "license_date": null,
      "expire_date": null
    },
    {
      "name": "サイゼリヤ袖ヶ浦蔵波台店",
      "name_kana": "サイゼリヤソデガウラクラナミダイテン",
      "business_type": "⑬ その他の食料・飲料販売業",
      "address": "千葉県袖ケ浦市蔵波台7-16-11",
      "lat": 35.441209,
      "lng": 140.001911,
      "geocoding_level": null,
      "phone": "0438-63-5742",
      "license_no": "",
      "license_date": null,
      "expire_date": null
    },
    {
      "name": "サイゼリヤゆりまち袖ケ浦駅前モール店",
      "name_kana": "サイゼリヤユリマチソデガウラエキマエモールテン",
      "business_type": "⑬ その他の食料・飲料販売業",
      "address": "千葉県袖ケ浦市袖ケ浦駅前1-39-10",
      "lat": 35.432694,
      "lng": 139.954419,
      "geocoding_level": null,
      "phone": "0438-60-1031",
      "license_no": "",
      "license_date": null,
      "expire_date": null
    },
    {
      "name": "魚料理専門店　わかせい",
      "name_kana": "サカナリョウリセンモンテンワカセイ",
      "business_type": "① 飲食店営業",
      "address": "千葉県袖ケ浦市福王台２－１２－１６",
      "lat": 35.430393,
      "lng": 139.965101,
      "geocoding_level": null,
      "phone": "0438-62-3438",
      "license_no": "20210526",
      "license_date": "2021-11-15",
      "expire_date": "2027-12-31"
    },
    {
      "name": "ローソン・スリーエフ　袖ケ浦さつき台店",
      "name_kana": "ローソンスリーエフソデガウラサツキダイテン",
      "business_type": "① 飲食店営業",
      "address": "千葉県袖ケ浦市長浦駅前３丁目１２番地３",
      "lat": 35.447394,
      "lng": 140.003307,
      "geocoding_level": null,
      "phone": "0438-64-0560",
      "license_no": "20210531",
      "license_date": "2021-11-15",
      "expire_date": "2026-12-31"
    },
    {
      "name": "ローソン・スリーエフ　袖ケ浦さつき台店",
      "name_kana": "ローソンスリーエフソデガウラサツキダイテン",
      "business_type": "⑩ コンビニエンスストア",
      "address": "千葉県袖ケ浦市長浦駅前３丁目１２番地３",
      "lat": 35.447394,
      "lng": 140.003307,
      "geocoding_level": null,
      "phone": "0438-64-0560",
      "license_no": "",
      "license_date": null,
      "expire_date": null
    },
    {
      "name": "ファミリーマート袖ヶ浦蔵波店",
      "name_kana": "ファミリーマートソデガウラクラナミテン",
      "business_type": "⑩ コンビニエンスストア",
      "address": "千葉県袖ケ浦市蔵波台7-15-21",
      "lat": 35.442106,
      "lng": 140.003788,
      "geocoding_level": null,
      "phone": "",
      "license_no": "",
      "license_date": null,
      "expire_date": null
    },
    {
      "name": "松屋　袖ヶ浦店",
      "name_kana": "マツヤ　ソデガウラテン",
      "business_type": "① 飲食店営業",
      "address": "千葉県袖ケ浦市福王台3-12-4",
      "lat": 35.427993,
      "lng": 139.963903,
      "geocoding_level": null,
      "phone": "080-5928-0827",
      "license_no": "20220660",
      "license_date": "2023-03-06",
      "expire_date": "2030-04-30"
    },
    {
      "name": "キリカエ",
      "name_kana": "キリカエ",
      "business_type": "㉔ その他の食料品製造・加工業",
      "address": "千葉県袖ケ浦市上泉１４４３",
      "lat": 35.414884,
      "lng": 140.05843,
      "geocoding_level": null,
      "phone": "",
      "license_no": "",
      "license_date": null,
      "expire_date": null
    },
    {
      "name": "らーめん　とも",
      "name_kana": "ラーメン　トモ",
      "business_type": "① 飲食店営業",
      "address": "千葉県袖ケ浦市長浦駅前3-3-1",
      "lat": 35.448167,
      "lng": 140.000621,
      "geocoding_level": null,
      "phone": "0438-62-6275",
      "license_no": "20210601",
      "license_date": "2021-12-13",
      "expire_date": "2028-01-31"
    },
    {
      "name": "ファームたかはし",
      "name_kana": "ファームタカハシ",
      "business_type": "⑰ 農産保存食料品製造・加工業",
      "address": "千葉県袖ケ浦市永地１８０９",
      "lat": 35.402691,
      "lng": 140.031599,
      "geocoding_level": null,
      "phone": "",
      "license_no": "",
      "license_date": null,
      "expire_date": null
    },
    {
      "name": "ファミリーマート　袖ケ浦奈良輪店",
      "name_kana": "ファミリーマートソデガウラナラワテン",
      "business_type": "⑩ コンビニエンスストア",
      "address": "千葉県袖ケ浦市奈良輪５２６番地１",
      "lat": 35.434412,
      "lng": 139.966369,
      "geocoding_level": null,
      "phone": "0438-60-1156",
      "license_no": "",
      "license_date": null,
      "expire_date": null
    },
    {
      "name": "すき家　16号袖ヶ浦神納店",
      "name_kana": "スキヤ　ジュウロクゴウソデガウラカンノウテン",
      "business_type": "① 飲食店営業",
      "address": "千葉県袖ケ浦市神納1154-1",
      "lat": 35.420749,
      "lng": 139.958356,
      "geocoding_level": null,
      "phone": "",
      "license_no": "20250613",
      "license_date": "2026-03-13",
      "expire_date": "2033-04-30"
    },
    {
      "name": "すき家　16号袖ヶ浦神納店",
      "name_kana": "スキヤ　ジュウロクゴウソデガウラカンノウテン",
      "business_type": "⑬ その他の食料・飲料販売業",
      "address": "千葉県袖ケ浦市神納1154-1",
      "lat": 35.420749,
      "lng": 139.958356,
      "geocoding_level": null,
      "phone": "",
      "license_no": "",
      "license_date": null,
      "expire_date": null
    },
    {
      "name": "くあとろ　木更津ゴルフスタッフ",
      "name_kana": "クアトロキサラヅゴルフスタッフ",
      "business_type": "① 飲食店営業",
      "address": "千葉県袖ケ浦市下宮田２１６",
      "lat": 35.350813,
      "lng": 140.006815,
      "geocoding_level": null,
      "phone": "0438-75-5911",
      "license_no": "20230555",
      "license_date": "2024-02-16",
      "expire_date": "2030-03-31"
    },
    {
      "name": "特別養護老人ホーム蔵波",
      "name_kana": "クラナミ",
      "business_type": "㉖ 集団給食施設",
      "address": "千葉県袖ケ浦市蔵波字二ノ堀3037番１",
      "lat": 35.434273,
      "lng": 140.010945,
      "geocoding_level": null,
      "phone": "0438-38-5551",
      "license_no": "",
      "license_date": null,
      "expire_date": null
    },
    {
      "name": "焼肉　南山",
      "name_kana": "ヤキニク　ナムサン",
      "business_type": "① 飲食店営業",
      "address": "千葉県袖ケ浦市野里１４１７－１",
      "lat": 35.40017,
      "lng": 140.051077,
      "geocoding_level": null,
      "phone": "0438-75-7114",
      "license_no": "20210564",
      "license_date": "2021-11-29",
      "expire_date": "2027-12-31"
    },
    {
      "name": "かげろう",
      "name_kana": "カゲロウ",
      "business_type": "① 飲食店営業",
      "address": "千葉県袖ケ浦市蔵波台４－２０－８",
      "lat": 35.440923,
      "lng": 139.997895,
      "geocoding_level": null,
      "phone": "0438-73-4129",
      "license_no": "20210578",
      "license_date": "2021-12-06",
      "expire_date": "2028-01-31"
    },
    {
      "name": "社会福祉法人　恵福祉会　白ゆり保育園",
      "name_kana": "シャカイフクシホウジン　メグミフクシカイ　シラユリホイクエン",
      "business_type": "㉖ 集団給食施設",
      "address": "千葉県袖ケ浦市蔵波２５９２－１",
      "lat": 35.44094,
      "lng": 139.983527,
      "geocoding_level": null,
      "phone": "0438-38-3258",
      "license_no": "",
      "license_date": null,
      "expire_date": null
    },
    {
      "name": "社会福祉法人　恵福祉会　長浦保育園",
      "name_kana": "シャカイフクシホウジン　メグミフクシカイ　ナガウラホイクエン",
      "business_type": "㉖ 集団給食施設",
      "address": "千葉県袖ケ浦市蔵波２５９８－１",
      "lat": 35.44236,
      "lng": 139.983041,
      "geocoding_level": null,
      "phone": "0438-62-2250",
      "license_no": "",
      "license_date": null,
      "expire_date": null
    },
    {
      "name": "社会福祉法人  恵福祉会　幼保連携型こども園まりん",
      "name_kana": "シャカイフクシホウジンメグミフクシカイヨウホレンケイガタコドモエンマリン",
      "business_type": "㉖ 集団給食施設",
      "address": "千葉県袖ケ浦市袖ケ浦駅前２－３４－２",
      "lat": 35.436108,
      "lng": 139.957031,
      "geocoding_level": null,
      "phone": "0438-38-5101",
      "license_no": "",
      "license_date": null,
      "expire_date": null
    },
    {
      "name": "社会福祉法人　恵福祉会　大空保育園",
      "name_kana": "シャカイフクシホウジン　メグミフクシカイ　オオゾラホイクエン",
      "business_type": "㉖ 集団給食施設",
      "address": "千葉県袖ケ浦市神納1136-1",
      "lat": 35.42072,
      "lng": 139.959207,
      "geocoding_level": null,
      "phone": "0438538224",
      "license_no": "",
      "license_date": null,
      "expire_date": null
    },
    {
      "name": "木更津ラーメン大輝　蔵波台店",
      "name_kana": "キサラヅラーメンダイキクラナミダイテン",
      "business_type": "① 飲食店営業",
      "address": "千葉県袖ケ浦市蔵波台２－２２－７",
      "lat": 35.442107,
      "lng": 139.991882,
      "geocoding_level": null,
      "phone": "050-3580-9942",
      "license_no": "20210611",
      "license_date": "2021-12-28",
      "expire_date": "2027-12-31"
    },
    {
      "name": "のざと菓子屋",
      "name_kana": "ノザトカシヤ",
      "business_type": "① 飲食店営業",
      "address": "千葉県袖ケ浦市野里７２５",
      "lat": 35.398465,
      "lng": 140.042641,
      "geocoding_level": null,
      "phone": "",
      "license_no": "20210584",
      "license_date": "2021-12-06",
      "expire_date": "2028-01-31"
    },
    {
      "name": "合同会社のざと菓子屋",
      "name_kana": "ゴウドウカイシャノザトカシヤ",
      "business_type": "㉙ 漬物製造業",
      "address": "千葉県袖ケ浦市野里７２５",
      "lat": 35.398453,
      "lng": 140.042644,
      "geocoding_level": null,
      "phone": "0438-75-3322",
      "license_no": "20240007",
      "license_date": "2024-08-01",
      "expire_date": "2030-08-31"
    },
    {
      "name": "Bamboo  Garage合同会社",
      "name_kana": "バンブーガレージ",
      "business_type": "⑪ 菓子製造業",
      "address": "千葉県袖ケ浦市奈良輪３３６",
      "lat": 35.435259,
      "lng": 139.968076,
      "geocoding_level": null,
      "phone": "",
      "license_no": "20210045",
      "license_date": "2021-12-03",
      "expire_date": "2027-12-31"
    },
    {
      "name": "Bamboo  Garage合同会社",
      "name_kana": "バンブーガレージ",
      "business_type": "㉕ そうざい製造業",
      "address": "千葉県袖ケ浦市奈良輪３３６",
      "lat": 35.435259,
      "lng": 139.968076,
      "geocoding_level": null,
      "phone": "",
      "license_no": "20210022",
      "license_date": "2021-12-03",
      "expire_date": "2027-12-31"
    },
    {
      "name": "ガウラボ食堂　Ｙｏｋｏｔａ",
      "name_kana": "ガウラボショクドウヨコタ",
      "business_type": "① 飲食店営業",
      "address": "千葉県袖ケ浦市横田２２１１－１",
      "lat": 35.384579,
      "lng": 140.020817,
      "geocoding_level": null,
      "phone": "",
      "license_no": "20240201",
      "license_date": "2024-07-18",
      "expire_date": "2029-07-31"
    },
    {
      "name": "Ｃ＆Ｃ　スーパーのぞみ野マルシェ",
      "name_kana": "シーアンドシースーパーノゾミノマルシェ",
      "business_type": "⑪ 百貨店、総合スーパー",
      "address": "千葉県袖ケ浦市のぞみ野６６－１",
      "lat": 35.418785,
      "lng": 140.025422,
      "geocoding_level": null,
      "phone": "0438-38-3764",
      "license_no": "",
      "license_date": null,
      "expire_date": null
    },
    {
      "name": "ちびマルシェ　家族屋",
      "name_kana": "チビマルシェカゾクヤ",
      "business_type": "① 飲食店営業",
      "address": "千葉県袖ケ浦市蔵波２５－２",
      "lat": 35.451139,
      "lng": 139.995735,
      "geocoding_level": null,
      "phone": "0438-38-3764",
      "license_no": "20230073",
      "license_date": "2023-06-02",
      "expire_date": "2029-06-30"
    },
    {
      "name": "ちびマルシェ　家族屋",
      "name_kana": "チビマルシェカゾクヤ",
      "business_type": "⑬ その他の食料・飲料販売業",
      "address": "千葉県袖ケ浦市蔵波２５－２",
      "lat": 35.451139,
      "lng": 139.995735,
      "geocoding_level": null,
      "phone": "0438-38-3764",
      "license_no": "",
      "license_date": null,
      "expire_date": null
    },
    {
      "name": "いちごキッチン",
      "name_kana": "イチゴキッチン",
      "business_type": "㉖ 集団給食施設",
      "address": "千葉県袖ケ浦市蔵波2674-2",
      "lat": 35.439483,
      "lng": 139.987853,
      "geocoding_level": null,
      "phone": "0438-38-3679",
      "license_no": "",
      "license_date": null,
      "expire_date": null
    },
    {
      "name": "家族屋",
      "name_kana": "カゾクヤ",
      "business_type": "㉖ 集団給食施設",
      "address": "千葉県袖ケ浦市蔵波25-1",
      "lat": 35.451306,
      "lng": 139.995771,
      "geocoding_level": null,
      "phone": "0438-38-3764",
      "license_no": "",
      "license_date": null,
      "expire_date": null
    },
    {
      "name": "花ふじ",
      "name_kana": "ハナフジ",
      "business_type": "① 飲食店営業",
      "address": "千葉県袖ケ浦市今井２－３５",
      "lat": 35.443437,
      "lng": 139.980147,
      "geocoding_level": null,
      "phone": "0438-62-8777",
      "license_no": "20210593",
      "license_date": "2021-12-13",
      "expire_date": "2028-01-31"
    },
    {
      "name": "太陽食堂",
      "name_kana": "タイヨウショクドウ",
      "business_type": "① 飲食店営業",
      "address": "千葉県袖ケ浦市奈良輪１０－３",
      "lat": 35.428847,
      "lng": 139.955736,
      "geocoding_level": null,
      "phone": "",
      "license_no": "20210583",
      "license_date": "2021-12-10",
      "expire_date": "2027-12-31"
    },
    {
      "name": "フラワーライン",
      "name_kana": "フラワーライン",
      "business_type": "⑦ 野菜果物販売業",
      "address": "千葉県袖ケ浦市谷中２４",
      "lat": 35.403539,
      "lng": 140.022861,
      "geocoding_level": null,
      "phone": "",
      "license_no": "",
      "license_date": null,
      "expire_date": null
    },
    {
      "name": "フラワーライン",
      "name_kana": "フラワーライン",
      "business_type": "① 飲食店営業",
      "address": "千葉県袖ケ浦市谷中８７",
      "lat": 35.401312,
      "lng": 140.021802,
      "geocoding_level": null,
      "phone": "",
      "license_no": "20210604",
      "license_date": "2021-12-13",
      "expire_date": "2029-01-31"
    },
    {
      "name": "フラワーライン",
      "name_kana": "フラワーライン",
      "business_type": "⑪ 菓子製造業",
      "address": "千葉県袖ケ浦市谷中８７",
      "lat": 35.401312,
      "lng": 140.021802,
      "geocoding_level": null,
      "phone": "",
      "license_no": "20210047",
      "license_date": "2021-12-13",
      "expire_date": "2029-01-31"
    },
    {
      "name": "社会福祉法人佑啓会ふる里学舎蔵波",
      "name_kana": "シャカイフクシホウジンユウケイカイフルサトガクシャクラナミ",
      "business_type": "㉖ 集団給食施設",
      "address": "千葉県袖ケ浦市蔵波3312-1",
      "lat": 35.436473,
      "lng": 140.028611,
      "geocoding_level": null,
      "phone": "0438640890",
      "license_no": "",
      "license_date": null,
      "expire_date": null
    },
    {
      "name": "社会福祉法人　佑啓会　ふる里学舎蔵波",
      "name_kana": "シャカイフクシホウジン　ユウケイカイ　フルサトガクシャクラナミ",
      "business_type": "⑪ 菓子製造業",
      "address": "千葉県袖ケ浦市蔵波３３１２－１",
      "lat": 35.436637,
      "lng": 140.027067,
      "geocoding_level": null,
      "phone": "0438640890",
      "license_no": "20220011",
      "license_date": "2022-06-09",
      "expire_date": "2028-07-31"
    },
    {
      "name": "北川鶏園GPセンター",
      "name_kana": "キタガワケイエンジーピーセンター",
      "business_type": "㉓ 卵選別包装業",
      "address": "千葉県袖ケ浦市林563",
      "lat": 35.388685,
      "lng": 140.077163,
      "geocoding_level": null,
      "phone": "0438752176",
      "license_no": "",
      "license_date": null,
      "expire_date": null
    },
    {
      "name": "有限会社北川鶏園",
      "name_kana": "ユウゲンガイシャキタガワケイエン",
      "business_type": "⑱ 液卵製造業",
      "address": "千葉県袖ケ浦市林５６３",
      "lat": 35.388694,
      "lng": 140.077172,
      "geocoding_level": null,
      "phone": "0438-75-2176",
      "license_no": "20240001",
      "license_date": "2024-05-09",
      "expire_date": "2030-05-31"
    },
    {
      "name": "有限会社北川鶏園",
      "name_kana": "ユウゲンガイシャキタガワケイエン",
      "business_type": "㉕ そうざい製造業",
      "address": "千葉県袖ケ浦市林５６３",
      "lat": 35.388694,
      "lng": 140.077172,
      "geocoding_level": null,
      "phone": "0438-75-2176",
      "license_no": "20240002",
      "license_date": "2024-05-09",
      "expire_date": "2030-05-31"
    },
    {
      "name": "有限会社  北川鶏園",
      "name_kana": "ユウゲンガイシャ  キタガワケイエン",
      "business_type": "⑪ 菓子製造業",
      "address": "千葉県袖ケ浦市林563",
      "lat": 35.388694,
      "lng": 140.077172,
      "geocoding_level": null,
      "phone": "",
      "license_no": "20240031",
      "license_date": "2024-09-05",
      "expire_date": "2030-09-30"
    },
    {
      "name": "ローソン袖ケ浦駅前店",
      "name_kana": "ローソンソデガウラエキマエテン",
      "business_type": "⑩ コンビニエンスストア",
      "address": "千葉県袖ケ浦市奈良輪１－７－１４",
      "lat": 35.430384,
      "lng": 139.958199,
      "geocoding_level": null,
      "phone": "0438-63-3376",
      "license_no": "",
      "license_date": null,
      "expire_date": null
    },
    {
      "name": "カレーハウス　ＣｏＣｏ壱番屋",
      "name_kana": "カレーハウスココイチバンヤ",
      "business_type": "① 飲食店営業",
      "address": "千葉県袖ケ浦市福王台２－８－５",
      "lat": 35.429486,
      "lng": 139.964289,
      "geocoding_level": null,
      "phone": "",
      "license_no": "20210630",
      "license_date": "2022-01-13",
      "expire_date": "2028-02-29"
    },
    {
      "name": "ローソン袖ケ浦代宿店",
      "name_kana": "ラーソンソデガウラダイジュクテン",
      "business_type": "① 飲食店営業",
      "address": "千葉県袖ケ浦市代宿９１５－１",
      "lat": 35.455083,
      "lng": 140.018344,
      "geocoding_level": null,
      "phone": "",
      "license_no": "20220602",
      "license_date": "2023-02-09",
      "expire_date": "2029-03-31"
    },
    {
      "name": "木木",
      "name_kana": "モクモク",
      "business_type": "① 飲食店営業",
      "address": "千葉県袖ケ浦市奈良輪１－６－１１",
      "lat": 35.429646,
      "lng": 139.956879,
      "geocoding_level": null,
      "phone": "",
      "license_no": "20210640",
      "license_date": "2022-01-28",
      "expire_date": "2028-01-31"
    },
    {
      "name": "島寿司",
      "name_kana": "シマズシ",
      "business_type": "① 飲食店営業",
      "address": "千葉県袖ケ浦市蔵波台５－２５－２",
      "lat": 35.440217,
      "lng": 139.998296,
      "geocoding_level": null,
      "phone": "",
      "license_no": "20210644",
      "license_date": "2022-01-20",
      "expire_date": "2027-02-28"
    },
    {
      "name": "ゆたか旅館　本館",
      "name_kana": "ユタカリョカンホンカン",
      "business_type": "① 飲食店営業",
      "address": "千葉県袖ケ浦市蔵波１９４０番地",
      "lat": 35.448884,
      "lng": 139.992884,
      "geocoding_level": null,
      "phone": "0438-62-8940",
      "license_no": "20210649",
      "license_date": "2022-01-20",
      "expire_date": "2029-02-28"
    },
    {
      "name": "ローソン袖ケ浦蔵波台四丁目店",
      "name_kana": "ローソンソデガウラクラナミダイヨンチョウメテン",
      "business_type": "⑩ コンビニエンスストア",
      "address": "千葉県袖ケ浦市蔵波台４－１１－１",
      "lat": 35.441886,
      "lng": 139.994688,
      "geocoding_level": null,
      "phone": "0438-62-0089",
      "license_no": "",
      "license_date": null,
      "expire_date": null
    },
    {
      "name": "ローソン袖ケ浦蔵波台四丁目店",
      "name_kana": "ローソンソデガウラクラナミダイヨンチョウメテン",
      "business_type": "① 飲食店営業",
      "address": "千葉県袖ケ浦市蔵波台４－１１－１",
      "lat": 35.441894,
      "lng": 139.994667,
      "geocoding_level": null,
      "phone": "0438-62-0089",
      "license_no": "20250370",
      "license_date": "2025-10-24",
      "expire_date": "2030-11-30"
    },
    {
      "name": "有限会社みのがわ",
      "name_kana": "ユウゲンガイシャミノガワ",
      "business_type": "⑬ その他の食料・飲料販売業",
      "address": "千葉県袖ケ浦市福王台１－１３－１",
      "lat": 35.428557,
      "lng": 139.960543,
      "geocoding_level": null,
      "phone": "",
      "license_no": "",
      "license_date": null,
      "expire_date": null
    },
    {
      "name": "定度ラーメン",
      "name_kana": "ジョウドラーメン",
      "business_type": "① 飲食店営業",
      "address": "千葉県袖ケ浦市上泉１３４５",
      "lat": 35.408814,
      "lng": 140.049672,
      "geocoding_level": null,
      "phone": "",
      "license_no": "20210664",
      "license_date": "2022-02-03",
      "expire_date": "2028-03-31"
    },
    {
      "name": "サントリービバレッジソリューション㈱袖ヶ浦支店",
      "name_kana": "サントリービバレッジソリューションカブソデガウラシテン",
      "business_type": "⑤ コップ式自動販売機（自動洗浄・屋内設置）",
      "address": "千葉県袖ケ浦市長浦580-110",
      "lat": 35.446214,
      "lng": 139.981907,
      "geocoding_level": null,
      "phone": "0438-63-3231",
      "license_no": "",
      "license_date": null,
      "expire_date": null
    },
    {
      "name": "社会福祉法人　千葉県社会福祉事業団",
      "name_kana": "シャカイフクシホウジンチバケンシャカイフクシジギョウダン",
      "business_type": "㉖ 集団給食施設",
      "address": "千葉県袖ケ浦市蔵波3108-1",
      "lat": 35.430789,
      "lng": 140.019767,
      "geocoding_level": null,
      "phone": "0438622722",
      "license_no": "",
      "license_date": null,
      "expire_date": null
    },
    {
      "name": "セブンイレブン袖ケ浦奈良輪店",
      "name_kana": "セブンイレブンソデガウラナラワテン",
      "business_type": "① 飲食店営業",
      "address": "千葉県袖ケ浦市奈良輪１－６－１６",
      "lat": 35.429583,
      "lng": 139.956538,
      "geocoding_level": null,
      "phone": "",
      "license_no": "20210720",
      "license_date": "2022-03-03",
      "expire_date": "2028-03-31"
    },
    {
      "name": "セブンイレブン袖ケ浦奈良輪店",
      "name_kana": "セブンイレブンソデガウラナラワテン",
      "business_type": "⑩ コンビニエンスストア",
      "address": "千葉県袖ケ浦市奈良輪１－６－１６",
      "lat": 35.429583,
      "lng": 139.956538,
      "geocoding_level": null,
      "phone": "",
      "license_no": "",
      "license_date": null,
      "expire_date": null
    },
    {
      "name": "セブンイレブン袖ケ浦駅前通り店",
      "name_kana": "セブンイレブンソデガウラエキマエドオリテン",
      "business_type": "① 飲食店営業",
      "address": "千葉県袖ケ浦市福王台１－２７－６",
      "lat": 35.428027,
      "lng": 139.961593,
      "geocoding_level": null,
      "phone": "0438-63-8150",
      "license_no": "20210718",
      "license_date": "2022-03-03",
      "expire_date": "2028-03-31"
    },
    {
      "name": "セブンイレブン袖ケ浦駅前通り店",
      "name_kana": "セブンイレブンソデガウラエキマエドオリテン",
      "business_type": "⑩ コンビニエンスストア",
      "address": "千葉県袖ケ浦市福王台１－２７－６",
      "lat": 35.428027,
      "lng": 139.961593,
      "geocoding_level": null,
      "phone": "0438-63-8150",
      "license_no": "",
      "license_date": null,
      "expire_date": null
    },
    {
      "name": "セブンイレブン袖ケ浦蔵波台２丁目店",
      "name_kana": "セブンイレブンソデガウラクラナミダイニチョウメテン",
      "business_type": "① 飲食店営業",
      "address": "千葉県袖ケ浦市蔵波台２－２１－１６",
      "lat": 35.443133,
      "lng": 139.990559,
      "geocoding_level": null,
      "phone": "0438-63-7080",
      "license_no": "20210719",
      "license_date": "2022-03-03",
      "expire_date": "2028-03-31"
    },
    {
      "name": "セブンイレブン袖ケ浦蔵波台２丁目店",
      "name_kana": "セブンイレブンソデガウラクラナミダイニチョウメテン",
      "business_type": "⑩ コンビニエンスストア",
      "address": "千葉県袖ケ浦市蔵波台２－２１－１６",
      "lat": 35.443133,
      "lng": 139.990559,
      "geocoding_level": null,
      "phone": "0438-63-7080",
      "license_no": "",
      "license_date": null,
      "expire_date": null
    },
    {
      "name": "セブンイレブン袖ケ浦上泉店",
      "name_kana": "セブンイレブンソデガウラカミイズミテン",
      "business_type": "① 飲食店営業",
      "address": "千葉県袖ケ浦市上泉１００９－１",
      "lat": 35.409605,
      "lng": 140.044376,
      "geocoding_level": null,
      "phone": "0438-60-5255",
      "license_no": "20210721",
      "license_date": "2022-03-03",
      "expire_date": "2028-03-31"
    },
    {
      "name": "セブンイレブン袖ケ浦上泉店",
      "name_kana": "セブンイレブンソデガウラカミイズミテン",
      "business_type": "⑩ コンビニエンスストア",
      "address": "千葉県袖ケ浦市上泉１００９－１",
      "lat": 35.409605,
      "lng": 140.044376,
      "geocoding_level": null,
      "phone": "0438-60-5255",
      "license_no": "",
      "license_date": null,
      "expire_date": null
    },
    {
      "name": "セブンイレブン袖ヶ浦さつき台店",
      "name_kana": "セブンイレブンソデガウラサツキダイテン",
      "business_type": "① 飲食店営業",
      "address": "千葉県袖ケ浦市長浦駅前８－１－１０",
      "lat": 35.445809,
      "lng": 140.008038,
      "geocoding_level": null,
      "phone": "0438-62-3711",
      "license_no": "20210746",
      "license_date": "2022-03-03",
      "expire_date": "2028-03-31"
    },
    {
      "name": "セブンイレブン袖ヶ浦さつき台店",
      "name_kana": "セブンイレブンソデガウラサツキダイテン",
      "business_type": "⑩ コンビニエンスストア",
      "address": "千葉県袖ケ浦市長浦駅前８－１－１０",
      "lat": 35.445809,
      "lng": 140.008038,
      "geocoding_level": null,
      "phone": "0438-62-3711",
      "license_no": "",
      "license_date": null,
      "expire_date": null
    },
    {
      "name": "セブンイレブン袖ヶ浦長浦駅北口店",
      "name_kana": "セブンイレブンソデガウラナガウラキタグチテン",
      "business_type": "① 飲食店営業",
      "address": "千葉県袖ケ浦市長浦１－９８及び８０",
      "lat": 35.452488,
      "lng": 139.996111,
      "geocoding_level": null,
      "phone": "0438-63-4610",
      "license_no": "20210744",
      "license_date": "2022-03-03",
      "expire_date": "2028-03-31"
    },
    {
      "name": "セブンイレブン袖ヶ浦長浦駅北口店",
      "name_kana": "セブンイレブンソデガウラナガウラキタグチテン",
      "business_type": "⑩ コンビニエンスストア",
      "address": "千葉県袖ケ浦市長浦１－９８及び８０",
      "lat": 35.452488,
      "lng": 139.996111,
      "geocoding_level": null,
      "phone": "0438-63-4610",
      "license_no": "",
      "license_date": null,
      "expire_date": null
    },
    {
      "name": "千代ちゃん工房",
      "name_kana": "チヨチャンコウボウ",
      "business_type": "⑪ 菓子製造業",
      "address": "千葉県袖ケ浦市滝の口３０６－９",
      "lat": 35.377866,
      "lng": 140.015136,
      "geocoding_level": null,
      "phone": "",
      "license_no": "20210061",
      "license_date": "2022-03-18",
      "expire_date": "2028-03-31"
    },
    {
      "name": "千代ちゃん工房",
      "name_kana": "チヨチャンコウボウ",
      "business_type": "㉕ そうざい製造業",
      "address": "千葉県袖ケ浦市滝の口３０６－９",
      "lat": 35.377866,
      "lng": 140.015136,
      "geocoding_level": null,
      "phone": "",
      "license_no": "20220030",
      "license_date": "2022-03-18",
      "expire_date": "2028-03-31"
    },
    {
      "name": "たきや",
      "name_kana": "タキヤ",
      "business_type": "① 飲食店営業",
      "address": "千葉県袖ケ浦市福王台１－１３－１",
      "lat": 35.428557,
      "lng": 139.960543,
      "geocoding_level": null,
      "phone": "",
      "license_no": "20210795",
      "license_date": "2022-03-10",
      "expire_date": "2027-04-30"
    },
    {
      "name": "セブンイレブン袖ケ浦飯富店",
      "name_kana": "セブンイレブンソデガウライイトミテン",
      "business_type": "① 飲食店営業",
      "address": "千葉県袖ケ浦市飯富８８０",
      "lat": 35.415115,
      "lng": 139.981201,
      "geocoding_level": null,
      "phone": "0438-63-6424",
      "license_no": "20210745",
      "license_date": "2022-03-14",
      "expire_date": "2027-03-31"
    },
    {
      "name": "セブンイレブン袖ケ浦飯富店",
      "name_kana": "セブンイレブンソデガウライイトミテン",
      "business_type": "⑩ コンビニエンスストア",
      "address": "千葉県袖ケ浦市飯富８８０",
      "lat": 35.415115,
      "lng": 139.981201,
      "geocoding_level": null,
      "phone": "0438-63-6424",
      "license_no": "",
      "license_date": null,
      "expire_date": null
    },
    {
      "name": "ぐりて",
      "name_kana": "グリテ",
      "business_type": "① 飲食店営業",
      "address": "千葉県袖ケ浦市横田１９３４－２",
      "lat": 35.38549,
      "lng": 140.021773,
      "geocoding_level": null,
      "phone": "0438-71-5121",
      "license_no": "20210800",
      "license_date": "2022-03-17",
      "expire_date": "2027-04-30"
    },
    {
      "name": "農事組合法人　みずき会",
      "name_kana": "ノウジクミアイホウジンミズキカイ",
      "business_type": "⑫ アイスクリーム類製造業",
      "address": "千葉県袖ケ浦市横田１２０－１",
      "lat": 35.388437,
      "lng": 140.037195,
      "geocoding_level": null,
      "phone": "",
      "license_no": "20210002",
      "license_date": "2022-03-24",
      "expire_date": "2028-04-30"
    },
    {
      "name": "株式会社ＪＥＲＡ袖ケ浦火力発電所　社員食堂",
      "name_kana": "カブシキガイシャジェラソデガウラカリョクハツデンショシャインショクドウ",
      "business_type": "① 飲食店営業",
      "address": "千葉県袖ケ浦市中袖２－１",
      "lat": 35.46386,
      "lng": 139.979982,
      "geocoding_level": null,
      "phone": "0438-55-5358",
      "license_no": "20220607",
      "license_date": "2023-02-09",
      "expire_date": "2030-03-31"
    },
    {
      "name": "ファミリーレストラン　サンフラワー",
      "name_kana": "ファミリーレストランサンフラワー",
      "business_type": "① 飲食店営業",
      "address": "千葉県袖ケ浦市蔵波２４－５",
      "lat": 35.450886,
      "lng": 139.994673,
      "geocoding_level": null,
      "phone": "",
      "license_no": "20210823",
      "license_date": "2022-03-24",
      "expire_date": "2028-04-30"
    },
    {
      "name": "インド料理　チャダニー（ＣＨＡＤＡＮＩ）",
      "name_kana": "インドリョウリチャダニー",
      "business_type": "① 飲食店営業",
      "address": "千葉県袖ケ浦市長浦駅前２－３－９",
      "lat": 35.448426,
      "lng": 140.001182,
      "geocoding_level": null,
      "phone": "",
      "license_no": "20220014",
      "license_date": "2022-04-11",
      "expire_date": "2028-04-30"
    },
    {
      "name": "クニナ袖ケ浦保育園",
      "name_kana": "クニナソデガウラホイクエン",
      "business_type": "㉖ 集団給食施設",
      "address": "千葉県袖ケ浦市神納２９４２－２",
      "lat": 35.423849,
      "lng": 139.973998,
      "geocoding_level": null,
      "phone": "0438628008",
      "license_no": "",
      "license_date": null,
      "expire_date": null
    },
    {
      "name": "スナック　和（なごみ）",
      "name_kana": "スナックナゴミ",
      "business_type": "① 飲食店営業",
      "address": "千葉県袖ケ浦市蔵波台４－１２－５",
      "lat": 35.441255,
      "lng": 139.996732,
      "geocoding_level": null,
      "phone": "",
      "license_no": "20220027",
      "license_date": "2022-04-14",
      "expire_date": "2028-05-31"
    },
    {
      "name": "はなこども",
      "name_kana": "ハナコドモ",
      "business_type": "① 飲食店営業",
      "address": "千葉県袖ケ浦市蔵波２６１０－３",
      "lat": 35.443271,
      "lng": 139.983434,
      "geocoding_level": null,
      "phone": "",
      "license_no": "20220036",
      "license_date": "2022-04-14",
      "expire_date": "2028-05-31"
    },
    {
      "name": "社会福祉法人四恩会　昭和保育園",
      "name_kana": "シャカイフクシホウジンシオンカイ　ショウワホイクエン",
      "business_type": "㉖ 集団給食施設",
      "address": "千葉県袖ケ浦市奈良輪782－1",
      "lat": 35.435773,
      "lng": 139.963969,
      "geocoding_level": null,
      "phone": "0438622427",
      "license_no": "",
      "license_date": null,
      "expire_date": null
    },
    {
      "name": "ラーメンと串焼の店　ゆき",
      "name_kana": "ラーメントクシヤキノミセ　ユキ",
      "business_type": "① 飲食店営業",
      "address": "千葉県袖ケ浦市蔵波台７－１１－２１",
      "lat": 35.442817,
      "lng": 140.001411,
      "geocoding_level": null,
      "phone": "",
      "license_no": "20220098",
      "license_date": "2022-05-19",
      "expire_date": "2028-06-30"
    },
    {
      "name": "社会福祉法人滋協会　特別養護老人ホーム　サニーヒル内　（株）レパスト事業所",
      "name_kana": "シャカイフクシホウジンジキョウカイ　トクベツヨウゴロウジンホーム　サニーヒルナイ　カブ　レパストジギョウショ",
      "business_type": "① 飲食店営業",
      "address": "千葉県袖ケ浦市久保田８５７－９",
      "lat": 35.444956,
      "lng": 140.009662,
      "geocoding_level": null,
      "phone": "0438640089",
      "license_no": "20220100",
      "license_date": "2022-05-26",
      "expire_date": "2030-06-30"
    },
    {
      "name": "マクドナルド１６号袖ケ浦店",
      "name_kana": "マクドナルドジュウロクゴウソデガウラテン",
      "business_type": "① 飲食店営業",
      "address": "千葉県袖ケ浦市福王台２－１２－１８",
      "lat": 35.429955,
      "lng": 139.96479,
      "geocoding_level": null,
      "phone": "0438602301",
      "license_no": "20220145",
      "license_date": "2022-06-16",
      "expire_date": "2028-07-31"
    },
    {
      "name": "有限会社　エムコ食品",
      "name_kana": "ユウゲンガイシャ　エムコショクヒン",
      "business_type": "⑯ 水産製品製造業",
      "address": "千葉県袖ケ浦市奈良輪４５０－１",
      "lat": 35.437271,
      "lng": 139.965438,
      "geocoding_level": null,
      "phone": "",
      "license_no": "20220002",
      "license_date": "2022-05-26",
      "expire_date": "2029-06-30"
    },
    {
      "name": "有限会社　エムコ食品",
      "name_kana": "ユウゲンガイシャエムコショクヒン",
      "business_type": "㉗ 冷凍食品製造業",
      "address": "千葉県袖ケ浦市奈良輪４５０－１",
      "lat": 35.437271,
      "lng": 139.965438,
      "geocoding_level": null,
      "phone": "",
      "license_no": "20230001",
      "license_date": "2023-10-20",
      "expire_date": "2030-11-30"
    },
    {
      "name": "シャトレーゼ袖ケ浦店",
      "name_kana": "シャトレーゼソデガウラテン",
      "business_type": "⑪ 菓子製造業",
      "address": "千葉県袖ケ浦市神納１－２－１５",
      "lat": 35.424973,
      "lng": 139.958497,
      "geocoding_level": null,
      "phone": "0438-62-3935",
      "license_no": "20220053",
      "license_date": "2023-03-27",
      "expire_date": "2029-04-30"
    },
    {
      "name": "シャトレーゼ袖ケ浦店",
      "name_kana": "シャトレーゼソデガウラテン",
      "business_type": "⑬ その他の食料・飲料販売業",
      "address": "千葉県袖ケ浦市神納１－２－１５",
      "lat": 35.424973,
      "lng": 139.958497,
      "geocoding_level": null,
      "phone": "0438-62-3935",
      "license_no": "",
      "license_date": null,
      "expire_date": null
    },
    {
      "name": "ケーキハウス　赤とんぼ　風林堂",
      "name_kana": "ケーキハウスアカトンボフウリンドウ",
      "business_type": "⑪ 菓子製造業",
      "address": "千葉県袖ケ浦市蔵波台５－２５－２２",
      "lat": 35.439875,
      "lng": 139.998616,
      "geocoding_level": null,
      "phone": "0438-62-7407",
      "license_no": "20220010",
      "license_date": "2022-06-09",
      "expire_date": "2028-07-31"
    },
    {
      "name": "ひらおかサステラス",
      "name_kana": "ヒラオカサステラス",
      "business_type": "⑬ その他の食料・飲料販売業",
      "address": "千葉県袖ケ浦市上泉630-2",
      "lat": 35.404214,
      "lng": 140.046342,
      "geocoding_level": null,
      "phone": "",
      "license_no": "",
      "license_date": null,
      "expire_date": null
    },
    {
      "name": "露﨑味噌・糀店",
      "name_kana": "ツユザキミソコウジテン",
      "business_type": "⑰ 農産保存食料品製造・加工業",
      "address": "千葉県袖ケ浦市横田４２１１",
      "lat": 35.386948,
      "lng": 140.010447,
      "geocoding_level": null,
      "phone": "",
      "license_no": "",
      "license_date": null,
      "expire_date": null
    },
    {
      "name": "露﨑糀店",
      "name_kana": "ツユザキコウジテン",
      "business_type": "① 飲食店営業",
      "address": "千葉県袖ケ浦市横田４２１１",
      "lat": 35.386948,
      "lng": 140.010447,
      "geocoding_level": null,
      "phone": "",
      "license_no": "20230481",
      "license_date": "2023-12-15",
      "expire_date": "2030-01-31"
    },
    {
      "name": "露﨑糀店",
      "name_kana": "ツユザキコウジテン",
      "business_type": "⑪ 菓子製造業",
      "address": "千葉県袖ケ浦市横田４２１１",
      "lat": 35.386948,
      "lng": 140.010447,
      "geocoding_level": null,
      "phone": "",
      "license_no": "20230030",
      "license_date": "2023-12-15",
      "expire_date": "2030-01-31"
    },
    {
      "name": "露﨑糀店",
      "name_kana": "ツユザキコウジテン",
      "business_type": "㉕ そうざい製造業",
      "address": "千葉県袖ケ浦市横田４２１１",
      "lat": 35.386948,
      "lng": 140.010447,
      "geocoding_level": null,
      "phone": "",
      "license_no": "20230025",
      "license_date": "2023-12-15",
      "expire_date": "2030-01-31"
    },
    {
      "name": "露﨑味噌・糀店",
      "name_kana": "ツユザキミソコウジテン",
      "business_type": "⑳ みそ又はしょうゆ製造業",
      "address": "千葉県袖ケ浦市横田４２１１",
      "lat": 35.386948,
      "lng": 140.010447,
      "geocoding_level": null,
      "phone": "",
      "license_no": "20230003",
      "license_date": "2023-12-15",
      "expire_date": "2030-01-31"
    },
    {
      "name": "妙膳閣",
      "name_kana": "ミョウゼンカク",
      "business_type": "① 飲食店営業",
      "address": "千葉県袖ケ浦市袖ケ浦駅前１丁目３９－１０",
      "lat": 35.432709,
      "lng": 139.954434,
      "geocoding_level": null,
      "phone": "",
      "license_no": "20220152",
      "license_date": "2022-06-17",
      "expire_date": "2028-06-30"
    },
    {
      "name": "EMILYS　DAILY　BREAD",
      "name_kana": "エミリースディーリブレッド",
      "business_type": "⑪ 菓子製造業",
      "address": "千葉県袖ケ浦市奈良輪２８１－３",
      "lat": 35.434857,
      "lng": 139.969259,
      "geocoding_level": null,
      "phone": "",
      "license_no": "20220014",
      "license_date": "2022-07-01",
      "expire_date": "2028-07-31"
    },
    {
      "name": "EMILYS　DAILY　BREAD",
      "name_kana": "エミリースディーリブレッド",
      "business_type": "㉕ そうざい製造業",
      "address": "千葉県袖ケ浦市奈良輪２８１－３",
      "lat": 35.434857,
      "lng": 139.969259,
      "geocoding_level": null,
      "phone": "",
      "license_no": "20220010",
      "license_date": "2022-07-01",
      "expire_date": "2028-07-31"
    },
    {
      "name": "有限会社南総園",
      "name_kana": "ユウゲンガイシャナンソウエン",
      "business_type": "① 飲食店営業",
      "address": "千葉県袖ケ浦市大曽根５２６",
      "lat": 35.415706,
      "lng": 140.014915,
      "geocoding_level": null,
      "phone": "0438-63-0408",
      "license_no": "20220167",
      "license_date": "2022-06-16",
      "expire_date": "2028-07-31"
    },
    {
      "name": "有限会社　奈良輪豊月堂",
      "name_kana": "ユウゲンガイシャナラワホウゲツドウ",
      "business_type": "⑪ 菓子製造業",
      "address": "千葉県袖ケ浦市坂戸市場１３５２－２",
      "lat": 35.428276,
      "lng": 139.953933,
      "geocoding_level": null,
      "phone": "0438-62-2109",
      "license_no": "20220036",
      "license_date": "2022-11-10",
      "expire_date": "2029-12-31"
    },
    {
      "name": "ファミリーマート袖ヶ浦奈良輪店",
      "name_kana": "ファミリーマートソデガウラナラワテン",
      "business_type": "① 飲食店営業",
      "address": "千葉県袖ケ浦市奈良輪２４３－３",
      "lat": 35.434211,
      "lng": 139.959762,
      "geocoding_level": null,
      "phone": "0438-63-3623",
      "license_no": "20220185",
      "license_date": "2022-07-01",
      "expire_date": "2028-07-31"
    },
    {
      "name": "ファミリーマート袖ヶ浦奈良輪店",
      "name_kana": "ファミリーマートソデガウラナラワテン",
      "business_type": "⑩ コンビニエンスストア",
      "address": "千葉県袖ケ浦市奈良輪２４３－３",
      "lat": 35.434211,
      "lng": 139.959762,
      "geocoding_level": null,
      "phone": "0438-63-3623",
      "license_no": "",
      "license_date": null,
      "expire_date": null
    },
    {
      "name": "つるおか",
      "name_kana": "ツルオカ",
      "business_type": "㉕ そうざい製造業",
      "address": "千葉県袖ケ浦市真里錯綜１７８",
      "lat": 35.373301,
      "lng": 140.036947,
      "geocoding_level": null,
      "phone": "",
      "license_no": "20220004",
      "license_date": "2022-05-26",
      "expire_date": "2027-06-30"
    },