{
  "meta": {
    "updated": 1783568789,
    "sources": [
      {
        "source": "厚生労働省 食品衛生申請等システム（オープンデータ）",
        "license": "公共データ利用規約（第1.0版, PDL1.0）"
      }
    ]
  },
  "data": [
    {
      "name": "ARENA福大病院前店　清流物語",
      "name_kana": "アレナフクダイビョウインマエテン　セイリュウモノガタリ",
      "business_type": "⑫ 自動販売機による販売業（コップ式自動販売機（自動洗浄・屋内設置）及び営業許可の対象となる自動販売機を除く）",
      "address": "福井県吉田郡永平寺町松岡下合月22字10番",
      "lat": 36.106667,
      "lng": 136.296697,
      "geocoding_level": null,
      "phone": "",
      "license_no": "",
      "license_date": null,
      "expire_date": null
    },
    {
      "name": "福井県農業協同組合　永平寺特産物加工所",
      "name_kana": "フクイケンノウギョウキョウドウクミアイ　エイヘイジトクサンブツカコウショ",
      "business_type": "㉔ その他の食料品製造・加工業",
      "address": "福井県吉田郡永平寺町山王２６−71",
      "lat": 36.076651,
      "lng": 136.39612,
      "geocoding_level": null,
      "phone": "0776-64-3077",
      "license_no": "",
      "license_date": null,
      "expire_date": null
    },
    {
      "name": "株式会社日本ｴｰ･ｴﾑ･ｼｰ永平寺工場１階",
      "name_kana": "カブシキガイシャニホンエー・エム・シーエイヘイジコウジョウイッカイ",
      "business_type": "⑤ コップ式自動販売機（自動洗浄・屋内設置）",
      "address": "福井県吉田郡永平寺町法寺岡2-5",
      "lat": 36.100091,
      "lng": 136.322536,
      "geocoding_level": null,
      "phone": "",
      "license_no": "",
      "license_date": null,
      "expire_date": null
    },
    {
      "name": "道の駅 禅の里休憩処１階",
      "name_kana": "ミチノエキ　ゼンノサトキュウケイトコロイッカイ",
      "business_type": "⑤ コップ式自動販売機（自動洗浄・屋内設置）",
      "address": "福井県吉田郡永平寺町松岡清水2-21-1",
      "lat": 36.088022,
      "lng": 136.300279,
      "geocoding_level": null,
      "phone": "",
      "license_no": "",
      "license_date": null,
      "expire_date": null
    },
    {
      "name": "福井大学医学部研究棟一階休憩室",
      "name_kana": "フクイダイガクイガクブケンキュウトウイツカイキュウケイシツ",
      "business_type": "⑤ コップ式自動販売機（自動洗浄・屋内設置）",
      "address": "福井県吉田郡永平寺町松岡下合月23-3",
      "lat": 36.109221,
      "lng": 136.290913,
      "geocoding_level": null,
      "phone": "",
      "license_no": "",
      "license_date": null,
      "expire_date": null
    },
    {
      "name": "ハニーARENA福大病院前店 ｲｰﾄｲﾝ",
      "name_kana": "ハニーアリーナフクダイビョウインマエミセ　イートイン",
      "business_type": "⑤ コップ式自動販売機（自動洗浄・屋内設置）",
      "address": "福井県吉田郡永平寺町松岡下合月２２−１０",
      "lat": 36.106667,
      "lng": 136.296697,
      "geocoding_level": null,
      "phone": "",
      "license_no": "",
      "license_date": null,
      "expire_date": null
    },
    {
      "name": "ゲンキー東古市店",
      "name_kana": "ゲンキーヒガシフルイチテン",
      "business_type": "⑬ その他の食料・飲料販売業",
      "address": "福井県吉田郡永平寺町東古市15-34-1",
      "lat": 36.099924,
      "lng": 136.325611,
      "geocoding_level": null,
      "phone": "0776-63-1280",
      "license_no": "",
      "license_date": null,
      "expire_date": null
    },
    {
      "name": "ゲンキー松岡店",
      "name_kana": "ゲンキーマツオカテン",
      "business_type": "⑬ その他の食料・飲料販売業",
      "address": "福井県吉田郡永平寺町松岡室33字上坂竹1番1",
      "lat": 36.089336,
      "lng": 136.28855,
      "geocoding_level": null,
      "phone": "0776-61-1070",
      "license_no": "",
      "license_date": null,
      "expire_date": null
    },
    {
      "name": "ゲンキー上志比店",
      "name_kana": "ゲンキーカミシヒテン",
      "business_type": "⑬ その他の食料・飲料販売業",
      "address": "福井県吉田郡永平寺町牧福島15字南五石田10番1",
      "lat": 36.080899,
      "lng": 136.384826,
      "geocoding_level": null,
      "phone": "0776-43-9266",
      "license_no": "",
      "license_date": null,
      "expire_date": null
    },
    {
      "name": "クスリのアオキ松岡店",
      "name_kana": "クスリノアオキマツオカテン",
      "business_type": "⑪ 百貨店、総合スーパー",
      "address": "福井県吉田郡永平寺町松岡芝原2丁目86番",
      "lat": 36.090307,
      "lng": 136.290751,
      "geocoding_level": null,
      "phone": "0776-61-7791",
      "license_no": "",
      "license_date": null,
      "expire_date": null
    },
    {
      "name": "ウエルシア福大病院前店",
      "name_kana": "ウエルシアフクダイビョウインマエテン",
      "business_type": "⑪ 百貨店、総合スーパー",
      "address": "福井県吉田郡永平寺町松岡下合月第22号13番地1",
      "lat": 36.104811,
      "lng": 136.295422,
      "geocoding_level": null,
      "phone": "0776-61-7022",
      "license_no": "",
      "license_date": null,
      "expire_date": null
    },
    {
      "name": "株式会社HALLE JAPON",
      "name_kana": "カブシキガイシャアルジャポン",
      "business_type": "㉕ 行商",
      "address": "福井県吉田郡永平寺町内一円",
      "lat": 36.056593,
      "lng": 136.356875,
      "geocoding_level": null,
      "phone": "",
      "license_no": "",
      "license_date": null,
      "expire_date": null
    },
    {
      "name": "永平寺町役場",
      "name_kana": "エイヘイジチョウヤクバ",
      "business_type": "⑤ コップ式自動販売機（自動洗浄・屋内設置）",
      "address": "福井県吉田郡永平寺町松岡春日1丁目1-4",
      "lat": 36.092552,
      "lng": 136.299326,
      "geocoding_level": null,
      "phone": "0776611111",
      "license_no": "",
      "license_date": null,
      "expire_date": null
    },
    {
      "name": "永平寺　翆光苑",
      "name_kana": "エイヘイジ　スイコウエン",
      "business_type": "⑤ コップ式自動販売機（自動洗浄・屋内設置）",
      "address": "福井県吉田郡永平寺町松岡室25-2-1",
      "lat": 36.089414,
      "lng": 136.287608,
      "geocoding_level": null,
      "phone": "0776-61-6711",
      "license_no": "",
      "license_date": null,
      "expire_date": null
    },
    {
      "name": "JA吉田郡本所",
      "name_kana": "ジェーエーヨシダグンホンショ",
      "business_type": "⑤ コップ式自動販売機（自動洗浄・屋内設置）",
      "address": "福井県吉田郡永平寺町諏訪間47-30",
      "lat": 36.082784,
      "lng": 136.316665,
      "geocoding_level": null,
      "phone": "0776632660",
      "license_no": "",
      "license_date": null,
      "expire_date": null
    },
    {
      "name": "福井部品㈱上志比工場",
      "name_kana": "フクイブヒンカブカミシヒコウジョウ",
      "business_type": "⑤ コップ式自動販売機（自動洗浄・屋内設置）",
      "address": "福井県吉田郡永平寺町浅見4-31",
      "lat": 36.082734,
      "lng": 136.379287,
      "geocoding_level": null,
      "phone": "0776-64-2911",
      "license_no": "",
      "license_date": null,
      "expire_date": null
    },
    {
      "name": "永平寺デイサービスセンター",
      "name_kana": "エイヘイジデイサービスセンター",
      "business_type": "㉖ 集団給食施設",
      "address": "福井県吉田郡永平寺町飯島6-34",
      "lat": 36.089931,
      "lng": 136.356717,
      "geocoding_level": null,
      "phone": "0776-63-3010",
      "license_no": "",
      "license_date": null,
      "expire_date": null
    },
    {
      "name": "福大医学部附属病院１Ｆ自販機コーナーＢＰ",
      "name_kana": "フクダイイガクブフゾクビョウインイッカイコーナ",
      "business_type": "③ 乳類販売業",
      "address": "福井県吉田郡永平寺町松岡下合月23-3",
      "lat": 36.109808,
      "lng": 136.29182,
      "geocoding_level": null,
      "phone": "",
      "license_no": "",
      "license_date": null,
      "expire_date": null
    },
    {
      "name": "株式会社アイエヌアイ",
      "name_kana": "カブシキガイシャアイエヌアイ",
      "business_type": "⑨ 通信販売・訪問販売による販売業",
      "address": "福井県吉田郡永平寺町石上1-25",
      "lat": 36.076993,
      "lng": 136.401772,
      "geocoding_level": null,
      "phone": "0776-64-3222",
      "license_no": "",
      "license_date": null,
      "expire_date": null
    },
    {
      "name": "福井大学はなみずき保育園",
      "name_kana": "フクイダイガクハナミズキホイクエン",
      "business_type": "㉖ 集団給食施設",
      "address": "福井県吉田郡永平寺町松岡下合月23-3",
      "lat": 36.109808,
      "lng": 136.29182,
      "geocoding_level": null,
      "phone": "",
      "license_no": "",
      "license_date": null,
      "expire_date": null
    },
    {
      "name": "永平寺温泉禅の里",
      "name_kana": "エイヘイジオンセンゼンノサト",
      "business_type": "⑫ 自動販売機による販売業（コップ式自動販売機（自動洗浄・屋内設置）及び営業許可の対象となる自動販売機を除く）",
      "address": "福井県吉田郡永平寺町清水2-16-1",
      "lat": 36.0801,
      "lng": 136.398691,
      "geocoding_level": null,
      "phone": "",
      "license_no": "",
      "license_date": null,
      "expire_date": null
    },
    {
      "name": "福井大学医学部附属病院（福和会）",
      "name_kana": "フクイダイガクイガクブフゾクビョウイン",
      "business_type": "⑫ 自動販売機による販売業（コップ式自動販売機（自動洗浄・屋内設置）及び営業許可の対象となる自動販売機を除く）",
      "address": "福井県吉田郡永平寺町松岡下合月23-3",
      "lat": 36.109808,
      "lng": 136.29182,
      "geocoding_level": null,
      "phone": "",
      "license_no": "",
      "license_date": null,
      "expire_date": null
    },
    {
      "name": "ひかり苑2F",
      "name_kana": "ヒカリエンニカイ",
      "business_type": "⑫ 自動販売機による販売業（コップ式自動販売機（自動洗浄・屋内設置）及び営業許可の対象となる自動販売機を除く）",
      "address": "福井県吉田郡永平寺町山王7-30",
      "lat": 36.079787,
      "lng": 136.395872,
      "geocoding_level": null,
      "phone": "",
      "license_no": "",
      "license_date": null,
      "expire_date": null
    },
    {
      "name": "Snowcafe",
      "name_kana": "スノーカフェ",
      "business_type": "① 飲食店営業",
      "address": "福井県吉田郡永平寺町吉田郡永平寺町松岡志比堺11-12",
      "lat": 36.09829,
      "lng": 136.3106,
      "geocoding_level": null,
      "phone": "09097695222",
      "license_no": "2310011",
      "license_date": "2023-08-24",
      "expire_date": "2028-11-30"
    },
    {
      "name": "Snowcafe",
      "name_kana": "スノーカフェ",
      "business_type": "⑪ 菓子製造業",
      "address": "福井県吉田郡永平寺町松岡志比堺11-12",
      "lat": 36.09829,
      "lng": 136.3106,
      "geocoding_level": null,
      "phone": "09094498858",
      "license_no": "2310015",
      "license_date": "2023-10-05",
      "expire_date": "2029-11-30"
    },
    {
      "name": "Snowcafe",
      "name_kana": "スノーカフェ",
      "business_type": "⑯ コーヒー製造・加工業（飲料の製造を除く。）",
      "address": "福井県吉田郡永平寺町松岡志比堺11-12",
      "lat": 36.09829,
      "lng": 136.3106,
      "geocoding_level": null,
      "phone": "090-9769-5222",
      "license_no": "",
      "license_date": null,
      "expire_date": null
    },
    {
      "name": "アグ’ｓ　ファーム",
      "name_kana": "アグズ　ファーム",
      "business_type": "⑦ 野菜果物販売業",
      "address": "福井県吉田郡永平寺町法寺岡11-33",
      "lat": 36.098788,
      "lng": 136.32018,
      "geocoding_level": null,
      "phone": "",
      "license_no": "",
      "license_date": null,
      "expire_date": null
    },
    {
      "name": "国立大学法人福井大学医学部附属病院",
      "name_kana": "コクリツダイガクホウジンフクイダイガクイガクブフゾクビョウイン",
      "business_type": "㉖ 集団給食施設",
      "address": "福井県吉田郡永平寺町松岡下合月23-3",
      "lat": 36.108134,
      "lng": 136.295595,
      "geocoding_level": null,
      "phone": "0776-61-3111",
      "license_no": "",
      "license_date": null,
      "expire_date": null
    },
    {
      "name": "わくにこ実行委員会",
      "name_kana": "ワクニコジッコウイインカイ",
      "business_type": "⑬ その他の食料・飲料販売業",
      "address": "福井県吉田郡永平寺町志比6-10-1 (参道)",
      "lat": 36.054934,
      "lng": 136.352535,
      "geocoding_level": null,
      "phone": "",
      "license_no": "",
      "license_date": null,
      "expire_date": null
    },
    {
      "name": "永平寺禅どうふの郷 幸家",
      "name_kana": "エイヘイジゼンドウフノサト サチヤ",
      "business_type": "⑬ その他の食料・飲料販売業",
      "address": "福井県吉田郡永平寺町京善41-53-1",
      "lat": 36.075668,
      "lng": 136.319578,
      "geocoding_level": null,
      "phone": "0776-63-1167",
      "license_no": "",
      "license_date": null,
      "expire_date": null
    },
    {
      "name": "永平寺ジビエ",
      "name_kana": "エイヘイジジビエ",
      "business_type": "① 飲食店営業",
      "address": "福井県吉田郡永平寺町藤巻41-1-3",
      "lat": 36.070732,
      "lng": 136.417992,
      "geocoding_level": null,
      "phone": "0776-50-7414",
      "license_no": "2410012",
      "license_date": "2024-09-12",
      "expire_date": "2029-09-30"
    }
  ]
}
