{
  "meta": {
    "updated": 1783568789,
    "sources": [
      {
        "source": "厚生労働省 食品衛生申請等システム（オープンデータ）",
        "license": "公共データ利用規約（第1.0版, PDL1.0）"
      }
    ]
  },
  "data": [
    {
      "name": "くすりのレデイ　三木店",
      "name_kana": "クスリノレデイ　ミキテン",
      "business_type": "⑬ その他の食料・飲料販売業",
      "address": "香川県木田郡三木町平木46番地1",
      "lat": 34.270014,
      "lng": 134.129973,
      "geocoding_level": null,
      "phone": "087-813-9050",
      "license_no": "",
      "license_date": null,
      "expire_date": null
    },
    {
      "name": "ザグザグ三木店",
      "name_kana": "ザグザグミキテン",
      "business_type": "⑬ その他の食料・飲料販売業",
      "address": "香川県木田郡三木町鹿伏367-1",
      "lat": 34.272243,
      "lng": 134.137383,
      "geocoding_level": null,
      "phone": "087-898-7040",
      "license_no": "",
      "license_date": null,
      "expire_date": null
    },
    {
      "name": "ダイナム三木店",
      "name_kana": "ダイナムミキテン",
      "business_type": "⑤ コップ式自動販売機（自動洗浄・屋内設置）",
      "address": "香川県木田郡三木町氷上797番地",
      "lat": 34.262978,
      "lng": 134.136492,
      "geocoding_level": null,
      "phone": "070-1370-9847",
      "license_no": "",
      "license_date": null,
      "expire_date": null
    },
    {
      "name": "スターバックスコーヒー香川大学病院店",
      "name_kana": "スターバックスコーヒーカガワダイガクビョウインテン",
      "business_type": "⑬ その他の食料・飲料販売業",
      "address": "香川県木田郡三木町池戸1750-1 香川大学医学部附属病院",
      "lat": 34.294346,
      "lng": 134.123483,
      "geocoding_level": null,
      "phone": "087-891-7701",
      "license_no": "",
      "license_date": null,
      "expire_date": null
    },
    {
      "name": "スターバックスコーヒー香川大学病院店",
      "name_kana": "スターバックスコーヒーカガワダイガクビョウインテン",
      "business_type": "① 飲食店営業",
      "address": "香川県木田郡三木町池戸1750番1 香川大学附属病院",
      "lat": 34.294346,
      "lng": 134.123483,
      "geocoding_level": null,
      "phone": "087-891-7701",
      "license_no": "1010510196",
      "license_date": "2021-09-01",
      "expire_date": "2027-08-31"
    },
    {
      "name": "マルヨシセンター三木店",
      "name_kana": "マルヨシセンターミキテン",
      "business_type": "⑪ 百貨店、総合スーパー",
      "address": "香川県木田郡三木町鹿伏３１０",
      "lat": 34.271608,
      "lng": 134.136734,
      "geocoding_level": null,
      "phone": "087-898-7788",
      "license_no": "",
      "license_date": null,
      "expire_date": null
    },
    {
      "name": "タイヘイ株式会社　高松営業所",
      "name_kana": "タイヘイカブシキガイシャ　タカマツエイギョウショ",
      "business_type": "② 食肉販売業（包装済みの食肉のみの販売）",
      "address": "香川県木田郡三木町池戸1550-1",
      "lat": 34.292324,
      "lng": 134.127711,
      "geocoding_level": null,
      "phone": "087-840-2102",
      "license_no": "",
      "license_date": null,
      "expire_date": null
    },
    {
      "name": "タイヘイ株式会社　高松営業所",
      "name_kana": "タイヘイカブシキガイシャ　タカマツエイギョウショ",
      "business_type": "① 魚介類販売業（包装済みの魚介類のみの販売）",
      "address": "香川県木田郡三木町下高岡2197-1",
      "lat": 34.27693,
      "lng": 134.138731,
      "geocoding_level": null,
      "phone": "087-840-2102",
      "license_no": "",
      "license_date": null,
      "expire_date": null
    },
    {
      "name": "タイヘイ株式会社　高松営業所",
      "name_kana": "タイヘイカブシキガイシャ　タカマツエイギョウショ",
      "business_type": "② 食肉販売業（包装済みの食肉のみの販売）",
      "address": "香川県木田郡三木町下高岡2197-1",
      "lat": 34.27693,
      "lng": 134.138731,
      "geocoding_level": null,
      "phone": "087-840-2102",
      "license_no": "",
      "license_date": null,
      "expire_date": null
    },
    {
      "name": "タイヘイ株式会社　高松営業所",
      "name_kana": "タイヘイカブシキガイシャ　タカマツエイギョウショ",
      "business_type": "③ 乳類販売業",
      "address": "香川県木田郡三木町下高岡2197-1",
      "lat": 34.27693,
      "lng": 134.138731,
      "geocoding_level": null,
      "phone": "087-840-2102",
      "license_no": "",
      "license_date": null,
      "expire_date": null
    },
    {
      "name": "HOTEL AZ 香川三木店",
      "name_kana": "ホテル エーゼット カガワミキテン",
      "business_type": "① 飲食店営業",
      "address": "香川県木田郡三木町鹿伏289番地",
      "lat": 34.27058,
      "lng": 134.13998,
      "geocoding_level": null,
      "phone": "",
      "license_no": "1030160006",
      "license_date": "2026-02-27",
      "expire_date": "2032-02-29"
    },
    {
      "name": "ガスト　香川三木店",
      "name_kana": "ガストカガワミキテン",
      "business_type": "① 飲食店営業",
      "address": "香川県木田郡三木町氷上字花丸９０７－１",
      "lat": 34.263776,
      "lng": 134.135871,
      "geocoding_level": null,
      "phone": "087-840-2486",
      "license_no": "1010146053",
      "license_date": "2023-06-01",
      "expire_date": "2029-05-31"
    },
    {
      "name": "ガスト　香川三木店",
      "name_kana": "ガストカガワミキテン",
      "business_type": "⑬ その他の食料・飲料販売業",
      "address": "香川県木田郡三木町氷上字花丸９０７－１",
      "lat": 34.263776,
      "lng": 134.135871,
      "geocoding_level": null,
      "phone": "087-840-2486",
      "license_no": "",
      "license_date": null,
      "expire_date": null
    },
    {
      "name": "きくらげハウス",
      "name_kana": "キクラゲハウス",
      "business_type": "⑬ その他の食料・飲料販売業",
      "address": "香川県木田郡三木町井戸2467‐3",
      "lat": 34.264523,
      "lng": 134.160327,
      "geocoding_level": null,
      "phone": "0878982212",
      "license_no": "",
      "license_date": null,
      "expire_date": null
    },
    {
      "name": "きくらげハウス",
      "name_kana": "キクラゲハウス",
      "business_type": "⑰ 農産保存食料品製造・加工業",
      "address": "香川県木田郡三木町井戸2467‐3",
      "lat": 34.264523,
      "lng": 134.160327,
      "geocoding_level": null,
      "phone": "0878982212",
      "license_no": "",
      "license_date": null,
      "expire_date": null
    },
    {
      "name": "有限会社山地青果",
      "name_kana": "ユウゲンガイシャヤマジセイカ",
      "business_type": "⑬ その他の食料・飲料販売業",
      "address": "香川県木田郡三木町大字氷上2675番地2",
      "lat": 34.251743,
      "lng": 134.129331,
      "geocoding_level": null,
      "phone": "087-898-0089",
      "license_no": "",
      "license_date": null,
      "expire_date": null
    },
    {
      "name": "社会福祉法人　平井保育園",
      "name_kana": "シャカイフクシホウジンヒライホイクエン",
      "business_type": "㉖ 集団給食施設",
      "address": "香川県木田郡三木町平木224-5",
      "lat": 34.271022,
      "lng": 134.133338,
      "geocoding_level": null,
      "phone": "087-898-9775",
      "license_no": "",
      "license_date": null,
      "expire_date": null
    },
    {
      "name": "株式会社ハローズ三木店",
      "name_kana": "カブシキガイシャハローズミキテン",
      "business_type": "⑪ 百貨店、総合スーパー",
      "address": "香川県木田郡三木町大字氷上911番地",
      "lat": 34.263008,
      "lng": 134.134922,
      "geocoding_level": null,
      "phone": "087-802-8670",
      "license_no": "",
      "license_date": null,
      "expire_date": null
    },
    {
      "name": "三木とれとれ市",
      "name_kana": "ミキトレトレイチ",
      "business_type": "⑦ 野菜果物販売業",
      "address": "香川県木田郡三木町氷上364-1",
      "lat": 34.267693,
      "lng": 134.136392,
      "geocoding_level": null,
      "phone": "",
      "license_no": "",
      "license_date": null,
      "expire_date": null
    },
    {
      "name": "三木とれとれ市",
      "name_kana": "ミキトレトレイチ",
      "business_type": "⑧ 米穀類販売業",
      "address": "香川県木田郡三木町氷上364-1",
      "lat": 34.267693,
      "lng": 134.136392,
      "geocoding_level": null,
      "phone": "",
      "license_no": "",
      "license_date": null,
      "expire_date": null
    },
    {
      "name": "三木とれとれ市",
      "name_kana": "ミキトレトレイチ",
      "business_type": "⑬ その他の食料・飲料販売業",
      "address": "香川県木田郡三木町氷上364-1",
      "lat": 34.267693,
      "lng": 134.136392,
      "geocoding_level": null,
      "phone": "",
      "license_no": "",
      "license_date": null,
      "expire_date": null
    },
    {
      "name": "香川大学医学部　医学部会館1階",
      "name_kana": "カガワダイガクイガクブイガクブカイカンイッカイ",
      "business_type": "③ 乳類販売業",
      "address": "香川県木田郡三木町池戸1750-1 香川大学医学部内",
      "lat": 34.293469,
      "lng": 134.122873,
      "geocoding_level": null,
      "phone": "087-898-8766",
      "license_no": "",
      "license_date": null,
      "expire_date": null
    },
    {
      "name": "香川大学医学部付属病院　西病棟１階　No.2",
      "name_kana": "カガワダイガクイガクブフゾクビョウインニシビョウトウイッカイナンバーニ",
      "business_type": "③ 乳類販売業",
      "address": "香川県木田郡三木町池戸1750番地1号 香川大学医学部附属病院内",
      "lat": 34.293469,
      "lng": 134.122873,
      "geocoding_level": null,
      "phone": "087-898-8766",
      "license_no": "",
      "license_date": null,
      "expire_date": null
    },
    {
      "name": "スーパーセンタートライアル三木店",
      "name_kana": "スーパーセンタートライアルミキテン",
      "business_type": "① 飲食店営業",
      "address": "香川県木田郡三木町氷上803番地",
      "lat": 34.262211,
      "lng": 134.137295,
      "geocoding_level": null,
      "phone": "087-816-6836",
      "license_no": "1040360013",
      "license_date": "2025-07-10",
      "expire_date": "2031-08-31"
    },
    {
      "name": "スーパーセンタートライアル三木店",
      "name_kana": "スーパーセンタートライアルミキテン",
      "business_type": "③ 食肉販売業",
      "address": "香川県木田郡三木町氷上803番地",
      "lat": 34.262211,
      "lng": 134.137295,
      "geocoding_level": null,
      "phone": "087-816-6836",
      "license_no": "2160160013",
      "license_date": "2025-07-10",
      "expire_date": "2031-08-31"
    },
    {
      "name": "スーパーセンタートライアル三木店",
      "name_kana": "スーパーセンタートライアルミキテン",
      "business_type": "⑪ 菓子製造業",
      "address": "香川県木田郡三木町氷上803番地",
      "lat": 34.262211,
      "lng": 134.137295,
      "geocoding_level": null,
      "phone": "087-816-6836",
      "license_no": "2010260064",
      "license_date": "2025-07-10",
      "expire_date": "2031-08-31"
    },
    {
      "name": "スーパーセンタートライアル三木店",
      "name_kana": "スーパーセンタートライアルミキテン",
      "business_type": "⑪ 百貨店、総合スーパー",
      "address": "香川県木田郡三木町氷上803番地",
      "lat": 34.262211,
      "lng": 134.137295,
      "geocoding_level": null,
      "phone": "087-816-6836",
      "license_no": "",
      "license_date": null,
      "expire_date": null
    },
    {
      "name": "社会福祉法人恵福祉会　大宮保育園",
      "name_kana": "シャカイフクシホウジンメグミフクシカイオオミヤホイクエン",
      "business_type": "㉖ 集団給食施設",
      "address": "香川県木田郡三木町池戸宮の前2155-2",
      "lat": 34.283562,
      "lng": 134.122464,
      "geocoding_level": null,
      "phone": "",
      "license_no": "",
      "license_date": null,
      "expire_date": null
    },
    {
      "name": "株式会社サンエイ",
      "name_kana": "カブシキガイシャサンエイ",
      "business_type": "⑤ コップ式自動販売機（自動洗浄・屋内設置）",
      "address": "香川県木田郡三木町氷上3100番地3",
      "lat": 34.25195,
      "lng": 134.136675,
      "geocoding_level": null,
      "phone": "087-898-5177",
      "license_no": "",
      "license_date": null,
      "expire_date": null
    },
    {
      "name": "サンサン館みき　１F",
      "name_kana": "サンサンカンミキイチエフ",
      "business_type": "⑤ コップ式自動販売機（自動洗浄・屋内設置）",
      "address": "香川県木田郡三木町氷上2940番地1",
      "lat": 34.25342,
      "lng": 134.135008,
      "geocoding_level": null,
      "phone": "087-891-0333",
      "license_no": "",
      "license_date": null,
      "expire_date": null
    },
    {
      "name": "香川トヨタ　三木店",
      "name_kana": "カガワトヨタミキテン",
      "business_type": "⑤ コップ式自動販売機（自動洗浄・屋内設置）",
      "address": "香川県木田郡三木町氷上937番地1",
      "lat": 34.264081,
      "lng": 134.134749,
      "geocoding_level": null,
      "phone": "",
      "license_no": "",
      "license_date": null,
      "expire_date": null
    },
    {
      "name": "細川珈琲",
      "name_kana": "ホソカワコーヒー",
      "business_type": "⑯ コーヒー製造・加工業（飲料の製造を除く。）",
      "address": "香川県木田郡三木町池戸2309",
      "lat": 34.279289,
      "lng": 134.120961,
      "geocoding_level": null,
      "phone": "",
      "license_no": "",
      "license_date": null,
      "expire_date": null
    },
    {
      "name": "三木町幼稚園給食共同調理場",
      "name_kana": "ミキチョウヨウチエンキュウショクキョウドウチョウリジョウ",
      "business_type": "㉖ 集団給食施設",
      "address": "香川県木田郡三木町大字池戸1388番地34",
      "lat": 34.28831,
      "lng": 134.124877,
      "geocoding_level": null,
      "phone": "087-864-4405",
      "license_no": "",
      "license_date": null,
      "expire_date": null
    },
    {
      "name": "三木中学校給食場",
      "name_kana": "ミキチュウガッコウキュウショクジョウ",
      "business_type": "㉖ 集団給食施設",
      "address": "香川県木田郡三木町大字氷上31番地",
      "lat": 34.268093,
      "lng": 134.129211,
      "geocoding_level": null,
      "phone": "087-898-1547",
      "license_no": "",
      "license_date": null,
      "expire_date": null
    },
    {
      "name": "三木町立下高岡保育所",
      "name_kana": "ミキチョウリツシモタカオカホイクジョ",
      "business_type": "㉖ 集団給食施設",
      "address": "香川県木田郡三木町下高岡1151",
      "lat": 34.268447,
      "lng": 134.134394,
      "geocoding_level": null,
      "phone": "087-898-2750",
      "license_no": "",
      "license_date": null,
      "expire_date": null
    },
    {
      "name": "三木町立神山保育所",
      "name_kana": "ミキチョウリツカミヤマホイクジョ",
      "business_type": "㉖ 集団給食施設",
      "address": "香川県木田郡三木町鹿庭1756",
      "lat": 34.228305,
      "lng": 134.155046,
      "geocoding_level": null,
      "phone": "087-899-0322",
      "license_no": "",
      "license_date": null,
      "expire_date": null
    },
    {
      "name": "三木町立ししの子保育所",
      "name_kana": "ミキチョウリツシシノコホイクショ",
      "business_type": "㉖ 集団給食施設",
      "address": "香川県木田郡三木町池戸1388番地34",
      "lat": 34.28831,
      "lng": 134.124877,
      "geocoding_level": null,
      "phone": "087-864-4405",
      "license_no": "",
      "license_date": null,
      "expire_date": null
    },
    {
      "name": "三木町文化交流プラザ",
      "name_kana": "ミキチョウブンカコウリュウプラザ",
      "business_type": "⑦ 野菜果物販売業",
      "address": "香川県木田郡三木町鹿伏360",
      "lat": 34.272495,
      "lng": 134.136334,
      "geocoding_level": null,
      "phone": "",
      "license_no": "",
      "license_date": null,
      "expire_date": null
    },
    {
      "name": "三木町文化交流プラザ",
      "name_kana": "ミキチョウブンカコウリュウプラザ",
      "business_type": "⑬ その他の食料・飲料販売業",
      "address": "香川県木田郡三木町鹿伏360",
      "lat": 34.272495,
      "lng": 134.136334,
      "geocoding_level": null,
      "phone": "",
      "license_no": "",
      "license_date": null,
      "expire_date": null
    },
    {
      "name": "三木町文化交流プラザ",
      "name_kana": "ミキチョウブンカコウリュウプラザ",
      "business_type": "⑦ 野菜果物販売業",
      "address": "香川県木田郡三木町鹿伏360",
      "lat": 34.272495,
      "lng": 134.136334,
      "geocoding_level": null,
      "phone": "",
      "license_no": "",
      "license_date": null,
      "expire_date": null
    },
    {
      "name": "三木町文化交流プラザ",
      "name_kana": "ミキチョウブンカコウリュウプラザ",
      "business_type": "⑬ その他の食料・飲料販売業",
      "address": "香川県木田郡三木町鹿伏360",
      "lat": 34.272495,
      "lng": 134.136334,
      "geocoding_level": null,
      "phone": "",
      "license_no": "",
      "license_date": null,
      "expire_date": null
    },
    {
      "name": "マルナカ三木店　従業員用",
      "name_kana": "マルナカミキテン　ジュウギョウインヨウ",
      "business_type": "⑤ コップ式自動販売機（自動洗浄・屋内設置）",
      "address": "香川県木田郡三木町氷上４８２－２ マルナカ三木店２F",
      "lat": 34.267285,
      "lng": 134.138125,
      "geocoding_level": null,
      "phone": "087-898-1161",
      "license_no": "",
      "license_date": null,
      "expire_date": null
    },
    {
      "name": "香川県農業協同組合　三木とれとれ市",
      "name_kana": "カガワケンノウギョウキョウドウクミアイ　ミキトレトレイチ",
      "business_type": "⑫ 自動販売機による販売業（コップ式自動販売機（自動洗浄・屋内設置）及び営業許可の対象となる自動販売機を除く）",
      "address": "香川県木田郡三木町氷上364番地1",
      "lat": 34.267693,
      "lng": 134.136392,
      "geocoding_level": null,
      "phone": "",
      "license_no": "",
      "license_date": null,
      "expire_date": null
    },
    {
      "name": "特別養護老人ホーム白山山荘",
      "name_kana": "トクベツヨウゴロウジンホームハクザンサンソウ",
      "business_type": "㉖ 集団給食施設",
      "address": "香川県木田郡三木町下高岡2882番地1",
      "lat": 34.268447,
      "lng": 134.134394,
      "geocoding_level": null,
      "phone": "087-898-3123",
      "license_no": "",
      "license_date": null,
      "expire_date": null
    },
    {
      "name": "特別養護老人ホームみき山荘",
      "name_kana": "トクベツヨウゴロウジンホームミキサンソウ",
      "business_type": "㉖ 集団給食施設",
      "address": "香川県木田郡三木町井戸38番地1",
      "lat": 34.241001,
      "lng": 134.156655,
      "geocoding_level": null,
      "phone": "087-890-3122",
      "license_no": "",
      "license_date": null,
      "expire_date": null
    },
    {
      "name": "トレスタ白山",
      "name_kana": "トレスタシラヤマ",
      "business_type": "① 飲食店営業",
      "address": "香川県木田郡三木町下高岡972番地30",
      "lat": 34.26864,
      "lng": 134.136931,
      "geocoding_level": null,
      "phone": "087-898-8881",
      "license_no": "1040860001",
      "license_date": "2021-07-12",
      "expire_date": "2026-08-31"
    },
    {
      "name": "トレスタ白山",
      "name_kana": "トレスタシラヤマ",
      "business_type": "㉗ 冷凍食品製造業",
      "address": "香川県木田郡三木町下高岡972番地30",
      "lat": 34.26864,
      "lng": 134.136931,
      "geocoding_level": null,
      "phone": "087-898-8881",
      "license_no": "2090160001",
      "license_date": "2021-10-13",
      "expire_date": "2027-11-30"
    },
    {
      "name": "株式会社三木さぬき俱楽部　トレスタ白山",
      "name_kana": "カブシキガイシャミキサヌキクラブトレスタシラヤマ",
      "business_type": "① 飲食店営業",
      "address": "香川県木田郡三木町下高岡972番地30",
      "lat": 34.26864,
      "lng": 134.136931,
      "geocoding_level": null,
      "phone": "087-898-8881",
      "license_no": "1040860003",
      "license_date": "2022-03-14",
      "expire_date": "2027-05-31"
    },
    {
      "name": "株式会社三木さぬき俱楽部　トレスタ白山",
      "name_kana": "カブシキガイシャミキサヌキクラブトレスタシラヤマ",
      "business_type": "⑬ その他の食料・飲料販売業",
      "address": "香川県木田郡三木町下高岡972番地30",
      "lat": 34.26864,
      "lng": 134.136931,
      "geocoding_level": null,
      "phone": "087-898-8881",
      "license_no": "",
      "license_date": null,
      "expire_date": null
    },
    {
      "name": "TRESTA　白山　レストラン四季",
      "name_kana": "トレスタ　シラヤマ　レストランシキ",
      "business_type": "① 飲食店営業",
      "address": "香川県木田郡三木町下高岡972番地30",
      "lat": 34.26864,
      "lng": 134.136931,
      "geocoding_level": null,
      "phone": "087-891-0820",
      "license_no": "1030150001",
      "license_date": "2025-12-01",
      "expire_date": "2031-11-30"
    },
    {
      "name": "TRESTA　白山　レストラン四季",
      "name_kana": "トレスタ　シラヤマ　レストランシキ",
      "business_type": "⑪ 菓子製造業",
      "address": "香川県木田郡三木町下高岡972番地30",
      "lat": 34.26864,
      "lng": 134.136931,
      "geocoding_level": null,
      "phone": "087-891-0820",
      "license_no": "2010150026",
      "license_date": "2025-12-01",
      "expire_date": "2031-11-30"
    },
    {
      "name": "TRESTA　白山",
      "name_kana": "トレスタ　シラヤマ",
      "business_type": "① 飲食店営業",
      "address": "香川県木田郡三木町下高岡972番地30",
      "lat": 34.26864,
      "lng": 134.136931,
      "geocoding_level": null,
      "phone": "087-898-8881",
      "license_no": "1020250012",
      "license_date": "2025-12-01",
      "expire_date": "2031-11-30"
    },
    {
      "name": "TRESTA　白山　スケート食堂",
      "name_kana": "トレスタ　シラヤマ　スケートショクドウ",
      "business_type": "① 飲食店営業",
      "address": "香川県木田郡三木町下高岡972番地30",
      "lat": 34.26864,
      "lng": 134.136931,
      "geocoding_level": null,
      "phone": "087-891-0820",
      "license_no": "1010550014",
      "license_date": "2025-12-01",
      "expire_date": "2031-11-30"
    },
    {
      "name": "医療法人春風会　樫村病院",
      "name_kana": "イリョウホウジンシュンプウカイカシムラビョウイン",
      "business_type": "㉖ 集団給食施設",
      "address": "香川県木田郡三木町平木56-7",
      "lat": 34.270961,
      "lng": 134.128663,
      "geocoding_level": null,
      "phone": "087-898-1431",
      "license_no": "",
      "license_date": null,
      "expire_date": null
    },
    {
      "name": "キッチンカー25号車",
      "name_kana": "キッチンカーニジュウゴゴウシャ",
      "business_type": "① 飲食店営業",
      "address": "香川県木田郡三木町氷上",
      "lat": 34.263776,
      "lng": 134.135871,
      "geocoding_level": null,
      "phone": "",
      "license_no": "1041060001",
      "license_date": "2021-07-12",
      "expire_date": "2026-08-31"
    },
    {
      "name": "葉っぱ舎",
      "name_kana": "ハッパヤ",
      "business_type": "⑰ 農産保存食料品製造・加工業",
      "address": "香川県木田郡三木町氷上1277-6",
      "lat": 34.263622,
      "lng": 134.126856,
      "geocoding_level": null,
      "phone": "087-898-3744",
      "license_no": "",
      "license_date": null,
      "expire_date": null
    },
    {
      "name": "葉っぱ舎",
      "name_kana": "ハッパヤ",
      "business_type": "㉑ 製茶業",
      "address": "香川県木田郡三木町氷上1277-6",
      "lat": 34.263622,
      "lng": 134.126856,
      "geocoding_level": null,
      "phone": "087-898-3744",
      "license_no": "",
      "license_date": null,
      "expire_date": null
    },
    {
      "name": "葉っぱ舎",
      "name_kana": "ハッパヤ",
      "business_type": "㉔ その他の食料品製造・加工業",
      "address": "香川県木田郡三木町氷上1277-6",
      "lat": 34.263622,
      "lng": 134.126856,
      "geocoding_level": null,
      "phone": "087-898-3744",
      "license_no": "",
      "license_date": null,
      "expire_date": null
    },
    {
      "name": "Soup Curry ＆ Nepali Curry Surya",
      "name_kana": "スープカレーアンドネパールカレースーリヤ",
      "business_type": "① 飲食店営業",
      "address": "香川県木田郡三木町下高岡2155-1",
      "lat": 34.27693,
      "lng": 134.138731,
      "geocoding_level": null,
      "phone": "087-805-6431",
      "license_no": "1010160019",
      "license_date": "2023-04-24",
      "expire_date": "2028-05-31"
    },
    {
      "name": "香川大学生活協同組合　農学部食堂",
      "name_kana": "カガワダイガクセイカツキョウドウクミアイノウガクブショクドウ",
      "business_type": "① 飲食店営業",
      "address": "香川県木田郡三木町池戸2393番地",
      "lat": 34.275825,
      "lng": 134.125099,
      "geocoding_level": null,
      "phone": "",
      "license_no": "1010660002",
      "license_date": "2021-07-21",
      "expire_date": "2026-08-31"
    },
    {
      "name": "香川大学生活協同組合　農学部食堂",
      "name_kana": "カガワケンセイカツキョウドウクミアイノウガクブショクドウ",
      "business_type": "③ 乳類販売業",
      "address": "香川県木田郡三木町池戸2393番地",
      "lat": 34.275825,
      "lng": 134.125099,
      "geocoding_level": null,
      "phone": "",
      "license_no": "",
      "license_date": null,
      "expire_date": null
    },
    {
      "name": "香川大学生活協同組合医学店",
      "name_kana": "カガワダイガクセイカツキョウドウクミアイイガクテン",
      "business_type": "① 飲食店営業",
      "address": "香川県木田郡三木町池戸1750番地1　医学部　学生食堂",
      "lat": 34.292002,
      "lng": 134.122669,
      "geocoding_level": null,
      "phone": "087-899-6666",
      "license_no": "1010650060",
      "license_date": "2025-06-01",
      "expire_date": "2031-05-31"
    },
    {
      "name": "香川大学生活協同組合医学店",
      "name_kana": "カガワダイガクセイカツキョウドウクミアイイガクテン",
      "business_type": "③ 乳類販売業",
      "address": "香川県木田郡三木町池戸1750番地1　医学部　学生食堂",
      "lat": 34.291287,
      "lng": 134.12394,
      "geocoding_level": null,
      "phone": "087-899-6666",
      "license_no": "",
      "license_date": null,
      "expire_date": null
    },
    {
      "name": "香川大学生活協同組合農学部ショップ",
      "name_kana": "カガワダイガクセイカツキョウドウクミアイノウガクブショップ",
      "business_type": "③ 乳類販売業",
      "address": "香川県木田郡三木町池戸2393番地　農学部　池戸会館1階",
      "lat": 34.276447,
      "lng": 134.124686,
      "geocoding_level": null,
      "phone": "087-898-9023",
      "license_no": "",
      "license_date": null,
      "expire_date": null
    },
    {
      "name": "Basic coffee",
      "name_kana": "ベーシックコーヒー",
      "business_type": "① 飲食店営業",
      "address": "香川県木田郡三木町鹿伏208-3",
      "lat": 34.270478,
      "lng": 134.136825,
      "geocoding_level": null,
      "phone": "087-813-7275",
      "license_no": "1040460004",
      "license_date": "2021-08-05",
      "expire_date": "2026-08-31"
    },
    {
      "name": "香川大学医学部附属病院　ペオニーコート屋外（CM）",
      "name_kana": "カガワダイガクイガクブフゾクビョウインペオニイコートオクガイシイエム",
      "business_type": "② 調理機能を有する自動販売機（要許可）",
      "address": "香川県木田郡三木町池戸1750番地1 香川大学医学部附属病院内",
      "lat": 34.294346,
      "lng": 134.123483,
      "geocoding_level": null,
      "phone": "087-898-8766",
      "license_no": "1050260009",
      "license_date": "2024-03-01",
      "expire_date": "2029-02-28"
    },
    {
      "name": "スーパーふくいち",
      "name_kana": "スーパーフクイチ",
      "business_type": "① 飲食店営業",
      "address": "香川県木田郡三木町氷上8番地",
      "lat": 34.269335,
      "lng": 134.129799,
      "geocoding_level": null,
      "phone": "087-898-1541",
      "license_no": "1040310073",
      "license_date": "2021-09-01",
      "expire_date": "2026-08-31"
    },
    {
      "name": "スーパーふくいち",
      "name_kana": "スーパーフクイチ",
      "business_type": "③ 食肉販売業",
      "address": "香川県木田郡三木町氷上8番地",
      "lat": 34.269335,
      "lng": 134.129799,
      "geocoding_level": null,
      "phone": "087-898-1541",
      "license_no": "2160130344",
      "license_date": "2021-09-01",
      "expire_date": "2026-08-31"
    },
    {
      "name": "スーパーふくいち",
      "name_kana": "スーパーフクイチ",
      "business_type": "④ 魚介類販売業",
      "address": "香川県木田郡三木町氷上8番地",
      "lat": 34.269335,
      "lng": 134.129799,
      "geocoding_level": null,
      "phone": "087-898-1541",
      "license_no": "2060130341",
      "license_date": "2021-09-01",
      "expire_date": "2026-08-31"
    },
    {
      "name": "スーパーふくいち",
      "name_kana": "スーパーフクイチ",
      "business_type": "③ 乳類販売業",
      "address": "香川県木田郡三木町氷上8番地",
      "lat": 34.269335,
      "lng": 134.129799,
      "geocoding_level": null,
      "phone": "087-898-1541",
      "license_no": "",
      "license_date": null,
      "expire_date": null
    },
    {
      "name": "スーパーふくいち",
      "name_kana": "スーパーフクイチ",
      "business_type": "⑪ 百貨店、総合スーパー",
      "address": "香川県木田郡三木町氷上8番地",
      "lat": 34.269335,
      "lng": 134.129799,
      "geocoding_level": null,
      "phone": "087-898-1541",
      "license_no": "",
      "license_date": null,
      "expire_date": null
    },
    {
      "name": "スーパーふくいち（たこ焼）",
      "name_kana": "スーパーフクイチタコヤキ",
      "business_type": "① 飲食店営業",
      "address": "香川県木田郡三木町氷上8番地",
      "lat": 34.269335,
      "lng": 134.129799,
      "geocoding_level": null,
      "phone": "087-898-1541",
      "license_no": "1020360001",
      "license_date": "2021-09-01",
      "expire_date": "2026-08-31"
    },
    {
      "name": "手打ちうどん　味泉",
      "name_kana": "テウチウドンミセン",
      "business_type": "① 飲食店営業",
      "address": "香川県木田郡三木町池戸3317番地1 ビィラ・アンソレイエ三木町",
      "lat": 34.278012,
      "lng": 134.118938,
      "geocoding_level": null,
      "phone": "087-898-6198",
      "license_no": "1010446327",
      "license_date": "2021-09-01",
      "expire_date": "2026-08-31"
    },
    {
      "name": "ローソン三木町鹿伏店",
      "name_kana": "ローソンミキチョウシシブセテン",
      "business_type": "① 飲食店営業",
      "address": "香川県木田郡三木町大字鹿伏338-5",
      "lat": 34.269554,
      "lng": 134.133972,
      "geocoding_level": null,
      "phone": "087-802-9699",
      "license_no": "1040360004",
      "license_date": "2023-02-09",
      "expire_date": "2029-02-28"
    },
    {
      "name": "ローソン三木町鹿伏店",
      "name_kana": "ローソンミキチョウシシブセテン",
      "business_type": "⑩ コンビニエンスストア",
      "address": "香川県木田郡三木町大字鹿伏338-5",
      "lat": 34.269554,
      "lng": 134.133972,
      "geocoding_level": null,
      "phone": "087-802-9699",
      "license_no": "",
      "license_date": null,
      "expire_date": null
    },
    {
      "name": "ローソン三木町氷上店",
      "name_kana": "ローソンミキチョウヒカミテン",
      "business_type": "① 飲食店営業",
      "address": "香川県木田郡三木町大字氷上1208-1",
      "lat": 34.264763,
      "lng": 134.128354,
      "geocoding_level": null,
      "phone": "087-802-8368",
      "license_no": "1040360005",
      "license_date": "2023-02-09",
      "expire_date": "2029-02-28"
    },
    {
      "name": "ローソン三木町氷上店",
      "name_kana": "ローソンミキチョウヒカミテン",
      "business_type": "⑩ コンビニエンスストア",
      "address": "香川県木田郡三木町大字氷上1208-1",
      "lat": 34.264763,
      "lng": 134.128354,
      "geocoding_level": null,
      "phone": "087-802-8368",
      "license_no": "",
      "license_date": null,
      "expire_date": null
    },
    {
      "name": "多田製麺所",
      "name_kana": "タダセイメンショ",
      "business_type": "㉔ 麺類製造業",
      "address": "香川県木田郡三木町池戸2918番地",
      "lat": 34.272816,
      "lng": 134.124961,
      "geocoding_level": null,
      "phone": "087-898-5033",
      "license_no": "2270131203",
      "license_date": "2021-09-01",
      "expire_date": "2026-08-31"
    },
    {
      "name": "多田製麺所",
      "name_kana": "タダセイメンショ",
      "business_type": "① 飲食店営業",
      "address": "香川県木田郡三木町池戸2918番地",
      "lat": 34.272816,
      "lng": 134.124961,
      "geocoding_level": null,
      "phone": "087-898-5033",
      "license_no": "1010404473",
      "license_date": "2021-09-01",
      "expire_date": "2026-08-31"
    },
    {
      "name": "カフェ　グリーン",
      "name_kana": "カフェグリーン",
      "business_type": "① 飲食店営業",
      "address": "香川県木田郡三木町井戸2614番地5",
      "lat": 34.26601,
      "lng": 134.162849,
      "geocoding_level": null,
      "phone": "",
      "license_no": "1010550077",
      "license_date": "2021-09-01",
      "expire_date": "2026-08-31"
    },
    {
      "name": "ローソン三木町井戸店",
      "name_kana": "ローソンミキチョウイドテン",
      "business_type": "① 飲食店営業",
      "address": "香川県木田郡三木町井戸字高木591番地1",
      "lat": 34.251794,
      "lng": 134.159267,
      "geocoding_level": null,
      "phone": "087-899-1501",
      "license_no": "1040450019",
      "license_date": "2021-09-01",
      "expire_date": "2027-08-31"
    },
    {
      "name": "ローソン三木町井戸店",
      "name_kana": "ローソンミキチョウイドテン",
      "business_type": "① 魚介類販売業（包装済みの魚介類のみの販売）",
      "address": "香川県木田郡三木町井戸字高木591番地1",
      "lat": 34.251794,
      "lng": 134.159267,
      "geocoding_level": null,
      "phone": "087-899-1501",
      "license_no": "",
      "license_date": null,
      "expire_date": null
    },
    {
      "name": "ローソン三木町井戸店",
      "name_kana": "ローソンミキチョウイドテン",
      "business_type": "② 食肉販売業（包装済みの食肉のみの販売）",
      "address": "香川県木田郡三木町井戸字高木591番地1",
      "lat": 34.251794,
      "lng": 134.159267,
      "geocoding_level": null,
      "phone": "087-899-1501",
      "license_no": "",
      "license_date": null,
      "expire_date": null
    },
    {
      "name": "ローソン三木町井戸店",
      "name_kana": "ローソンミキチョウイドテン",
      "business_type": "③ 乳類販売業",
      "address": "香川県木田郡三木町井戸字高木591番地1",
      "lat": 34.251794,
      "lng": 134.159267,
      "geocoding_level": null,
      "phone": "087-899-1501",
      "license_no": "",
      "license_date": null,
      "expire_date": null
    },
    {
      "name": "ローソン三木町井戸店",
      "name_kana": "ローソンミキチョウイドテン",
      "business_type": "⑩ コンビニエンスストア",
      "address": "香川県木田郡三木町井戸字高木591番地1",
      "lat": 34.251794,
      "lng": 134.159267,
      "geocoding_level": null,
      "phone": "087-899-1501",
      "license_no": "",
      "license_date": null,
      "expire_date": null
    },
    {
      "name": "スーパードラッグコスモス三木店",
      "name_kana": "スーパードラッグコスモスミキテン",
      "business_type": "② 食肉販売業（包装済みの食肉のみの販売）",
      "address": "香川県木田郡三木町下高岡2158番地",
      "lat": 34.262727,
      "lng": 134.143018,
      "geocoding_level": null,
      "phone": "087-891-9811",
      "license_no": "",
      "license_date": null,
      "expire_date": null
    },
    {
      "name": "くすりのレデイ三木店",
      "name_kana": "クスリノレデイミキテン",
      "business_type": "③ 乳類販売業",
      "address": "香川県木田郡三木町平木46番地1",
      "lat": 34.270014,
      "lng": 134.129973,
      "geocoding_level": null,
      "phone": "087-813-9050",
      "license_no": "",
      "license_date": null,
      "expire_date": null
    },
    {
      "name": "くすりのレデイ三木店",
      "name_kana": "クスリノレデイミキテン",
      "business_type": "⑫ 自動販売機による販売業（コップ式自動販売機（自動洗浄・屋内設置）及び営業許可の対象となる自動販売機を除く）",
      "address": "香川県木田郡三木町平木46番地1",
      "lat": 34.270014,
      "lng": 134.129973,
      "geocoding_level": null,
      "phone": "087-813-9050",
      "license_no": "",
      "license_date": null,
      "expire_date": null
    },
    {
      "name": "ミルコム南　香川東センター",
      "name_kana": "ミルコムミナミカガワヒガシセンター",
      "business_type": "③ 乳類販売業",
      "address": "香川県木田郡三木町氷上2432-1",
      "lat": 34.254105,
      "lng": 134.125378,
      "geocoding_level": null,
      "phone": "05035317477",
      "license_no": "",
      "license_date": null,
      "expire_date": null
    },
    {
      "name": "氷上Factory",
      "name_kana": "ヒカミファクトリー",
      "business_type": "① 飲食店営業",
      "address": "香川県木田郡三木町氷上406-5",
      "lat": 34.266134,
      "lng": 134.136214,
      "geocoding_level": null,
      "phone": "087-898-4572",
      "license_no": "1010560004",
      "license_date": "2021-09-14",
      "expire_date": "2026-11-30"
    },
    {
      "name": "氷上Factory",
      "name_kana": "ヒカミファクトリー",
      "business_type": "⑪ 菓子製造業",
      "address": "香川県木田郡三木町氷上406-5",
      "lat": 34.266134,
      "lng": 134.136214,
      "geocoding_level": null,
      "phone": "087-898-4572",
      "license_no": "2010160005",
      "license_date": "2021-09-14",
      "expire_date": "2026-11-30"
    },
    {
      "name": "氷上Factory",
      "name_kana": "ヒカミファクトリー",
      "business_type": "⑦ 野菜果物販売業",
      "address": "香川県木田郡三木町氷上406-5",
      "lat": 34.266134,
      "lng": 134.136214,
      "geocoding_level": null,
      "phone": "087-898-4572",
      "license_no": "",
      "license_date": null,
      "expire_date": null
    },
    {
      "name": "矢野屋",
      "name_kana": "ヤノヤ",
      "business_type": "㉔ その他の食料品製造・加工業",
      "address": "香川県木田郡三木町池戸3160-3",
      "lat": 34.275512,
      "lng": 134.116352,
      "geocoding_level": null,
      "phone": "",
      "license_no": "",
      "license_date": null,
      "expire_date": null
    },
    {
      "name": "サイトウコーヒー",
      "name_kana": "サイトウコーヒー",
      "business_type": "⑯ コーヒー製造・加工業（飲料の製造を除く。）",
      "address": "香川県木田郡三木町鹿庭2022-1",
      "lat": 34.239266,
      "lng": 134.158229,
      "geocoding_level": null,
      "phone": "",
      "license_no": "",
      "license_date": null,
      "expire_date": null
    },
    {
      "name": "農事組合法人東山産業",
      "name_kana": "ノウジクミアイホウジンヒガシヤマサンギョウ",
      "business_type": "⑱ 液卵製造業",
      "address": "香川県木田郡三木町井上822-1",
      "lat": 34.28714,
      "lng": 134.138904,
      "geocoding_level": null,
      "phone": "087-898-1425",
      "license_no": "2400060001",
      "license_date": "2024-03-28",
      "expire_date": "2030-05-31"
    },
    {
      "name": "山地農園",
      "name_kana": "ヤマジノウエン",
      "business_type": "⑰ 農産保存食料品製造・加工業",
      "address": "香川県木田郡三木町下高岡846",
      "lat": 34.250798,
      "lng": 134.1463,
      "geocoding_level": null,
      "phone": "",
      "license_no": "",
      "license_date": null,
      "expire_date": null
    },
    {
      "name": "山地農園",
      "name_kana": "ヤマジノウエン",
      "business_type": "⑱ 調味料製造・加工業",
      "address": "香川県木田郡三木町下高岡846",
      "lat": 34.250798,
      "lng": 134.1463,
      "geocoding_level": null,
      "phone": "",
      "license_no": "",
      "license_date": null,
      "expire_date": null
    },
    {
      "name": "ドラッグコスモス三木店",
      "name_kana": "ドラッグコスモスミキテン",
      "business_type": "⑪ 百貨店、総合スーパー",
      "address": "香川県木田郡三木町下高岡2158",
      "lat": 34.26864,
      "lng": 134.136931,
      "geocoding_level": null,
      "phone": "087-891-9811",
      "license_no": "",
      "license_date": null,
      "expire_date": null
    },
    {
      "name": "ドラッグコスモス三木池戸店",
      "name_kana": "ドラッグコスモスミキイケノベテン",
      "business_type": "⑪ 百貨店、総合スーパー",
      "address": "香川県木田郡三木町池戸3004-2",
      "lat": 34.273688,
      "lng": 134.122505,
      "geocoding_level": null,
      "phone": "087-802-7885",
      "license_no": "",
      "license_date": null,
      "expire_date": null
    },
    {
      "name": "カキ焼き白山",
      "name_kana": "カキヤキシラヤマ",
      "business_type": "① 飲食店営業",
      "address": "香川県木田郡三木町下高岡972-30 トレスタ白山",
      "lat": 34.250798,
      "lng": 134.1463,
      "geocoding_level": null,
      "phone": "087-898-8881",
      "license_no": "1040860002",
      "license_date": "2021-11-10",
      "expire_date": "2026-11-30"
    },
    {
      "name": "食肉加工・配送センター",
      "name_kana": "ショクニクカコウ・ハイソウセンター",
      "business_type": "⑨ 食肉処理業",
      "address": "香川県木田郡三木町大字井戸1293番地1",
      "lat": 34.25147,
      "lng": 134.162904,
      "geocoding_level": null,
      "phone": "087-802-7229",
      "license_no": "2150160002",
      "license_date": "2022-07-12",
      "expire_date": "2028-08-31"
    },
    {
      "name": "食肉加工・配送センター",
      "name_kana": "ショクニクカコウ・ハイソウセンター",
      "business_type": "㉕ そうざい製造業",
      "address": "香川県木田郡三木町大字井戸1293番地1",
      "lat": 34.25147,
      "lng": 134.162904,
      "geocoding_level": null,
      "phone": "087-802-7229",
      "license_no": "2280060018",
      "license_date": "2023-06-19",
      "expire_date": "2029-08-31"
    },
    {
      "name": "食肉加工・配送センター",
      "name_kana": "ショクニクカコウ・ハイソウセンター",
      "business_type": "㉗ 冷凍食品製造業",
      "address": "香川県木田郡三木町大字井戸1293番地1",
      "lat": 34.25147,
      "lng": 134.162904,
      "geocoding_level": null,
      "phone": "087-802-7229",
      "license_no": "2090160002",
      "license_date": "2021-12-03",
      "expire_date": "2028-02-29"
    },
    {
      "name": "食肉加工・配送センター",
      "name_kana": "ショクニクカコウ・ハイソウセンター",
      "business_type": "㉛ 食品の小分け業",
      "address": "香川県木田郡三木町大字井戸1293番地1",
      "lat": 34.25147,
      "lng": 134.162904,
      "geocoding_level": null,
      "phone": "087-802-7229",
      "license_no": "2420060003",
      "license_date": "2023-04-26",
      "expire_date": "2029-05-31"
    },
    {
      "name": "食肉加工・配送センター",
      "name_kana": "ショクニクカコウ・ハイソウセンター",
      "business_type": "① 魚介類販売業（包装済みの魚介類のみの販売）",
      "address": "香川県木田郡三木町大字井戸1293番地1",
      "lat": 34.25147,
      "lng": 134.162904,
      "geocoding_level": null,
      "phone": "087-802-7229",
      "license_no": "",
      "license_date": null,
      "expire_date": null
    },
    {
      "name": "食肉加工・配送センター",
      "name_kana": "ショクニクカコウ・ハイソウセンター",
      "business_type": "② 食肉販売業（包装済みの食肉のみの販売）",
      "address": "香川県木田郡三木町大字井戸1293番地1",
      "lat": 34.25147,
      "lng": 134.162904,
      "geocoding_level": null,
      "phone": "087-802-7229",
      "license_no": "",
      "license_date": null,
      "expire_date": null
    },
    {
      "name": "食肉加工・配送センター",
      "name_kana": "ショクニクカコウ・ハイソウセンター",
      "business_type": "⑦ 野菜果物販売業",
      "address": "香川県木田郡三木町大字井戸1293番地1",
      "lat": 34.25147,
      "lng": 134.162904,
      "geocoding_level": null,
      "phone": "087-802-7229",
      "license_no": "",
      "license_date": null,
      "expire_date": null
    },
    {
      "name": "大森製餅",
      "name_kana": "オオモリセイペイ",
      "business_type": "⑪ 菓子製造業",
      "address": "香川県木田郡三木町氷上2454番地5",
      "lat": 34.252764,
      "lng": 134.124079,
      "geocoding_level": null,
      "phone": "087-898-1646",
      "license_no": "2010131212",
      "license_date": "2021-12-01",
      "expire_date": "2026-11-30"
    },
    {
      "name": "スズカウォール",
      "name_kana": "スズカウォール",
      "business_type": "① 飲食店営業",
      "address": "香川県木田郡三木町平木247番地1",
      "lat": 34.272103,
      "lng": 134.134396,
      "geocoding_level": null,
      "phone": "087-898-3136",
      "license_no": "1010140450",
      "license_date": "2021-12-01",
      "expire_date": "2026-11-30"
    },
    {
      "name": "株式会社ファインフーズ",
      "name_kana": "カブシキガイシャファインフーズ",
      "business_type": "⑨ 食肉処理業",
      "address": "香川県木田郡三木町井上3098番地22",
      "lat": 34.305709,
      "lng": 134.155301,
      "geocoding_level": null,
      "phone": "087-891-9716",
      "license_no": "2150110005",
      "license_date": "2021-12-01",
      "expire_date": "2027-11-30"
    },
    {
      "name": "株式会社ファインフーズ",
      "name_kana": "カブシキガイシャファインフーズ",
      "business_type": "㉕ そうざい製造業",
      "address": "香川県木田郡三木町井上3098番地22",
      "lat": 34.305709,
      "lng": 134.155301,
      "geocoding_level": null,
      "phone": "087-891-9716",
      "license_no": "2280010036",
      "license_date": "2021-12-01",
      "expire_date": "2027-11-30"
    },
    {
      "name": "玄季旬菜食堂　こにこ",
      "name_kana": "ゲンキシュンサイショクドウコニコ",
      "business_type": "① 飲食店営業",
      "address": "香川県木田郡三木町下高岡1301番地1",
      "lat": 34.303312,
      "lng": 133.990503,
      "geocoding_level": null,
      "phone": "087-898-9203",
      "license_no": "1010150057",
      "license_date": "2021-12-01",
      "expire_date": "2026-11-30"
    },
    {
      "name": "玄季旬菜食堂　こにこ",
      "name_kana": "ゲンキシュンサイショクドウコニコ",
      "business_type": "⑪ 菓子製造業",
      "address": "香川県木田郡三木町下高岡1301番地1",
      "lat": 34.303312,
      "lng": 133.990503,
      "geocoding_level": null,
      "phone": "087-898-9203",
      "license_no": "2010150076",
      "license_date": "2021-12-01",
      "expire_date": "2026-11-30"
    },
    {
      "name": "ミスタードーナツ高松三木ショップ",
      "name_kana": "ミスタードーナツタカマツミキショップ",
      "business_type": "⑬ その他の食料・飲料販売業",
      "address": "香川県木田郡三木町氷上913",
      "lat": 34.263609,
      "lng": 134.135212,
      "geocoding_level": null,
      "phone": "",
      "license_no": "",
      "license_date": null,
      "expire_date": null
    },
    {
      "name": "宅配みるく便",
      "name_kana": "タクハイミルクビン",
      "business_type": "③ 乳類販売業",
      "address": "香川県木田郡三木町大字井戸389番地1",
      "lat": 34.252512,
      "lng": 134.153502,
      "geocoding_level": null,
      "phone": "087-899-1280",
      "license_no": "",
      "license_date": null,
      "expire_date": null
    },
    {
      "name": "ファミリーマート三木町氷上店",
      "name_kana": "ファミリーマートミキチョウヒカミテン",
      "business_type": "⑩ コンビニエンスストア",
      "address": "香川県木田郡三木町大字氷上字西ツフロ木2563-2",
      "lat": 34.255536,
      "lng": 134.128069,
      "geocoding_level": null,
      "phone": "0878917223",
      "license_no": "",
      "license_date": null,
      "expire_date": null
    },
    {
      "name": "中央化成工業株式会社三木工場",
      "name_kana": "チュウオウカセイコウギョウカブシキカイシャミキコウジョウ",
      "business_type": "㉗ 器具、容器包装の製造・加工業（合成樹脂が使用された器具又は容器包装の製造、加工に限る。）",
      "address": "香川県木田郡三木町鹿庭435番地1",
      "lat": 34.235803,
      "lng": 134.158809,
      "geocoding_level": null,
      "phone": "0878903025",
      "license_no": "",
      "license_date": null,
      "expire_date": null
    },
    {
      "name": "パティスリーもりん　三木店",
      "name_kana": "パティスリーモリンミキテン",
      "business_type": "⑪ 菓子製造業",
      "address": "香川県木田郡三木町氷上482-2 マルナカ敷地内",
      "lat": 34.267285,
      "lng": 134.138125,
      "geocoding_level": null,
      "phone": "087-802-8301",
      "license_no": "2010160009",
      "license_date": "2022-02-01",
      "expire_date": "2027-02-28"
    },
    {
      "name": "パティスリーもりん　三木店",
      "name_kana": "パティスリーモリンミキテン",
      "business_type": "⑬ その他の食料・飲料販売業",
      "address": "香川県木田郡三木町氷上482-2 マルナカ敷地内",
      "lat": 34.267285,
      "lng": 134.138125,
      "geocoding_level": null,
      "phone": "087-802-8301",
      "license_no": "",
      "license_date": null,
      "expire_date": null
    },
    {
      "name": "ｒｉｄｅｒｅ５・安達宝文堂",
      "name_kana": "リデレファイブ・アダチホウブンドウ",
      "business_type": "① 飲食店営業",
      "address": "香川県木田郡三木町平木17",
      "lat": 34.270305,
      "lng": 134.132095,
      "geocoding_level": null,
      "phone": "",
      "license_no": "1010560009",
      "license_date": "2022-02-07",
      "expire_date": "2027-02-28"
    },
    {
      "name": "レストラン　オリーブ",
      "name_kana": "レストランオリーブ",
      "business_type": "① 飲食店営業",
      "address": "香川県木田郡三木町池戸1750-1 香大医学部内",
      "lat": 34.292442,
      "lng": 134.123512,
      "geocoding_level": null,
      "phone": "087-813-7212",
      "license_no": "1010160006",
      "license_date": "2022-03-14",
      "expire_date": "2028-05-31"
    },
    {
      "name": "香川大学医学部附属病院患者給食厨房",
      "name_kana": "カガワダイガクイガクブフゾクビョウインカンジャキュウショクチュウボウ",
      "business_type": "① 飲食店営業",
      "address": "香川県木田郡三木町池戸1750-1",
      "lat": 34.292442,
      "lng": 134.123512,
      "geocoding_level": null,
      "phone": "087-813-7212",
      "license_no": "1010660005",
      "license_date": "2022-03-14",
      "expire_date": "2028-05-31"
    },
    {
      "name": "Ｏｒｉ",
      "name_kana": "オリ",
      "business_type": "① 飲食店営業",
      "address": "香川県木田郡三木町井戸1571-1",
      "lat": 34.257627,
      "lng": 134.16474,
      "geocoding_level": null,
      "phone": "",
      "license_no": "1040460007",
      "license_date": "2022-04-27",
      "expire_date": "2027-05-31"
    },
    {
      "name": "Ｏｒｉ",
      "name_kana": "オリ",
      "business_type": "⑪ 菓子製造業",
      "address": "香川県木田郡三木町井戸1571-1",
      "lat": 34.257627,
      "lng": 134.16474,
      "geocoding_level": null,
      "phone": "",
      "license_no": "2010160012",
      "license_date": "2022-03-22",
      "expire_date": "2027-05-31"
    },
    {
      "name": "Ｏｒｉ",
      "name_kana": "オリ",
      "business_type": "① 飲食店営業",
      "address": "香川県木田郡三木町井戸",
      "lat": 34.26616,
      "lng": 134.160607,
      "geocoding_level": null,
      "phone": "",
      "license_no": "1040760016",
      "license_date": "2023-03-03",
      "expire_date": "2028-05-31"
    },
    {
      "name": "あぐりぼん株式会社",
      "name_kana": "アグリボンカブシキガイシャ",
      "business_type": "⑦ 野菜果物販売業",
      "address": "香川県木田郡三木町井上241-1",
      "lat": 34.28299,
      "lng": 134.132583,
      "geocoding_level": null,
      "phone": "",
      "license_no": "",
      "license_date": null,
      "expire_date": null
    },
    {
      "name": "あぐりぼん株式会社",
      "name_kana": "アグリボンカブシキガイシャ",
      "business_type": "⑨ 通信販売・訪問販売による販売業",
      "address": "香川県木田郡三木町井上241-1",
      "lat": 34.28299,
      "lng": 134.132583,
      "geocoding_level": null,
      "phone": "",
      "license_no": "",
      "license_date": null,
      "expire_date": null
    },
    {
      "name": "JA香川県田中支店北側駐車場",
      "name_kana": "ジェイエーカガワケンタナカシテンキタガワチュウシャジョウ",
      "business_type": "⑦ 野菜果物販売業",
      "address": "香川県木田郡三木町田中3828-2",
      "lat": 34.268447,
      "lng": 134.134394,
      "geocoding_level": null,
      "phone": "",
      "license_no": "",
      "license_date": null,
      "expire_date": null
    },
    {
      "name": "JA香川県田中支店北側駐車場",
      "name_kana": "ジェイエーカガワケンタナカシテンキタガワチュウシャジョウ",
      "business_type": "⑬ その他の食料・飲料販売業",
      "address": "香川県木田郡三木町田中3828-2",
      "lat": 34.268447,
      "lng": 134.134394,
      "geocoding_level": null,
      "phone": "",
      "license_no": "",
      "license_date": null,
      "expire_date": null
    },
    {
      "name": "いちご家めい株式会社",
      "name_kana": "イチゴヤメイカブシキガイシャ",
      "business_type": "⑬ その他の食料・飲料販売業",
      "address": "香川県木田郡三木町大字井上253番地",
      "lat": 34.303802,
      "lng": 134.148291,
      "geocoding_level": null,
      "phone": "090-3460-8173",
      "license_no": "",
      "license_date": null,
      "expire_date": null
    },
    {
      "name": "ローソン三木下高岡店",
      "name_kana": "ローソンミキシモタカオカテン",
      "business_type": "⑩ コンビニエンスストア",
      "address": "香川県木田郡三木町下高岡1378-1",
      "lat": 34.250798,
      "lng": 134.1463,
      "geocoding_level": null,
      "phone": "087-891-9308",
      "license_no": "",
      "license_date": null,
      "expire_date": null
    },
    {
      "name": "ローソン三木町氷上店",
      "name_kana": "ローソンミキチョウヒカミテン",
      "business_type": "⑩ コンビニエンスストア",
      "address": "香川県木田郡三木町氷上1208-1",
      "lat": 34.264752,
      "lng": 134.12838,
      "geocoding_level": null,
      "phone": "087-898-8887",
      "license_no": "",
      "license_date": null,
      "expire_date": null
    },
    {
      "name": "ローソン三木町鹿伏店",
      "name_kana": "ローソンミキチョウシシブセテン",
      "business_type": "⑩ コンビニエンスストア",
      "address": "香川県木田郡三木町鹿伏338-5",
      "lat": 34.269555,
      "lng": 134.133988,
      "geocoding_level": null,
      "phone": "087-898-0188",
      "license_no": "",
      "license_date": null,
      "expire_date": null
    },
    {
      "name": "農村カフェ　晴レノチこみの",
      "name_kana": "ノウソンカフェハレノチコミノ",
      "business_type": "① 飲食店営業",
      "address": "香川県木田郡三木町大字小蓑926番地",
      "lat": 34.189346,
      "lng": 134.120484,
      "geocoding_level": null,
      "phone": "087-899-1099",
      "license_no": "1010160007",
      "license_date": "2022-04-22",
      "expire_date": "2027-05-31"
    },
    {
      "name": "農村カフェ　晴レノチこみの",
      "name_kana": "ノウソンカフェハレノチコミノ",
      "business_type": "② 食肉販売業（包装済みの食肉のみの販売）",
      "address": "香川県木田郡三木町大字小蓑926番地",
      "lat": 34.189378,
      "lng": 134.120553,
      "geocoding_level": null,
      "phone": "087-899-1099",
      "license_no": "",
      "license_date": null,
      "expire_date": null
    },
    {
      "name": "末廣商店",
      "name_kana": "スエヒロショウテン",
      "business_type": "⑬ その他の食料・飲料販売業",
      "address": "香川県木田郡三木町奥山2184番地1",
      "lat": 34.167027,
      "lng": 134.152007,
      "geocoding_level": null,
      "phone": "087-899-0204",
      "license_no": "",
      "license_date": null,
      "expire_date": null
    },
    {
      "name": "寄り処　まるまさ",
      "name_kana": "ヨリドコロマルマサ",
      "business_type": "① 飲食店営業",
      "address": "香川県木田郡三木町鹿伏328 たまやビル1F",
      "lat": 34.269167,
      "lng": 134.134479,
      "geocoding_level": null,
      "phone": "087-898-2133",
      "license_no": "1010160008",
      "license_date": "2022-04-25",
      "expire_date": "2027-05-31"
    },
    {
      "name": "香川大学医学部付属病院　院内保育所　いちご保育園",
      "name_kana": "カガワダイガクイガクブフゾクビョウインインナイホイクショイチゴホイクエン",
      "business_type": "㉖ 集団給食施設",
      "address": "香川県木田郡三木町池戸1750-1",
      "lat": 34.295051,
      "lng": 134.123756,
      "geocoding_level": null,
      "phone": "087-891-2488",
      "license_no": "",
      "license_date": null,
      "expire_date": null
    },
    {
      "name": "香西",
      "name_kana": "コウザイ",
      "business_type": "㉔ その他の食料品製造・加工業",
      "address": "香川県木田郡三木町上高岡1811-4",
      "lat": 34.247173,
      "lng": 134.15276,
      "geocoding_level": null,
      "phone": "087-899-0031",
      "license_no": "",
      "license_date": null,
      "expire_date": null
    },
    {
      "name": "しらやま朝市",
      "name_kana": "シラヤマアサイチ",
      "business_type": "⑦ 野菜果物販売業",
      "address": "香川県木田郡三木町下高岡1459-2",
      "lat": 34.250798,
      "lng": 134.1463,
      "geocoding_level": null,
      "phone": "",
      "license_no": "",
      "license_date": null,
      "expire_date": null
    },
    {
      "name": "しらやま朝市",
      "name_kana": "シラヤマアサイチ",
      "business_type": "⑬ その他の食料・飲料販売業",
      "address": "香川県木田郡三木町下高岡1459-2",
      "lat": 34.250798,
      "lng": 134.1463,
      "geocoding_level": null,
      "phone": "",
      "license_no": "",
      "license_date": null,
      "expire_date": null
    },
    {
      "name": "ゆきちゃんち",
      "name_kana": "ユキチャンチ",
      "business_type": "① 飲食店営業",
      "address": "香川県木田郡三木町上高岡350-1",
      "lat": 34.252866,
      "lng": 134.139999,
      "geocoding_level": null,
      "phone": "",
      "license_no": "1010160011",
      "license_date": "2022-09-09",
      "expire_date": "2027-11-30"
    },
    {
      "name": "馬鈴薯",
      "name_kana": "バレイショ",
      "business_type": "① 飲食店営業",
      "address": "香川県木田郡三木町井戸4169番地",
      "lat": 34.266326,
      "lng": 134.158584,
      "geocoding_level": null,
      "phone": "087-898-0969",
      "license_no": "1010522714",
      "license_date": "2022-06-01",
      "expire_date": "2027-05-31"
    },
    {
      "name": "有料老人ホーム　吉鈴の里",
      "name_kana": "ユウリョウロウジンホームキチリンノサト",
      "business_type": "① 飲食店営業",
      "address": "香川県木田郡三木町下高岡375番地1",
      "lat": 34.699281,
      "lng": 133.902166,
      "geocoding_level": null,
      "phone": "087-814-6571",
      "license_no": "1010650028",
      "license_date": "2022-06-01",
      "expire_date": "2027-05-31"
    },
    {
      "name": "大幸医療センター",
      "name_kana": "ダイコウイリョウセンター",
      "business_type": "① 飲食店営業",
      "address": "香川県木田郡三木町井戸526‐1",
      "lat": 34.252315,
      "lng": 134.15747,
      "geocoding_level": null,
      "phone": "087-899-1212",
      "license_no": "1010660021",
      "license_date": "2024-10-01",
      "expire_date": "2030-11-30"
    },
    {
      "name": "グループホームまごころ",
      "name_kana": "グループホームマゴコロ",
      "business_type": "① 飲食店営業",
      "address": "香川県木田郡三木町井戸533‐3",
      "lat": 34.252552,
      "lng": 134.156711,
      "geocoding_level": null,
      "phone": "087-890-3151",
      "license_no": "1010660022",
      "license_date": "2024-10-01",
      "expire_date": "2029-11-30"
    },
    {
      "name": "スナック　ポペ",
      "name_kana": "スナックポペ",
      "business_type": "① 飲食店営業",
      "address": "香川県木田郡三木町氷上2711番地4",
      "lat": 34.253932,
      "lng": 134.130525,
      "geocoding_level": null,
      "phone": "087-891-1645",
      "license_no": "1040150007",
      "license_date": "2022-06-01",
      "expire_date": "2027-05-31"
    },
    {
      "name": "渡辺ファーム",
      "name_kana": "ワタナベファーム",
      "business_type": "⑪ 菓子製造業",
      "address": "香川県木田郡三木町井戸1590-2",
      "lat": 34.254478,
      "lng": 134.164035,
      "geocoding_level": null,
      "phone": "",
      "license_no": "2010110038",
      "license_date": "2022-06-01",
      "expire_date": "2027-05-31"
    },
    {
      "name": "渡辺ファーム",
      "name_kana": "ワタナベファーム",
      "business_type": "㉕ そうざい製造業",
      "address": "香川県木田郡三木町井戸1590-2",
      "lat": 34.254478,
      "lng": 134.164035,
      "geocoding_level": null,
      "phone": "",
      "license_no": "2280050013",
      "license_date": "2022-06-01",
      "expire_date": "2027-05-31"
    },
    {
      "name": "まる銀商店",
      "name_kana": "マルギンショウテン",
      "business_type": "⑪ 菓子製造業",
      "address": "香川県木田郡三木町鹿伏310番地 ベルシティ内",
      "lat": 34.271608,
      "lng": 134.136734,
      "geocoding_level": null,
      "phone": "",
      "license_no": "2010150148",
      "license_date": "2022-06-01",
      "expire_date": "2027-05-31"
    },
    {
      "name": "リュネッタ",
      "name_kana": "リュネッタ",
      "business_type": "⑪ 菓子製造業",
      "address": "香川県木田郡三木町田中3320番地",
      "lat": 34.268447,
      "lng": 134.134394,
      "geocoding_level": null,
      "phone": "087-898-3982",
      "license_no": "2010150151",
      "license_date": "2022-06-01",
      "expire_date": "2027-05-31"
    },
    {
      "name": "苺ファーム森本",
      "name_kana": "イチゴファームモリモト",
      "business_type": "㉚ 密封包装食品製造業",
      "address": "香川県木田郡三木町井戸2877番地1",
      "lat": 34.260344,
      "lng": 134.16016,
      "geocoding_level": null,
      "phone": "",
      "license_no": "2100050009",
      "license_date": "2022-06-01",
      "expire_date": "2027-05-31"
    },
    {
      "name": "メタセコイヤの家",
      "name_kana": "メタセコイヤノイエ",
      "business_type": "① 飲食店営業",
      "address": "香川県木田郡三木町鹿伏132",
      "lat": 34.269773,
      "lng": 134.139053,
      "geocoding_level": null,
      "phone": "",
      "license_no": "1010560014",
      "license_date": "2022-06-06",
      "expire_date": "2027-08-31"
    },
    {
      "name": "メタセコイヤの家",
      "name_kana": "メタセコイヤノイエ",
      "business_type": "⑦ 野菜果物販売業",
      "address": "香川県木田郡三木町鹿伏132",
      "lat": 34.269773,
      "lng": 134.139053,
      "geocoding_level": null,
      "phone": "",
      "license_no": "",
      "license_date": null,
      "expire_date": null
    },
    {
      "name": "山南猪肉販売所",
      "name_kana": "サンナンシシニクハンバイショ",
      "business_type": "⑨ 食肉処理業",
      "address": "香川県木田郡三木町小蓑1823番地",
      "lat": 34.175528,
      "lng": 134.125165,
      "geocoding_level": null,
      "phone": "087-899-1057",
      "license_no": "2150150001",
      "license_date": "2022-06-01",
      "expire_date": "2027-05-31"
    },
    {
      "name": "森のピッツェリア　VACCA",
      "name_kana": "モリノピッツェリアバッカ",
      "business_type": "㉕ そうざい製造業",
      "address": "香川県木田郡三木町上高岡1611番地",
      "lat": 34.238095,
      "lng": 134.149182,
      "geocoding_level": null,
      "phone": "087-899-8899",
      "license_no": "2280060006",
      "license_date": "2022-05-25",
      "expire_date": "2027-05-31"
    },
    {
      "name": "森のピッツェリア　VACCA",
      "name_kana": "モリノピッツェリアバッカ",
      "business_type": "① 飲食店営業",
      "address": "香川県木田郡三木町上高岡1611番地",
      "lat": 34.238095,
      "lng": 134.149182,
      "geocoding_level": null,
      "phone": "087-899-8899",
      "license_no": "1010550144",
      "license_date": "2022-06-01",
      "expire_date": "2027-05-31"
    },
    {
      "name": "森のピッツェリア　VACCA",
      "name_kana": "モリノピッツェリアバッカ",
      "business_type": "⑪ 菓子製造業",
      "address": "香川県木田郡三木町上高岡1611番地",
      "lat": 34.238095,
      "lng": 134.149182,
      "geocoding_level": null,
      "phone": "087-899-8899",
      "license_no": "2010250014",
      "license_date": "2025-06-01",
      "expire_date": "2030-05-31"
    },
    {
      "name": "森のピッツェリア　VACCA",
      "name_kana": "モリノピッツェリアバッカ",
      "business_type": "⑬ 乳製品製造業",
      "address": "香川県木田郡三木町上高岡1611番地",
      "lat": 34.238095,
      "lng": 134.149182,
      "geocoding_level": null,
      "phone": "087-899-8899",
      "license_no": "2040050002",
      "license_date": "2022-06-01",
      "expire_date": "2028-05-31"
    },
    {
      "name": "森のジェラテリアＭＵＣＣＡ",
      "name_kana": "モリノジェラテリアムッカ",
      "business_type": "① 飲食店営業",
      "address": "香川県木田郡三木町上高岡1613番地",
      "lat": 34.238492,
      "lng": 134.149087,
      "geocoding_level": null,
      "phone": "087-899-1530",
      "license_no": "1010550097",
      "license_date": "2023-03-01",
      "expire_date": "2029-02-28"
    },
    {
      "name": "森のジェラテリアＭＵＣＣＡ",
      "name_kana": "モリノジェラテリアムッカ",
      "business_type": "⑦ 乳処理業",
      "address": "香川県木田郡三木町上高岡1613番地",
      "lat": 34.238492,
      "lng": 134.149087,
      "geocoding_level": null,
      "phone": "087-899-1530",
      "license_no": "2020050001",
      "license_date": "2023-03-01",
      "expire_date": "2029-02-28"
    },
    {
      "name": "森のジェラテリアＭＵＣＣＡ",
      "name_kana": "モリノジェラテリアムッカ",
      "business_type": "⑫ アイスクリーム類製造業",
      "address": "香川県木田郡三木町上高岡1613番地",
      "lat": 34.238492,
      "lng": 134.149087,
      "geocoding_level": null,
      "phone": "087-899-1530",
      "license_no": "2130150003",
      "license_date": "2023-03-01",
      "expire_date": "2029-02-28"
    },
    {
      "name": "森のジェラテリアＭＵＣＣＡ",
      "name_kana": "モリノジェラテリアムッカ",
      "business_type": "⑬ 乳製品製造業",
      "address": "香川県木田郡三木町上高岡1613番地",
      "lat": 34.238492,
      "lng": 134.149087,
      "geocoding_level": null,
      "phone": "087-899-1530",
      "license_no": "2040050001",
      "license_date": "2023-03-01",
      "expire_date": "2029-02-28"
    },
    {
      "name": "山南猪部会",
      "name_kana": "サンナンイノシシブカイ",
      "business_type": "⑨ 食肉処理業",
      "address": "香川県木田郡三木町小蓑926番地",
      "lat": 34.189346,
      "lng": 134.120484,
      "geocoding_level": null,
      "phone": "",
      "license_no": "2150150010",
      "license_date": "2022-06-01",
      "expire_date": "2027-05-31"
    },
    {
      "name": "農村レストラン　どんぐりころころ",
      "name_kana": "ノウソンレストランドングリコロコロ",
      "business_type": "② 食肉販売業（包装済みの食肉のみの販売）",
      "address": "香川県木田郡三木町小蓑928番地3",
      "lat": 34.191106,
      "lng": 134.119792,
      "geocoding_level": null,
      "phone": "087-899-1099",
      "license_no": "",
      "license_date": null,
      "expire_date": null
    },
    {
      "name": "農村レストラン　どんぐりころころ",
      "name_kana": "ノウソンレストランドングリコロコロ",
      "business_type": "㉚ 密封包装食品製造業",
      "address": "香川県木田郡三木町小蓑928番地3",
      "lat": 34.191106,
      "lng": 134.119792,
      "geocoding_level": null,
      "phone": "087-899-1099",
      "license_no": "2100060004",
      "license_date": "2023-06-01",
      "expire_date": "2028-05-31"
    },
    {
      "name": "さくら",
      "name_kana": "サクラ",
      "business_type": "㉔ その他の食料品製造・加工業",
      "address": "香川県木田郡三木町氷上4204番地",
      "lat": 34.247286,
      "lng": 134.127252,
      "geocoding_level": null,
      "phone": "",
      "license_no": "",
      "license_date": null,
      "expire_date": null
    },
    {
      "name": "ファミリーマート三木町氷上店",
      "name_kana": "ファミリーマートミキチョウヒカミテン",
      "business_type": "① 飲食店営業",
      "address": "香川県木田郡三木町氷上2563番地2",
      "lat": 34.25452,
      "lng": 134.128496,
      "geocoding_level": null,
      "phone": "087-891-7223",
      "license_no": "1040350031",
      "license_date": "2022-09-01",
      "expire_date": "2028-08-31"
    },
    {
      "name": "ファミリーマート三木町氷上店",
      "name_kana": "ファミリーマートミキチョウヒカミテン",
      "business_type": "⑩ コンビニエンスストア",
      "address": "香川県木田郡三木町氷上2563番地2",
      "lat": 34.25452,
      "lng": 134.128496,
      "geocoding_level": null,
      "phone": "",
      "license_no": "",
      "license_date": null,
      "expire_date": null
    },
    {
      "name": "砂入保育園",
      "name_kana": "スナイリホイクエン",
      "business_type": "㉖ 集団給食施設",
      "address": "香川県木田郡三木町池戸2954-3",
      "lat": 34.271704,
      "lng": 134.122205,
      "geocoding_level": null,
      "phone": "",
      "license_no": "",
      "license_date": null,
      "expire_date": null
    },
    {
      "name": "和菓子　孝子堂　ベルシティ店",
      "name_kana": "ワガシコウシドウベルシティテン",
      "business_type": "⑬ その他の食料・飲料販売業",
      "address": "香川県木田郡三木町鹿伏310 ベルシティ内",
      "lat": 34.271608,
      "lng": 134.136734,
      "geocoding_level": null,
      "phone": "",
      "license_no": "",
      "license_date": null,
      "expire_date": null
    },
    {
      "name": "氷上保育所",
      "name_kana": "ヒカミホイクショ",
      "business_type": "㉖ 集団給食施設",
      "address": "香川県木田郡三木町大字氷上125番地１",
      "lat": 34.26566,
      "lng": 134.13255,
      "geocoding_level": null,
      "phone": "087-898-8365",
      "license_no": "",
      "license_date": null,
      "expire_date": null
    },
    {
      "name": "古市",
      "name_kana": "フルイチ",
      "business_type": "⑧ 米穀類販売業",
      "address": "香川県木田郡三木町上高岡78",
      "lat": 34.25602,
      "lng": 134.140073,
      "geocoding_level": null,
      "phone": "",
      "license_no": "",
      "license_date": null,
      "expire_date": null
    },
    {
      "name": "やきとうもろこし",
      "name_kana": "ヤキトウモロコシ",
      "business_type": "⑦ 野菜果物販売業",
      "address": "香川県木田郡三木町田中3828番地2",
      "lat": 34.268447,
      "lng": 134.134394,
      "geocoding_level": null,
      "phone": "",
      "license_no": "",
      "license_date": null,
      "expire_date": null
    },
    {
      "name": "ひより",
      "name_kana": "ヒヨリ",
      "business_type": "① 飲食店営業",
      "address": "香川県木田郡三木町上高岡350-1",
      "lat": 34.244362,
      "lng": 134.145916,
      "geocoding_level": null,
      "phone": "",
      "license_no": "1010560016",
      "license_date": "2022-08-15",
      "expire_date": "2027-08-31"
    },
    {
      "name": "ひより",
      "name_kana": "ヒヨリ",
      "business_type": "⑬ その他の食料・飲料販売業",
      "address": "香川県木田郡三木町上高岡350-1",
      "lat": 34.244362,
      "lng": 134.145916,
      "geocoding_level": null,
      "phone": "",
      "license_no": "",
      "license_date": null,
      "expire_date": null
    },
    {
      "name": "池戸コミュニティセンター",
      "name_kana": "イケノベコミュニティセンター",
      "business_type": "⑬ その他の食料・飲料販売業",
      "address": "香川県木田郡三木町池戸2340-1",
      "lat": 34.277536,
      "lng": 134.12172,
      "geocoding_level": null,
      "phone": "",
      "license_no": "",
      "license_date": null,
      "expire_date": null
    },
    {
      "name": "池戸コミュニティセンター",
      "name_kana": "イケノベコミュニティセンター",
      "business_type": "⑬ その他の食料・飲料販売業",
      "address": "香川県木田郡三木町池戸2340-1",
      "lat": 34.277536,
      "lng": 134.12172,
      "geocoding_level": null,
      "phone": "",
      "license_no": "",
      "license_date": null,
      "expire_date": null
    },
    {
      "name": "株式会社ダブルエス",
      "name_kana": "カブシキガイシャダブルエス",
      "business_type": "⑦ 野菜果物販売業",
      "address": "香川県木田郡三木町大字池戸2643番地3",
      "lat": 34.279735,
      "lng": 134.127804,
      "geocoding_level": null,
      "phone": "",
      "license_no": "",
      "license_date": null,
      "expire_date": null
    },
    {
      "name": "十河",
      "name_kana": "ソゴウ",
      "business_type": "⑧ 米穀類販売業",
      "address": "香川県木田郡三木町下高岡1344-2",
      "lat": 34.250798,
      "lng": 134.1463,
      "geocoding_level": null,
      "phone": "",
      "license_no": "",
      "license_date": null,
      "expire_date": null
    },
    {
      "name": "長覚寺保育所",
      "name_kana": "チョウカクジホイクショ",
      "business_type": "㉖ 集団給食施設",
      "address": "香川県木田郡三木町大字氷上3903-1",
      "lat": 34.251288,
      "lng": 134.126167,
      "geocoding_level": null,
      "phone": "087-898-7658",
      "license_no": "",
      "license_date": null,
      "expire_date": null
    },
    {
      "name": "十河製麺",
      "name_kana": "ソゴウセイメン",
      "business_type": "① 飲食店営業",
      "address": "香川県木田郡三木町井上717番地8",
      "lat": 34.291455,
      "lng": 134.139275,
      "geocoding_level": null,
      "phone": "087-898-3358",
      "license_no": "1010410720",
      "license_date": "2022-09-01",
      "expire_date": "2027-08-31"
    },
    {
      "name": "十河製麺",
      "name_kana": "ソゴウセイメン",
      "business_type": "㉔ 麺類製造業",
      "address": "香川県木田郡三木町井上717番地8",
      "lat": 34.291455,
      "lng": 134.139275,
      "geocoding_level": null,
      "phone": "087-898-3358",
      "license_no": "2270131078",
      "license_date": "2022-09-01",
      "expire_date": "2027-08-31"
    },
    {
      "name": "お好みハウス ＲＵＮ",
      "name_kana": "オコノミハウスラン",
      "business_type": "① 飲食店営業",
      "address": "香川県木田郡三木町池戸3283番地3",
      "lat": 34.276894,
      "lng": 134.119514,
      "geocoding_level": null,
      "phone": "087-891-2770",
      "license_no": "1010544253",
      "license_date": "2022-09-01",
      "expire_date": "2027-08-31"
    },
    {
      "name": "Ｋ－ｓｈｉｐ",
      "name_kana": "ケーシップ",
      "business_type": "① 飲食店営業",
      "address": "香川県木田郡三木町池戸2903番地1",
      "lat": 34.274187,
      "lng": 134.122409,
      "geocoding_level": null,
      "phone": "087-814-5457",
      "license_no": "1010550089",
      "license_date": "2022-09-01",
      "expire_date": "2027-08-31"
    },
    {
      "name": "Ｋ－ｓｈｉｐ",
      "name_kana": "ケーシップ",
      "business_type": "⑯ コーヒー製造・加工業（飲料の製造を除く。）",
      "address": "香川県木田郡三木町池戸2903番地1",
      "lat": 34.274187,
      "lng": 134.122409,
      "geocoding_level": null,
      "phone": "087-814-5457",
      "license_no": "",
      "license_date": null,
      "expire_date": null
    },
    {
      "name": "neige",
      "name_kana": "ネージュ",
      "business_type": "⑪ 菓子製造業",
      "address": "香川県木田郡三木町下高岡2018番地16",
      "lat": 34.250798,
      "lng": 134.1463,
      "geocoding_level": null,
      "phone": "087-887-3797",
      "license_no": "2010150152",
      "license_date": "2022-09-01",
      "expire_date": "2027-08-31"
    },
    {
      "name": "neige",
      "name_kana": "ネージュ",
      "business_type": "① 飲食店営業",
      "address": "香川県木田郡三木町下高岡2018-16",
      "lat": 34.26864,
      "lng": 134.136931,
      "geocoding_level": null,
      "phone": "087-887-3797",
      "license_no": "1040460027",
      "license_date": "2025-06-11",
      "expire_date": "2030-08-31"
    },
    {
      "name": "丸幸",
      "name_kana": "マルコウ",
      "business_type": "① 飲食店営業",
      "address": "香川県木田郡三木町平木76番地9",
      "lat": 34.271063,
      "lng": 134.130648,
      "geocoding_level": null,
      "phone": "087-898-0249",
      "license_no": "1010150066",
      "license_date": "2022-09-01",
      "expire_date": "2027-08-31"
    },
    {
      "name": "ファイブ・ペニイズ　カフェ純喫茶style",
      "name_kana": "ファイブペニイズカフェジュンキッサスタイル",
      "business_type": "① 飲食店営業",
      "address": "香川県木田郡三木町井戸2606番地7 2F",
      "lat": 34.26603,
      "lng": 134.162107,
      "geocoding_level": null,
      "phone": "087-898-2237",
      "license_no": "1010550091",
      "license_date": "2022-09-01",
      "expire_date": "2027-08-31"
    },
    {
      "name": "アートギャラリー・かまくら",
      "name_kana": "アートギャラリーカマクラ",
      "business_type": "① 飲食店営業",
      "address": "香川県木田郡三木町氷上419番地5",
      "lat": 34.265173,
      "lng": 134.136326,
      "geocoding_level": null,
      "phone": "087-898-6226",
      "license_no": "1010526246",
      "license_date": "2022-09-01",
      "expire_date": "2027-08-31"
    },
    {
      "name": "アートギャラリー・かまくら",
      "name_kana": "アートギャラリーカマクラ",
      "business_type": "⑯ コーヒー製造・加工業（飲料の製造を除く。）",
      "address": "香川県木田郡三木町氷上419番地5",
      "lat": 34.265173,
      "lng": 134.136326,
      "geocoding_level": null,
      "phone": "087-898-6226",
      "license_no": "",
      "license_date": null,
      "expire_date": null
    },
    {
      "name": "御菓子処いわぶ",
      "name_kana": "オカシドコロイワブ",
      "business_type": "⑪ 菓子製造業",
      "address": "香川県木田郡三木町鹿伏3番地12",
      "lat": 34.268128,
      "lng": 134.142114,
      "geocoding_level": null,
      "phone": "087-898-5533",
      "license_no": "2010141121",
      "license_date": "2022-09-01",
      "expire_date": "2027-08-31"
    },
    {
      "name": "山の家",
      "name_kana": "ヤマノイエ",
      "business_type": "① 飲食店営業",
      "address": "香川県木田郡三木町奥山2508番地",
      "lat": 34.171521,
      "lng": 134.134869,
      "geocoding_level": null,
      "phone": "",
      "license_no": "1010101783",
      "license_date": "2022-09-01",
      "expire_date": "2027-08-31"
    },
    {
      "name": "有限会社ベイクショップゲルン",
      "name_kana": "ユウゲンガイシャベイクショップゲルン",
      "business_type": "③ 乳類販売業",
      "address": "香川県木田郡三木町大字氷上906番地1",
      "lat": 34.263136,
      "lng": 134.135951,
      "geocoding_level": null,
      "phone": "087-891-2627",
      "license_no": "",
      "license_date": null,
      "expire_date": null
    },
    {
      "name": "（株）西丸石油店",
      "name_kana": "ニシマル　セキユテン",
      "business_type": "⑫ 自動販売機による販売業（コップ式自動販売機（自動洗浄・屋内設置）及び営業許可の対象となる自動販売機を除く）",
      "address": "香川県木田郡三木町池戸3285-5",
      "lat": 34.27733,
      "lng": 134.119402,
      "geocoding_level": null,
      "phone": "0878980148",
      "license_no": "",
      "license_date": null,
      "expire_date": null
    },
    {
      "name": "平井農園",
      "name_kana": "ヒライノウエン",
      "business_type": "㉔ その他の食料品製造・加工業",
      "address": "香川県木田郡三木町上高岡1954",
      "lat": 34.248023,
      "lng": 134.149366,
      "geocoding_level": null,
      "phone": "",
      "license_no": "",
      "license_date": null,
      "expire_date": null
    },
    {
      "name": "有限会社ベイクショップゲルン",
      "name_kana": "ユウゲンガイシャベイクショップゲルン",
      "business_type": "① 飲食店営業",
      "address": "香川県木田郡三木町大字氷上906番地1",
      "lat": 34.263136,
      "lng": 134.135951,
      "geocoding_level": null,
      "phone": "087-891-2627",
      "license_no": "1010550009",
      "license_date": "2025-09-01",
      "expire_date": "2031-08-31"
    },
    {
      "name": "有限会社ベイクショップゲルン",
      "name_kana": "ユウゲンガイシャベイクショップゲルン",
      "business_type": "⑪ 菓子製造業",
      "address": "香川県木田郡三木町大字氷上906番地1",
      "lat": 34.263136,
      "lng": 134.135951,
      "geocoding_level": null,
      "phone": "087-891-2627",
      "license_no": "2010250004",
      "license_date": "2025-09-01",
      "expire_date": "2031-08-31"
    },
    {
      "name": "有限会社ベイクショップゲルン",
      "name_kana": "ユウゲンガイシャベイクショップゲルン",
      "business_type": "⑬ その他の食料・飲料販売業",
      "address": "香川県木田郡三木町大字氷上906番地1",
      "lat": 34.263136,
      "lng": 134.135951,
      "geocoding_level": null,
      "phone": "087-891-2627",
      "license_no": "",
      "license_date": null,
      "expire_date": null
    },
    {
      "name": "すし冨",
      "name_kana": "スシトミ",
      "business_type": "① 飲食店営業",
      "address": "香川県木田郡三木町氷上301番地1",
      "lat": 34.268637,
      "lng": 134.133617,
      "geocoding_level": null,
      "phone": "087-898-2040",
      "license_no": "1010308096",
      "license_date": "2022-12-01",
      "expire_date": "2027-11-30"
    },
    {
      "name": "焼肉　たきやま",
      "name_kana": "ヤキニクタキヤマ",
      "business_type": "① 飲食店営業",
      "address": "香川県木田郡三木町池戸3243番地1",
      "lat": 34.276115,
      "lng": 134.121996,
      "geocoding_level": null,
      "phone": "087-891-1425",
      "license_no": "1010150068",
      "license_date": "2022-12-01",
      "expire_date": "2027-11-30"
    },
    {
      "name": "zazu plantes et cafe",
      "name_kana": "ザズプランテエカフェ",
      "business_type": "① 飲食店営業",
      "address": "香川県木田郡三木町氷上1970-5",
      "lat": 34.256746,
      "lng": 134.134507,
      "geocoding_level": null,
      "phone": "087-816-8833",
      "license_no": "1010550092",
      "license_date": "2022-12-01",
      "expire_date": "2027-11-30"
    },
    {
      "name": "レストラン　まんじゃーれ",
      "name_kana": "レストランマンジャーレ",
      "business_type": "① 飲食店営業",
      "address": "香川県木田郡三木町井戸2316番地4",
      "lat": 34.259677,
      "lng": 134.15961,
      "geocoding_level": null,
      "phone": "087-864-4025",
      "license_no": "1010150071",
      "license_date": "2022-12-01",
      "expire_date": "2027-11-30"
    },
    {
      "name": "レストラン　まんじゃーれ",
      "name_kana": "レストランマンジャーレ",
      "business_type": "⑪ 菓子製造業",
      "address": "香川県木田郡三木町井戸2316番地4",
      "lat": 34.259677,
      "lng": 134.15961,
      "geocoding_level": null,
      "phone": "087-864-4025",
      "license_no": "2010150092",
      "license_date": "2022-12-01",
      "expire_date": "2027-11-30"
    },
    {
      "name": "レストラン　まんじゃーれ",
      "name_kana": "レストランマンジャーレ",
      "business_type": "㉕ そうざい製造業",
      "address": "香川県木田郡三木町井戸2316番地4",
      "lat": 34.259677,
      "lng": 134.15961,
      "geocoding_level": null,
      "phone": "087-864-4025",
      "license_no": "2280050085",
      "license_date": "2024-12-01",
      "expire_date": "2029-11-30"
    },
    {
      "name": "レストラン　まんじゃーれ",
      "name_kana": "レストランマンジャーレ",
      "business_type": "㉚ 密封包装食品製造業",
      "address": "香川県木田郡三木町井戸2316番地4",
      "lat": 34.259677,
      "lng": 134.15961,
      "geocoding_level": null,
      "phone": "087-864-4025",
      "license_no": "2100160003",
      "license_date": "2022-12-01",
      "expire_date": "2027-11-30"
    },
    {
      "name": "ホルモン　寿屋",
      "name_kana": "ホルモンコトブキヤ",
      "business_type": "① 飲食店営業",
      "address": "香川県木田郡三木町池戸2901番地3",
      "lat": 34.274517,
      "lng": 134.122298,
      "geocoding_level": null,
      "phone": "087-898-3430",
      "license_no": "1010123530",
      "license_date": "2022-12-01",
      "expire_date": "2027-11-30"
    },
    {
      "name": "調理室ichijiku",
      "name_kana": "チョウリシツイチジク",
      "business_type": "① 飲食店営業",
      "address": "香川県木田郡三木町池戸1230-7",
      "lat": 34.286935,
      "lng": 134.131798,
      "geocoding_level": null,
      "phone": "087-899-8674",
      "license_no": "1010560020",
      "license_date": "2022-12-02",
      "expire_date": "2028-02-29"
    },
    {
      "name": "ル シェヌ パン",
      "name_kana": "ルシェヌパン",
      "business_type": "⑪ 菓子製造業",
      "address": "香川県木田郡三木町氷上5368-1",
      "lat": 34.241631,
      "lng": 134.127865,
      "geocoding_level": null,
      "phone": "",
      "license_no": "2010260005",
      "license_date": "2022-12-16",
      "expire_date": "2028-02-29"
    },
    {
      "name": "ローソン三木下高岡",
      "name_kana": "ローソンミキシモタカオカ",
      "business_type": "① 飲食店営業",
      "address": "香川県木田郡三木町大字下高岡字八戸1378-1",
      "lat": 40.512205,
      "lng": 141.488274,
      "geocoding_level": null,
      "phone": "",
      "license_no": "1040360006",
      "license_date": "2023-02-09",
      "expire_date": "2029-02-28"
    },
    {
      "name": "ローソン三木下高岡",
      "name_kana": "ローソンミキシモタカオカ",
      "business_type": "⑩ コンビニエンスストア",
      "address": "香川県木田郡三木町大字下高岡字八戸1378-1",
      "lat": 40.512205,
      "lng": 141.488274,
      "geocoding_level": null,
      "phone": "",
      "license_no": "",
      "license_date": null,
      "expire_date": null
    },
    {
      "name": "Ｒ",
      "name_kana": "アール",
      "business_type": "① 飲食店営業",
      "address": "香川県木田郡三木町池戸423",
      "lat": 34.301849,
      "lng": 134.13165,
      "geocoding_level": null,
      "phone": "",
      "license_no": "1010160016",
      "license_date": "2023-01-31",
      "expire_date": "2028-02-29"
    },
    {
      "name": "さぬきリトリート　繋安芯堂",
      "name_kana": "サヌキリトリートケイアンシンドウ",
      "business_type": "⑬ その他の食料・飲料販売業",
      "address": "香川県木田郡三木町大字朝倉1746番地",
      "lat": 34.235748,
      "lng": 134.12844,
      "geocoding_level": null,
      "phone": "087-899-8495",
      "license_no": "",
      "license_date": null,
      "expire_date": null
    },
    {
      "name": "さぬきリトリート　繋安芯堂",
      "name_kana": "サヌキリトリートケイアンシンドウ",
      "business_type": "① 飲食店営業",
      "address": "香川県木田郡三木町大字朝倉1746番地",
      "lat": 34.235748,
      "lng": 134.12844,
      "geocoding_level": null,
      "phone": "087-899-8495",
      "license_no": "1030260002",
      "license_date": "2023-03-02",
      "expire_date": "2028-05-31"
    },
    {
      "name": "魚屋　八幡",
      "name_kana": "サカナヤヤハタ",
      "business_type": "④ 魚介類販売業",
      "address": "香川県木田郡三木町氷上",
      "lat": 34.263776,
      "lng": 134.135871,
      "geocoding_level": null,
      "phone": "",
      "license_no": "2060260001",
      "license_date": "2023-02-08",
      "expire_date": "2028-02-29"
    },
    {
      "name": "讃岐うどん処　麺喰",
      "name_kana": "サヌキウドンドコロメンクイ",
      "business_type": "① 飲食店営業",
      "address": "香川県木田郡三木町鹿伏310番地",
      "lat": 34.271608,
      "lng": 134.136734,
      "geocoding_level": null,
      "phone": "087-898-0901",
      "license_no": "1010450008",
      "license_date": "2023-03-01",
      "expire_date": "2028-02-29"
    },
    {
      "name": "肉のまるたか",
      "name_kana": "ニクノマルタカ",
      "business_type": "⑬ その他の食料・飲料販売業",
      "address": "香川県木田郡三木町氷上87-4",
      "lat": 34.266377,
      "lng": 134.127178,
      "geocoding_level": null,
      "phone": "087-898-5588",
      "license_no": "",
      "license_date": null,
      "expire_date": null
    },
    {
      "name": "食堂　土筆屋",
      "name_kana": "ショクドウツクシヤ",
      "business_type": "① 飲食店営業",
      "address": "香川県木田郡三木町下高岡2444番地1",
      "lat": 34.27693,
      "lng": 134.138731,
      "geocoding_level": null,
      "phone": "087-898-4056",
      "license_no": "1010105665",
      "license_date": "2023-03-01",
      "expire_date": "2028-02-29"
    },
    {
      "name": "ハイスキー食品工業株式会社",
      "name_kana": "ハイスキーショクヒンコウギョウカブシキガイシャ",
      "business_type": "㉕ そうざい製造業",
      "address": "香川県木田郡三木町大字氷上219番地",
      "lat": 34.269167,
      "lng": 134.131706,
      "geocoding_level": null,
      "phone": "087-898-1125",
      "license_no": "2280050009",
      "license_date": "2023-03-01",
      "expire_date": "2028-02-29"
    },
    {
      "name": "ハイスキー食品工業株式会社",
      "name_kana": "ハイスキーショクヒンコウギョウカブシキガイシャ",
      "business_type": "⑭ 清涼飲料水製造業",
      "address": "香川県木田郡三木町大字氷上219番地",
      "lat": 34.269167,
      "lng": 134.131706,
      "geocoding_level": null,
      "phone": "087-898-1125",
      "license_no": "2310050005",
      "license_date": "2023-06-01",
      "expire_date": "2028-02-29"
    },
    {
      "name": "杢・杢",
      "name_kana": "モクモク",
      "business_type": "① 飲食店営業",
      "address": "香川県木田郡三木町鹿庭697番地1",
      "lat": 34.224102,
      "lng": 134.161884,
      "geocoding_level": null,
      "phone": "087-899-1581",
      "license_no": "1010550098",
      "license_date": "2023-03-01",
      "expire_date": "2028-02-29"
    },
    {
      "name": "バッケン．ナカイ",
      "name_kana": "バッケンナカイ",
      "business_type": "⑪ 菓子製造業",
      "address": "香川県木田郡三木町平木625番地1",
      "lat": 34.27949,
      "lng": 134.132541,
      "geocoding_level": null,
      "phone": "087-891-0531",
      "license_no": "2010144792",
      "license_date": "2023-03-01",
      "expire_date": "2028-02-29"
    },
    {
      "name": "生協みき診療所",
      "name_kana": "セイキョウミキシンリョウジョ",
      "business_type": "㉖ 集団給食施設",
      "address": "香川県木田郡三木町氷上112-1",
      "lat": 34.265914,
      "lng": 134.130221,
      "geocoding_level": null,
      "phone": "087-891-0303",
      "license_no": "",
      "license_date": null,
      "expire_date": null
    },
    {
      "name": "DCM三木店",
      "name_kana": "ディーシーエムミキテン",
      "business_type": "⑧ 米穀類販売業",
      "address": "香川県木田郡三木町氷上894番地",
      "lat": 34.262361,
      "lng": 134.134985,
      "geocoding_level": null,
      "phone": "087-898-5566",
      "license_no": "",
      "license_date": null,
      "expire_date": null
    },
    {
      "name": "DCM三木店",
      "name_kana": "ディーシーエムミキテン",
      "business_type": "⑬ その他の食料・飲料販売業",
      "address": "香川県木田郡三木町氷上894番地",
      "lat": 34.262361,
      "lng": 134.134985,
      "geocoding_level": null,
      "phone": "087-898-5566",
      "license_no": "",
      "license_date": null,
      "expire_date": null
    },
    {
      "name": "きっちんＰＡＬ三木",
      "name_kana": "キッチンパルミキ",
      "business_type": "㉔ その他の食料品製造・加工業",
      "address": "香川県木田郡三木町氷上364-1",
      "lat": 34.267669,
      "lng": 134.136344,
      "geocoding_level": null,
      "phone": "",
      "license_no": "",
      "license_date": null,
      "expire_date": null
    },
    {
      "name": "みろく",
      "name_kana": "ミロク",
      "business_type": "① 飲食店営業",
      "address": "香川県木田郡三木町下高岡558番地1",
      "lat": 34.27693,
      "lng": 134.138731,
      "geocoding_level": null,
      "phone": "087-891-9188",
      "license_no": "1040460013",
      "license_date": "2023-04-26",
      "expire_date": "2028-05-31"
    },
    {
      "name": "味蘭",
      "name_kana": "ミラン",
      "business_type": "① 飲食店営業",
      "address": "香川県木田郡三木町大字鹿伏310番地",
      "lat": 34.271608,
      "lng": 134.136734,
      "geocoding_level": null,
      "phone": "087-898-7000",
      "license_no": "1040310080",
      "license_date": "2023-06-01",
      "expire_date": "2028-05-31"
    },
    {
      "name": "味蘭",
      "name_kana": "ミラン",
      "business_type": "③ 食肉販売業",
      "address": "香川県木田郡三木町大字鹿伏310番地",
      "lat": 34.271608,
      "lng": 134.136734,
      "geocoding_level": null,
      "phone": "087-898-7000",
      "license_no": "2160110038",
      "license_date": "2023-06-01",
      "expire_date": "2028-05-31"
    },
    {
      "name": "味蘭",
      "name_kana": "ミラン",
      "business_type": "⑬ その他の食料・飲料販売業",
      "address": "香川県木田郡三木町大字鹿伏310番地",
      "lat": 34.271608,
      "lng": 134.136734,
      "geocoding_level": null,
      "phone": "087-898-7000",
      "license_no": "",
      "license_date": null,
      "expire_date": null
    },
    {
      "name": "カフェテラスＭＩＭＩ",
      "name_kana": "カフェテラスミミ",
      "business_type": "① 飲食店営業",
      "address": "香川県木田郡三木町池戸2786番地1",
      "lat": 34.271563,
      "lng": 134.127365,
      "geocoding_level": null,
      "phone": "087-898-5088",
      "license_no": "1010508737",
      "license_date": "2023-06-01",
      "expire_date": "2028-05-31"
    },
    {
      "name": "バナナクラブ＆ビッグエコー三木店",
      "name_kana": "バナナクラブアンドビッグエコーミキテン",
      "business_type": "① 飲食店営業",
      "address": "香川県木田郡三木町氷上958番地3 あいあいタウン内",
      "lat": 34.263228,
      "lng": 134.135008,
      "geocoding_level": null,
      "phone": "087-898-8839",
      "license_no": "1010545981",
      "license_date": "2023-06-01",
      "expire_date": "2029-05-31"
    },
    {
      "name": "レストラン三木",
      "name_kana": "レストランミキ",
      "business_type": "① 飲食店営業",
      "address": "香川県木田郡三木町大字鹿庭乙84番地",
      "lat": 34.22597,
      "lng": 134.166183,
      "geocoding_level": null,
      "phone": "087-899-0669",
      "license_no": "1010150166",
      "license_date": "2023-06-01",
      "expire_date": "2029-05-31"
    },
    {
      "name": "なりや本店",
      "name_kana": "ナリヤホンテン",
      "business_type": "① 飲食店営業",
      "address": "香川県木田郡三木町氷上1216番地1",
      "lat": 34.264534,
      "lng": 134.129553,
      "geocoding_level": null,
      "phone": "087-813-7890",
      "license_no": "1010450064",
      "license_date": "2023-06-01",
      "expire_date": "2028-05-31"
    },
    {
      "name": "レールサクレ",
      "name_kana": "レールサクレ",
      "business_type": "① 飲食店営業",
      "address": "香川県木田郡三木町大字氷上5308番地",
      "lat": 34.238156,
      "lng": 134.122947,
      "geocoding_level": null,
      "phone": "087-864-4568",
      "license_no": "1010150165",
      "license_date": "2023-06-01",
      "expire_date": "2028-05-31"
    },
    {
      "name": "レールサクレ",
      "name_kana": "レールサクレ",
      "business_type": "⑪ 菓子製造業",
      "address": "香川県木田郡三木町大字氷上5308番地",
      "lat": 34.238156,
      "lng": 134.122947,
      "geocoding_level": null,
      "phone": "087-864-4568",
      "license_no": "2010150159",
      "license_date": "2023-06-01",
      "expire_date": "2028-05-31"
    },
    {
      "name": "レールサクレ",
      "name_kana": "レールサクレ",
      "business_type": "㉚ 密封包装食品製造業",
      "address": "香川県木田郡三木町大字氷上5308番地",
      "lat": 34.238156,
      "lng": 134.122947,
      "geocoding_level": null,
      "phone": "087-864-4568",
      "license_no": "2100060007",
      "license_date": "2023-06-01",
      "expire_date": "2028-05-31"
    },
    {
      "name": "レールサクレ",
      "name_kana": "レールサクレ",
      "business_type": "⑬ その他の食料・飲料販売業",
      "address": "香川県木田郡三木町大字氷上5308番地",
      "lat": 34.238156,
      "lng": 134.122947,
      "geocoding_level": null,
      "phone": "087-864-4568",
      "license_no": "",
      "license_date": null,
      "expire_date": null
    },
    {
      "name": "もも屋甚平",
      "name_kana": "モモヤジンベイ",
      "business_type": "① 飲食店営業",
      "address": "香川県木田郡三木町大字井上1812番地",
      "lat": 34.293144,
      "lng": 134.143635,
      "geocoding_level": null,
      "phone": "087-813-5938",
      "license_no": "1010550105",
      "license_date": "2023-06-01",
      "expire_date": "2028-05-31"
    },
    {
      "name": "もも屋甚平",
      "name_kana": "モモヤジンベイ",
      "business_type": "⑪ 菓子製造業",
      "address": "香川県木田郡三木町大字井上1812番地",
      "lat": 34.293144,
      "lng": 134.143635,
      "geocoding_level": null,
      "phone": "087-813-5938",
      "license_no": "2010150096",
      "license_date": "2023-06-01",
      "expire_date": "2028-05-31"
    },
    {
      "name": "ほっかほっか亭三木店",
      "name_kana": "ホッカホッカテイミキテン",
      "business_type": "① 飲食店営業",
      "address": "香川県木田郡三木町鹿伏196-6",
      "lat": 34.270979,
      "lng": 134.137661,
      "geocoding_level": null,
      "phone": "",
      "license_no": "1020360009",
      "license_date": "2023-05-31",
      "expire_date": "2028-05-31"
    },
    {
      "name": "山本　榮子",
      "name_kana": "ヤマモトエイコ",
      "business_type": "⑪ 菓子製造業",
      "address": "香川県木田郡三木町井上3102番地2",
      "lat": 34.303505,
      "lng": 134.154322,
      "geocoding_level": null,
      "phone": "087-840-2646",
      "license_no": "2010160026",
      "license_date": "2023-06-20",
      "expire_date": "2028-08-31"
    },
    {
      "name": "山本　榮子",
      "name_kana": "ヤマモトエイコ",
      "business_type": "㉕ そうざい製造業",
      "address": "香川県木田郡三木町井上3102番地2",
      "lat": 34.303505,
      "lng": 134.154322,
      "geocoding_level": null,
      "phone": "087-840-2646",
      "license_no": "2280060019",
      "license_date": "2023-06-20",
      "expire_date": "2028-08-31"
    },
    {
      "name": "おやつ屋　igu",
      "name_kana": "オヤツヤイグ",
      "business_type": "⑪ 菓子製造業",
      "address": "香川県木田郡三木町大字田中2761-8",
      "lat": 34.255674,
      "lng": 134.1233,
      "geocoding_level": null,
      "phone": "",
      "license_no": "2010160027",
      "license_date": "2023-07-13",
      "expire_date": "2028-08-31"
    },
    {
      "name": "喫茶　咲風",
      "name_kana": "キッササフウ",
      "business_type": "① 飲食店営業",
      "address": "香川県木田郡三木町上高岡2390",
      "lat": 34.251573,
      "lng": 134.146747,
      "geocoding_level": null,
      "phone": "",
      "license_no": "1010560032",
      "license_date": "2023-07-13",
      "expire_date": "2028-08-31"
    },
    {
      "name": "サービス付き高齢者向け住宅　くすの木",
      "name_kana": "サービスツキコウレイシャムケジュウタククスノキ",
      "business_type": "㉖ 集団給食施設",
      "address": "香川県木田郡三木町大字池戸2058番地7",
      "lat": 34.2877,
      "lng": 134.119378,
      "geocoding_level": null,
      "phone": "087-898-3861",
      "license_no": "",
      "license_date": null,
      "expire_date": null
    },
    {
      "name": "ナーシングホーム　くすの木",
      "name_kana": "ナーシングホームクスノキ",
      "business_type": "㉖ 集団給食施設",
      "address": "香川県木田郡三木町大字池戸2362番地",
      "lat": 34.276349,
      "lng": 134.123244,
      "geocoding_level": null,
      "phone": "087-840-2227",
      "license_no": "",
      "license_date": null,
      "expire_date": null
    },
    {
      "name": "オアシスプラザ香川大学医学部附属病院店",
      "name_kana": "オアシスプラザカガワダイガクイガクブフゾクビョウインテン",
      "business_type": "⑬ その他の食料・飲料販売業",
      "address": "香川県木田郡三木町池戸1750-1",
      "lat": 34.293063,
      "lng": 134.125322,
      "geocoding_level": null,
      "phone": "087-891-9185",
      "license_no": "",
      "license_date": null,
      "expire_date": null
    },
    {
      "name": "あなちゃんファーム",
      "name_kana": "アナチャンファーム",
      "business_type": "㉔ その他の食料品製造・加工業",
      "address": "香川県木田郡三木町大字井戸1300-2",
      "lat": 34.260344,
      "lng": 134.16016,
      "geocoding_level": null,
      "phone": "",
      "license_no": "",
      "license_date": null,
      "expire_date": null
    },
    {
      "name": "プチなサンサン夏祭り！",
      "name_kana": "プチナサンサンナツマツリ",
      "business_type": "⑬ その他の食料・飲料販売業",
      "address": "香川県木田郡三木町氷上2940-1",
      "lat": 34.25342,
      "lng": 134.135008,
      "geocoding_level": null,
      "phone": "087-891-0333",
      "license_no": "",
      "license_date": null,
      "expire_date": null
    },
    {
      "name": "サンサン館みきでメリークリスマス！2023",
      "name_kana": "サンサンカンミキデメリークリスマスニセンニジュウサン",
      "business_type": "⑬ その他の食料・飲料販売業",
      "address": "香川県木田郡三木町大字氷上2940-1",
      "lat": 34.25342,
      "lng": 134.135008,
      "geocoding_level": null,
      "phone": "087-891-0333",
      "license_no": "",
      "license_date": null,
      "expire_date": null
    },
    {
      "name": "サンサン館みきでメリークリスマス！2024",
      "name_kana": "サンサンカンミキデメリークリスマス　ニセンニジュウヨン",
      "business_type": "⑬ その他の食料・飲料販売業",
      "address": "香川県木田郡三木町氷上2940-1",
      "lat": 34.25342,
      "lng": 134.135008,
      "geocoding_level": null,
      "phone": "087-891-0333",
      "license_no": "",
      "license_date": null,
      "expire_date": null
    },
    {
      "name": "ＴＥＲＲＡＣＥ紙風船",
      "name_kana": "テラスカミフウセン",
      "business_type": "① 飲食店営業",
      "address": "香川県木田郡三木町池戸3001番地3",
      "lat": 34.273664,
      "lng": 134.122988,
      "geocoding_level": null,
      "phone": "087-898-1928",
      "license_no": "1010542180",
      "license_date": "2023-09-01",
      "expire_date": "2028-08-31"
    },
    {
      "name": "あゆむ農園",
      "name_kana": "アユムノウエン",
      "business_type": "① 飲食店営業",
      "address": "香川県木田郡三木町氷上3761番地1",
      "lat": 34.251342,
      "lng": 134.130648,
      "geocoding_level": null,
      "phone": "087-891-9233",
      "license_no": "1020150011",
      "license_date": "2023-09-01",
      "expire_date": "2028-08-31"
    },
    {
      "name": "焼肉の大宗",
      "name_kana": "ヤキニクノダイソウ",
      "business_type": "① 飲食店営業",
      "address": "香川県木田郡三木町井戸宇高木562番地9",
      "lat": 34.271409,
      "lng": 134.135973,
      "geocoding_level": null,
      "phone": "087-899-0137",
      "license_no": "1010141998",
      "license_date": "2023-09-01",
      "expire_date": "2028-08-31"
    },
    {
      "name": "マグミット製薬株式会社　三木社員食堂",
      "name_kana": "マグミットセイヤクカブシキガイシャミキシャインショクドウ",
      "business_type": "① 飲食店営業",
      "address": "香川県木田郡三木町大字井上2876番地2",
      "lat": 34.301422,
      "lng": 134.157119,
      "geocoding_level": null,
      "phone": "",
      "license_no": "1010650074",
      "license_date": "2023-09-01",
      "expire_date": "2029-08-31"
    },
    {
      "name": "谷本加奈子パン教室",
      "name_kana": "タニモトカナコパンキョウシツ",
      "business_type": "⑪ 菓子製造業",
      "address": "香川県木田郡三木町大字井上3580番地",
      "lat": 34.301471,
      "lng": 134.146399,
      "geocoding_level": null,
      "phone": "087-898-7198",
      "license_no": "2010260010",
      "license_date": "2023-09-19",
      "expire_date": "2028-11-30"
    },
    {
      "name": "谷本加奈子パン教室",
      "name_kana": "タニモトカナコパンキョウシツ",
      "business_type": "⑬ その他の食料・飲料販売業",
      "address": "香川県木田郡三木町大字井上3580番地",
      "lat": 34.301471,
      "lng": 134.146399,
      "geocoding_level": null,
      "phone": "087-898-7198",
      "license_no": "",
      "license_date": null,
      "expire_date": null
    },
    {
      "name": "藤井製麺　菓子工場",
      "name_kana": "フジイセイメンカシコウジョウ",
      "business_type": "⑪ 菓子製造業",
      "address": "香川県木田郡三木町下高岡2564-1",
      "lat": 34.268447,
      "lng": 134.134394,
      "geocoding_level": null,
      "phone": "087-898-0076",
      "license_no": "2010160031",
      "license_date": "2023-09-11",
      "expire_date": "2028-11-30"
    },
    {
      "name": "カラオケ喫茶　寿々",
      "name_kana": "カラオケキッサスズ",
      "business_type": "① 飲食店営業",
      "address": "香川県木田郡三木町井戸2248-1",
      "lat": 34.262151,
      "lng": 134.156683,
      "geocoding_level": null,
      "phone": "",
      "license_no": "1010560036",
      "license_date": "2023-10-03",
      "expire_date": "2028-11-30"
    },
    {
      "name": "株式会社マルシン製菓工場",
      "name_kana": "カブシキガイシャマルシンセイカコウジョウ",
      "business_type": "⑪ 菓子製造業",
      "address": "香川県木田郡三木町平木779番地1",
      "lat": 34.27502,
      "lng": 134.138756,
      "geocoding_level": null,
      "phone": "087-898-8686",
      "license_no": "2010150191",
      "license_date": "2024-12-01",
      "expire_date": "2030-11-30"
    },
    {
      "name": "株式会社マルシン製菓工場",
      "name_kana": "カブシキガイシャマルシンセイカコウジョウ",
      "business_type": "⑬ その他の食料・飲料販売業",
      "address": "香川県木田郡三木町平木779番地1",
      "lat": 34.27502,
      "lng": 134.138756,
      "geocoding_level": null,
      "phone": "087-898-8686",
      "license_no": "",
      "license_date": null,
      "expire_date": null
    },
    {
      "name": "三木高等学校食堂",
      "name_kana": "ミキコウトウガッコウショクドウ",
      "business_type": "① 飲食店営業",
      "address": "香川県木田郡三木町平木750",
      "lat": 34.274637,
      "lng": 134.137337,
      "geocoding_level": null,
      "phone": "087-891-1100",
      "license_no": "1010660009",
      "license_date": "2023-10-20",
      "expire_date": "2028-11-30"
    },
    {
      "name": "三木町総合運動公園",
      "name_kana": "ミキチョウソウゴウウンドウコウエン",
      "business_type": "⑬ その他の食料・飲料販売業",
      "address": "香川県木田郡三木町上高岡2544-3",
      "lat": 34.238171,
      "lng": 134.145192,
      "geocoding_level": null,
      "phone": "",
      "license_no": "",
      "license_date": null,
      "expire_date": null
    },
    {
      "name": "にのころ",
      "name_kana": "ニノコロ",
      "business_type": "① 飲食店営業",
      "address": "香川県木田郡三木町井上64番地1",
      "lat": 34.281138,
      "lng": 134.137098,
      "geocoding_level": null,
      "phone": "087-814-5573",
      "license_no": "1040150130",
      "license_date": "2023-12-01",
      "expire_date": "2028-11-30"
    },
    {
      "name": "萬茶堂",
      "name_kana": "ヨロズチャドウ",
      "business_type": "① 飲食店営業",
      "address": "香川県木田郡三木町平木573-5",
      "lat": 34.279747,
      "lng": 134.12957,
      "geocoding_level": null,
      "phone": "",
      "license_no": "1010560039",
      "license_date": "2023-11-10",
      "expire_date": "2028-11-30"
    },
    {
      "name": "萬茶堂",
      "name_kana": "ヨロズチャドウ",
      "business_type": "⑪ 菓子製造業",
      "address": "香川県木田郡三木町平木573-5",
      "lat": 34.279747,
      "lng": 134.12957,
      "geocoding_level": null,
      "phone": "",
      "license_no": "2010160037",
      "license_date": "2023-11-10",
      "expire_date": "2028-11-30"
    },
    {
      "name": "香海",
      "name_kana": "コウミ",
      "business_type": "⑪ 菓子製造業",
      "address": "香川県木田郡三木町鹿庭丙36番地3",
      "lat": 34.223111,
      "lng": 134.148291,
      "geocoding_level": null,
      "phone": "",
      "license_no": "2010150168",
      "license_date": "2023-12-01",
      "expire_date": "2028-11-30"
    },
    {
      "name": "香海",
      "name_kana": "コウミ",
      "business_type": "㉙ 漬物製造業",
      "address": "香川県木田郡三木町鹿庭丙36番地3",
      "lat": 34.223111,
      "lng": 134.148291,
      "geocoding_level": null,
      "phone": "",
      "license_no": "2410060006",
      "license_date": "2023-11-13",
      "expire_date": "2028-11-30"
    },
    {
      "name": "香海",
      "name_kana": "コウミ",
      "business_type": "㉔ その他の食料品製造・加工業",
      "address": "香川県木田郡三木町鹿庭丙36番地3",
      "lat": 34.223111,
      "lng": 134.148291,
      "geocoding_level": null,
      "phone": "",
      "license_no": "",
      "license_date": null,
      "expire_date": null
    },
    {
      "name": "第６回　いも煮会",
      "name_kana": "ダイロッカイイモニカイ",
      "business_type": "⑬ その他の食料・飲料販売業",
      "address": "香川県木田郡三木町大字田中3841番地1",
      "lat": 34.245386,
      "lng": 134.121834,
      "geocoding_level": null,
      "phone": "087-898-0504",
      "license_no": "",
      "license_date": null,
      "expire_date": null
    },
    {
      "name": "第７回　芋煮会",
      "name_kana": "ダイナナカイ　イモニカイ",
      "business_type": "⑬ その他の食料・飲料販売業",
      "address": "香川県木田郡三木町田中3841番地1",
      "lat": 34.245386,
      "lng": 134.121834,
      "geocoding_level": null,
      "phone": "087-898-0504",
      "license_no": "",
      "license_date": null,
      "expire_date": null
    },
    {
      "name": "グリュース　ゴット",
      "name_kana": "グリュースゴット",
      "business_type": "⑪ 菓子製造業",
      "address": "香川県木田郡三木町下高岡302番地1",
      "lat": 34.26864,
      "lng": 134.136931,
      "geocoding_level": null,
      "phone": "050-1143-0082",
      "license_no": "2010150114",
      "license_date": "2025-03-01",
      "expire_date": "2030-02-28"
    },
    {
      "name": "グリュース　ゴット",
      "name_kana": "グリュースゴット",
      "business_type": "⑮ 食肉製品製造業",
      "address": "香川県木田郡三木町下高岡302番地1",
      "lat": 34.26864,
      "lng": 134.136931,
      "geocoding_level": null,
      "phone": "050-1143-0082",
      "license_no": "2170050001",
      "license_date": "2024-03-01",
      "expire_date": "2029-02-28"
    },
    {
      "name": "グリュース　ゴット",
      "name_kana": "グリュースゴット",
      "business_type": "㉕ そうざい製造業",
      "address": "香川県木田郡三木町下高岡302番地1",
      "lat": 34.26864,
      "lng": 134.136931,
      "geocoding_level": null,
      "phone": "050-1143-0082",
      "license_no": "2280050078",
      "license_date": "2023-12-01",
      "expire_date": "2028-11-30"
    },
    {
      "name": "がってん",
      "name_kana": "ガッテン",
      "business_type": "① 飲食店営業",
      "address": "香川県木田郡三木町鹿伏208番地3",
      "lat": 34.270478,
      "lng": 134.136825,
      "geocoding_level": null,
      "phone": "087-898-3101",
      "license_no": "1010150025",
      "license_date": "2023-12-01",
      "expire_date": "2028-11-30"
    },
    {
      "name": "炭火料理 いろり",
      "name_kana": "スミビリョウリイロリ",
      "business_type": "① 飲食店営業",
      "address": "香川県木田郡三木町井上2027番地",
      "lat": 34.296475,
      "lng": 134.141223,
      "geocoding_level": null,
      "phone": "087-898-0178",
      "license_no": "1040110139",
      "license_date": "2023-12-01",
      "expire_date": "2028-11-30"
    },
    {
      "name": "麺屋 はち",
      "name_kana": "メンヤハチ",
      "business_type": "① 飲食店営業",
      "address": "香川県木田郡三木町下高岡1112番地4",
      "lat": 34.268447,
      "lng": 134.134394,
      "geocoding_level": null,
      "phone": "087-891-0806",
      "license_no": "1010450047",
      "license_date": "2023-12-01",
      "expire_date": "2028-11-30"
    },
    {
      "name": "マルヨシセンター三木店",
      "name_kana": "マルヨシセンターミキテン",
      "business_type": "① 飲食店営業",
      "address": "香川県木田郡三木町大字鹿伏310番地",
      "lat": 34.271608,
      "lng": 134.136734,
      "geocoding_level": null,
      "phone": "087-898-7788",
      "license_no": "1040346120",
      "license_date": "2023-12-01",
      "expire_date": "2029-11-30"
    },
    {
      "name": "マルヨシセンター三木店",
      "name_kana": "マルヨシセンターミキテン",
      "business_type": "④ 魚介類販売業",
      "address": "香川県木田郡三木町大字鹿伏310番地",
      "lat": 34.271608,
      "lng": 134.136734,
      "geocoding_level": null,
      "phone": "087-898-7788",
      "license_no": "2060146117",
      "license_date": "2023-12-01",
      "expire_date": "2029-11-30"
    },
    {
      "name": "マルヨシセンター三木店",
      "name_kana": "マルヨシセンターミキテン",
      "business_type": "① 飲食店営業",
      "address": "香川県木田郡三木町大字鹿伏310番地",
      "lat": 34.271608,
      "lng": 134.136734,
      "geocoding_level": null,
      "phone": "087-898-7788",
      "license_no": "1040346119",
      "license_date": "2023-12-01",
      "expire_date": "2029-11-30"
    },
    {
      "name": "FUJIYA KOBE ベルシティ店",
      "name_kana": "フジヤコウベベルシティテン",
      "business_type": "① 飲食店営業",
      "address": "香川県木田郡三木町大字鹿伏310番地",
      "lat": 34.271608,
      "lng": 134.136734,
      "geocoding_level": null,
      "phone": "087-898-1146",
      "license_no": "1040260004",
      "license_date": "2023-12-01",
      "expire_date": "2028-11-30"
    },