{
  "meta": {
    "updated": 1783568789,
    "sources": [
      {
        "source": "厚生労働省 食品衛生申請等システム（オープンデータ）",
        "license": "公共データ利用規約（第1.0版, PDL1.0）"
      }
    ]
  },
  "data": [
    {
      "name": "高梁自動車学校",
      "name_kana": "タカハシジドウシャガッコウ",
      "business_type": "⑤ コップ式自動販売機（自動洗浄・屋内設置）",
      "address": "岡山県高梁市高倉町田井1467-5",
      "lat": 34.844124,
      "lng": 133.5967,
      "geocoding_level": null,
      "phone": "",
      "license_no": "",
      "license_date": null,
      "expire_date": null
    },
    {
      "name": "川上工業株式会社",
      "name_kana": "カワカミコウギョウカブシキガイシャ",
      "business_type": "⑤ コップ式自動販売機（自動洗浄・屋内設置）",
      "address": "岡山県高梁市川上町領家1262",
      "lat": 34.741576,
      "lng": 133.459645,
      "geocoding_level": null,
      "phone": "",
      "license_no": "",
      "license_date": null,
      "expire_date": null
    },
    {
      "name": "高梁郵便局",
      "name_kana": "タカハシユウビンキョク",
      "business_type": "⑤ コップ式自動販売機（自動洗浄・屋内設置）",
      "address": "岡山県高梁市旭町1389－1",
      "lat": 34.787943,
      "lng": 133.614207,
      "geocoding_level": null,
      "phone": "",
      "license_no": "",
      "license_date": null,
      "expire_date": null
    },
    {
      "name": "イーグル工業",
      "name_kana": "イーブルコウギョウ",
      "business_type": "③ 乳類販売業",
      "address": "岡山県高梁市落合町阿部1212",
      "lat": 34.776994,
      "lng": 133.59061,
      "geocoding_level": null,
      "phone": "0866-22-4061",
      "license_no": "",
      "license_date": null,
      "expire_date": null
    },
    {
      "name": "さきがけホスピタル１Ｆ",
      "name_kana": "サキガケホスピタル",
      "business_type": "③ 乳類販売業",
      "address": "岡山県高梁市落合町阿部2200",
      "lat": 34.780258,
      "lng": 133.582504,
      "geocoding_level": null,
      "phone": "0866-22-2217",
      "license_no": "",
      "license_date": null,
      "expire_date": null
    },
    {
      "name": "住友電工焼結合金",
      "name_kana": "スミトモデンコウショウケツゴウキン",
      "business_type": "③ 乳類販売業",
      "address": "岡山県高梁市成羽町成羽2901",
      "lat": 34.783905,
      "lng": 133.529412,
      "geocoding_level": null,
      "phone": "0866-42-4161",
      "license_no": "",
      "license_date": null,
      "expire_date": null
    },
    {
      "name": "有限会社　須山商店",
      "name_kana": "ユウゲンガイシャ　スヤマショウテン",
      "business_type": "⑳ 精穀・製粉業",
      "address": "岡山県高梁市津川町今津1038番地",
      "lat": 34.825099,
      "lng": 133.617388,
      "geocoding_level": null,
      "phone": "",
      "license_no": "",
      "license_date": null,
      "expire_date": null
    },
    {
      "name": "有限会社　須山商店",
      "name_kana": "ユウゲンガイシャ　スヤマショウテン",
      "business_type": "㉑ 製茶業",
      "address": "岡山県高梁市津川町今津1038番地",
      "lat": 34.825099,
      "lng": 133.617388,
      "geocoding_level": null,
      "phone": "",
      "license_no": "",
      "license_date": null,
      "expire_date": null
    },
    {
      "name": "Concession",
      "name_kana": "コンセッション",
      "business_type": "⑨ 通信販売・訪問販売による販売業",
      "address": "岡山県高梁市成羽町下原886-1",
      "lat": 34.782063,
      "lng": 133.541375,
      "geocoding_level": null,
      "phone": "0866429880",
      "license_no": "",
      "license_date": null,
      "expire_date": null
    },
    {
      "name": "有限会社川上商店",
      "name_kana": "ユウゲンガイシャカワカミショウテン",
      "business_type": "⑧ 米穀類販売業",
      "address": "岡山県高梁市津川町今津２２４５－１",
      "lat": 34.823282,
      "lng": 133.619358,
      "geocoding_level": null,
      "phone": "0866-22-3422",
      "license_no": "",
      "license_date": null,
      "expire_date": null
    },
    {
      "name": "天満屋ハートネット",
      "name_kana": "テンマヤハートネット",
      "business_type": "⑰ 農産保存食料品製造・加工業",
      "address": "岡山県高梁市有漢町有漢５７０６",
      "lat": 34.909577,
      "lng": 133.683163,
      "geocoding_level": null,
      "phone": "0866-57-2555",
      "license_no": "",
      "license_date": null,
      "expire_date": null
    },
    {
      "name": "ゆめタウン高梁",
      "name_kana": "ユメタウンタカハシ",
      "business_type": "⑪ 百貨店、総合スーパー",
      "address": "岡山県高梁市落合町阿部1700",
      "lat": 34.777411,
      "lng": 133.58773,
      "geocoding_level": null,
      "phone": "0866-22-7700",
      "license_no": "",
      "license_date": null,
      "expire_date": null
    },
    {
      "name": "ストアーササキ",
      "name_kana": "ストアーササキ",
      "business_type": "③ 乳類販売業",
      "address": "岡山県高梁市新町５",
      "lat": 34.79995,
      "lng": 133.616984,
      "geocoding_level": null,
      "phone": "0866-22-2224",
      "license_no": "",
      "license_date": null,
      "expire_date": null
    },
    {
      "name": "ストアーササキ",
      "name_kana": "ストアーササキ",
      "business_type": "⑦ 野菜果物販売業",
      "address": "岡山県高梁市新町５",
      "lat": 34.79995,
      "lng": 133.616984,
      "geocoding_level": null,
      "phone": "0866-22-2224",
      "license_no": "",
      "license_date": null,
      "expire_date": null
    },
    {
      "name": "ストアーササキ",
      "name_kana": "ストアーササキ",
      "business_type": "⑬ その他の食料・飲料販売業",
      "address": "岡山県高梁市新町５",
      "lat": 34.79995,
      "lng": 133.616984,
      "geocoding_level": null,
      "phone": "0866-22-2224",
      "license_no": "",
      "license_date": null,
      "expire_date": null
    },
    {
      "name": "宮前商店",
      "name_kana": "ミヤマエショウテン",
      "business_type": "① 魚介類販売業（包装済みの魚介類のみの販売）",
      "address": "岡山県高梁市宇治町宇治１６７０－１",
      "lat": 34.826961,
      "lng": 133.491698,
      "geocoding_level": null,
      "phone": "0866-29-2035",
      "license_no": "",
      "license_date": null,
      "expire_date": null
    },
    {
      "name": "宮前商店",
      "name_kana": "ミヤマエショウテン",
      "business_type": "② 食肉販売業（包装済みの食肉のみの販売）",
      "address": "岡山県高梁市宇治町宇治１６７０－１",
      "lat": 34.826961,
      "lng": 133.491698,
      "geocoding_level": null,
      "phone": "0866-29-2035",
      "license_no": "",
      "license_date": null,
      "expire_date": null
    },
    {
      "name": "宮前商店",
      "name_kana": "ミヤマエショウテン",
      "business_type": "③ 乳類販売業",
      "address": "岡山県高梁市宇治町宇治１６７０－１",
      "lat": 34.826961,
      "lng": 133.491698,
      "geocoding_level": null,
      "phone": "0866-29-2035",
      "license_no": "",
      "license_date": null,
      "expire_date": null
    },
    {
      "name": "宮前商店",
      "name_kana": "ミヤマエショウテン",
      "business_type": "⑦ 野菜果物販売業",
      "address": "岡山県高梁市宇治町宇治１６７０－１",
      "lat": 34.826961,
      "lng": 133.491698,
      "geocoding_level": null,
      "phone": "0866-29-2035",
      "license_no": "",
      "license_date": null,
      "expire_date": null
    },
    {
      "name": "宮前商店",
      "name_kana": "ミヤマエショウテン",
      "business_type": "⑬ その他の食料・飲料販売業",
      "address": "岡山県高梁市宇治町宇治１６７０－１",
      "lat": 34.826961,
      "lng": 133.491698,
      "geocoding_level": null,
      "phone": "0866-29-2035",
      "license_no": "",
      "license_date": null,
      "expire_date": null
    },
    {
      "name": "西脇屋",
      "name_kana": "ニシワキヤ",
      "business_type": "① 魚介類販売業（包装済みの魚介類のみの販売）",
      "address": "岡山県高梁市中井町西方２９６２",
      "lat": 34.897552,
      "lng": 133.584719,
      "geocoding_level": null,
      "phone": "0866-28-2026",
      "license_no": "",
      "license_date": null,
      "expire_date": null
    },
    {
      "name": "西脇屋",
      "name_kana": "ニシワキヤ",
      "business_type": "② 食肉販売業（包装済みの食肉のみの販売）",
      "address": "岡山県高梁市中井町西方２９６２",
      "lat": 34.897552,
      "lng": 133.584719,
      "geocoding_level": null,
      "phone": "0866-28-2026",
      "license_no": "",
      "license_date": null,
      "expire_date": null
    },
    {
      "name": "西脇屋",
      "name_kana": "ニシワキヤ",
      "business_type": "③ 乳類販売業",
      "address": "岡山県高梁市中井町西方２９６２",
      "lat": 34.897552,
      "lng": 133.584719,
      "geocoding_level": null,
      "phone": "0866-28-2026",
      "license_no": "",
      "license_date": null,
      "expire_date": null
    },
    {
      "name": "西脇屋",
      "name_kana": "ニシワキヤ",
      "business_type": "⑦ 野菜果物販売業",
      "address": "岡山県高梁市中井町西方２９６２",
      "lat": 34.897552,
      "lng": 133.584719,
      "geocoding_level": null,
      "phone": "0866-28-2026",
      "license_no": "",
      "license_date": null,
      "expire_date": null
    },
    {
      "name": "西脇屋",
      "name_kana": "ニシワキヤ",
      "business_type": "⑬ その他の食料・飲料販売業",
      "address": "岡山県高梁市中井町西方２９６２",
      "lat": 34.897552,
      "lng": 133.584719,
      "geocoding_level": null,
      "phone": "0866-28-2026",
      "license_no": "",
      "license_date": null,
      "expire_date": null
    },
    {
      "name": "有限会社　伊藤食品",
      "name_kana": "ユウゲンガイシャ　イトウショクヒン",
      "business_type": "① 魚介類販売業（包装済みの魚介類のみの販売）",
      "address": "岡山県高梁市成羽町下原７９９",
      "lat": 34.783081,
      "lng": 133.54196,
      "geocoding_level": null,
      "phone": "0866-42-2132",
      "license_no": "",
      "license_date": null,
      "expire_date": null
    },
    {
      "name": "有限会社　伊藤食品",
      "name_kana": "ユウゲンガイシャ　イトウショクヒン",
      "business_type": "② 食肉販売業（包装済みの食肉のみの販売）",
      "address": "岡山県高梁市成羽町下原７９９",
      "lat": 34.783081,
      "lng": 133.54196,
      "geocoding_level": null,
      "phone": "0866-42-2132",
      "license_no": "",
      "license_date": null,
      "expire_date": null
    },
    {
      "name": "河内鮮魚店",
      "name_kana": "カワチセンギョテン",
      "business_type": "① 魚介類販売業（包装済みの魚介類のみの販売）",
      "address": "岡山県高梁市成羽町下原１００７－１",
      "lat": 34.781595,
      "lng": 133.53699,
      "geocoding_level": null,
      "phone": "0866-42-2203",
      "license_no": "",
      "license_date": null,
      "expire_date": null
    },
    {
      "name": "高梁市立高梁こども園",
      "name_kana": "タカハシシリツタカハシコドモエン",
      "business_type": "㉖ 集団給食施設",
      "address": "岡山県高梁市原田北町1251-1",
      "lat": 34.786415,
      "lng": 133.616533,
      "geocoding_level": null,
      "phone": "0866-22-2423",
      "license_no": "",
      "license_date": null,
      "expire_date": null
    },
    {
      "name": "高梁市立有漢こども園",
      "name_kana": "タカハシシリツウカンコドモエン",
      "business_type": "㉖ 集団給食施設",
      "address": "岡山県高梁市有漢町有漢３３２８－３",
      "lat": 34.903658,
      "lng": 133.660699,
      "geocoding_level": null,
      "phone": "0866-57-3020",
      "license_no": "",
      "license_date": null,
      "expire_date": null
    },
    {
      "name": "高梁市立成羽こども園",
      "name_kana": "タカハシシリツナリワコドモエン",
      "business_type": "㉖ 集団給食施設",
      "address": "岡山県高梁市成羽町成羽２２５１－１",
      "lat": 34.786661,
      "lng": 133.531594,
      "geocoding_level": null,
      "phone": "0866-42-2011",
      "license_no": "",
      "license_date": null,
      "expire_date": null
    },
    {
      "name": "952：375613：丸五シーエス工業株式会社　通路",
      "name_kana": "マルゴシーエスコウギョウカブシキガイシャ　ツウロ",
      "business_type": "⑫ 自動販売機による販売業（コップ式自動販売機（自動洗浄・屋内設置）及び営業許可の対象となる自動販売機を除く）",
      "address": "岡山県高梁市有漢町上有漢８２９７－１",
      "lat": 34.915388,
      "lng": 133.681964,
      "geocoding_level": null,
      "phone": "",
      "license_no": "",
      "license_date": null,
      "expire_date": null
    },
    {
      "name": "849：361226：株式会社タイガーマシン製作所　第１工場",
      "name_kana": "カブシキガイシャタイガーマシンセイサクショ",
      "business_type": "⑫ 自動販売機による販売業（コップ式自動販売機（自動洗浄・屋内設置）及び営業許可の対象となる自動販売機を除く）",
      "address": "岡山県高梁市落合町阿部２３２７",
      "lat": 34.778479,
      "lng": 133.580247,
      "geocoding_level": null,
      "phone": "",
      "license_no": "",
      "license_date": null,
      "expire_date": null
    },
    {
      "name": "850：361227：株式会社タイガーマシン製作所　第２工場",
      "name_kana": "カブシキガイシャタイガーマシンセイサクショ",
      "business_type": "⑫ 自動販売機による販売業（コップ式自動販売機（自動洗浄・屋内設置）及び営業許可の対象となる自動販売機を除く）",
      "address": "岡山県高梁市落合町阿部２３２７",
      "lat": 34.778479,
      "lng": 133.580247,
      "geocoding_level": null,
      "phone": "",
      "license_no": "",
      "license_date": null,
      "expire_date": null
    },
    {
      "name": "宇治高原農園",
      "name_kana": "ウジコウゲンノウエン",
      "business_type": "⑬ その他の食料・飲料販売業",
      "address": "岡山県高梁市宇治町宇治1723－1",
      "lat": 34.828507,
      "lng": 133.498176,
      "geocoding_level": null,
      "phone": "0866292333",
      "license_no": "",
      "license_date": null,
      "expire_date": null
    },
    {
      "name": "坂本産業(株)成羽GPセンター",
      "name_kana": "サカモトサンギョウカブシキガイシャナリワジーピーセンター",
      "business_type": "㉓ 卵選別包装業",
      "address": "岡山県高梁市成羽町下日名1180",
      "lat": 34.766915,
      "lng": 133.555888,
      "geocoding_level": null,
      "phone": "0866-42-3231",
      "license_no": "",
      "license_date": null,
      "expire_date": null
    },
    {
      "name": "高梁食品",
      "name_kana": "タカハシショクヒン",
      "business_type": "④ 氷雪販売業",
      "address": "岡山県高梁市旭町１３４６",
      "lat": 34.788665,
      "lng": 133.614395,
      "geocoding_level": null,
      "phone": "0866-22-3146",
      "license_no": "",
      "license_date": null,
      "expire_date": null
    },
    {
      "name": "高梁食品",
      "name_kana": "タカハシショクヒン",
      "business_type": "① 魚介類販売業（包装済みの魚介類のみの販売）",
      "address": "岡山県高梁市旭町１３４６",
      "lat": 34.788665,
      "lng": 133.614395,
      "geocoding_level": null,
      "phone": "0866-22-3146",
      "license_no": "",
      "license_date": null,
      "expire_date": null
    },
    {
      "name": "高梁食品",
      "name_kana": "タカハシショクヒン",
      "business_type": "② 食肉販売業（包装済みの食肉のみの販売）",
      "address": "岡山県高梁市旭町１３４６",
      "lat": 34.788665,
      "lng": 133.614395,
      "geocoding_level": null,
      "phone": "0866-22-3146",
      "license_no": "",
      "license_date": null,
      "expire_date": null
    },
    {
      "name": "高梁乳販",
      "name_kana": "タカハシニュウハン",
      "business_type": "① 魚介類販売業（包装済みの魚介類のみの販売）",
      "address": "岡山県高梁市横町１０４５－４",
      "lat": 34.784779,
      "lng": 133.609883,
      "geocoding_level": null,
      "phone": "0866-22-3168",
      "license_no": "",
      "license_date": null,
      "expire_date": null
    },
    {
      "name": "高梁乳販",
      "name_kana": "タカハシニュウハン",
      "business_type": "② 食肉販売業（包装済みの食肉のみの販売）",
      "address": "岡山県高梁市横町１０４５－４",
      "lat": 34.784779,
      "lng": 133.609883,
      "geocoding_level": null,
      "phone": "0866-22-3168",
      "license_no": "",
      "license_date": null,
      "expire_date": null
    },
    {
      "name": "高梁乳販",
      "name_kana": "タカハシニュウハン",
      "business_type": "③ 乳類販売業",
      "address": "岡山県高梁市横町１０４５－４",
      "lat": 34.784779,
      "lng": 133.609883,
      "geocoding_level": null,
      "phone": "0866-22-3168",
      "license_no": "",
      "license_date": null,
      "expire_date": null
    },
    {
      "name": "みるく舎",
      "name_kana": "ミルクヤ",
      "business_type": "① 飲食店営業",
      "address": "岡山県高梁市横町１０４５－４",
      "lat": 34.784779,
      "lng": 133.609883,
      "geocoding_level": null,
      "phone": "0866-22-3168",
      "license_no": "岡山県指令備北保第230034号",
      "license_date": "2022-09-12",
      "expire_date": "2028-09-30"
    },
    {
      "name": "みるく舎",
      "name_kana": "ミルクヤ",
      "business_type": "⑪ 菓子製造業",
      "address": "岡山県高梁市横町１０４５－４",
      "lat": 34.784779,
      "lng": 133.609883,
      "geocoding_level": null,
      "phone": "0866-22-3168",
      "license_no": "岡山県指令備北保第070381号",
      "license_date": "2022-09-12",
      "expire_date": "2028-09-30"
    },
    {
      "name": "ちかのり荘",
      "name_kana": "チカノリソウ",
      "business_type": "③ 乳類販売業",
      "address": "岡山県高梁市落合町近似１３２４－２",
      "lat": 34.798157,
      "lng": 133.601529,
      "geocoding_level": null,
      "phone": "0866-22-3366",
      "license_no": "",
      "license_date": null,
      "expire_date": null
    },
    {
      "name": "白和荘②",
      "name_kana": "ハクワソウニ",
      "business_type": "③ 乳類販売業",
      "address": "岡山県高梁市高倉町大瀬八長２６６３－１",
      "lat": 34.821493,
      "lng": 133.612292,
      "geocoding_level": null,
      "phone": "0866-22-5529",
      "license_no": "",
      "license_date": null,
      "expire_date": null
    },
    {
      "name": "高梁エンドレス②",
      "name_kana": "タカハシエンドレスニ",
      "business_type": "③ 乳類販売業",
      "address": "岡山県高梁市鉄砲町１２",
      "lat": 34.792334,
      "lng": 133.61374,
      "geocoding_level": null,
      "phone": "0866-22-4051",
      "license_no": "",
      "license_date": null,
      "expire_date": null
    },
    {
      "name": "セブンーイレブン高梁横町店",
      "name_kana": "セブンーイレブンタカハシヨコマチテン",
      "business_type": "① 魚介類販売業（包装済みの魚介類のみの販売）",
      "address": "岡山県高梁市横町１０７８－１",
      "lat": 34.784397,
      "lng": 133.610581,
      "geocoding_level": null,
      "phone": "0866-23-1700",
      "license_no": "",
      "license_date": null,
      "expire_date": null
    },
    {
      "name": "セブンーイレブン高梁横町店",
      "name_kana": "セブンーイレブンタカハシヨコマチテン",
      "business_type": "② 食肉販売業（包装済みの食肉のみの販売）",
      "address": "岡山県高梁市横町１０７８－１",
      "lat": 34.784397,
      "lng": 133.610581,
      "geocoding_level": null,
      "phone": "0866-23-1700",
      "license_no": "",
      "license_date": null,
      "expire_date": null
    },
    {
      "name": "セブンーイレブン高梁横町店",
      "name_kana": "セブンーイレブンタカハシヨコマチテン",
      "business_type": "③ 乳類販売業",
      "address": "岡山県高梁市横町１０７８－１",
      "lat": 34.784397,
      "lng": 133.610581,
      "geocoding_level": null,
      "phone": "0866-23-1700",
      "license_no": "",
      "license_date": null,
      "expire_date": null
    },
    {
      "name": "セブンーイレブン高梁横町店",
      "name_kana": "セブンーイレブンタカハシヨコマチテン",
      "business_type": "⑩ コンビニエンスストア",
      "address": "岡山県高梁市横町１０７８－１",
      "lat": 34.784397,
      "lng": 133.610581,
      "geocoding_level": null,
      "phone": "0866-23-1700",
      "license_no": "",
      "license_date": null,
      "expire_date": null
    },
    {
      "name": "セブンイレブン高梁横町店",
      "name_kana": "セブンイレブンタカハシヨコチョウテン",
      "business_type": "① 飲食店営業",
      "address": "岡山県高梁市横町１０７８－１",
      "lat": 34.784392,
      "lng": 133.610588,
      "geocoding_level": null,
      "phone": "0866-23-1700",
      "license_no": "岡山県指令備北保第220038号",
      "license_date": "2021-09-06",
      "expire_date": "2027-09-30"
    },
    {
      "name": "セブンーイレブン高梁市役所前店",
      "name_kana": "セブンーイレブンタカハシシヤクショマエテン",
      "business_type": "① 魚介類販売業（包装済みの魚介類のみの販売）",
      "address": "岡山県高梁市正宗町２０３８－８",
      "lat": 34.790873,
      "lng": 133.617414,
      "geocoding_level": null,
      "phone": "0866-22-3477",
      "license_no": "",
      "license_date": null,
      "expire_date": null
    },
    {
      "name": "セブンーイレブン高梁市役所前店",
      "name_kana": "セブンーイレブンタカハシシヤクショマエテン",
      "business_type": "② 食肉販売業（包装済みの食肉のみの販売）",
      "address": "岡山県高梁市正宗町２０３８－８",
      "lat": 34.790873,
      "lng": 133.617414,
      "geocoding_level": null,
      "phone": "0866-22-3477",
      "license_no": "",
      "license_date": null,
      "expire_date": null
    },
    {
      "name": "セブンーイレブン高梁市役所前店",
      "name_kana": "セブンーイレブンタカハシシヤクショマエテン",
      "business_type": "③ 乳類販売業",
      "address": "岡山県高梁市正宗町２０３８－８",
      "lat": 34.790873,
      "lng": 133.617414,
      "geocoding_level": null,
      "phone": "0866-22-3477",
      "license_no": "",
      "license_date": null,
      "expire_date": null
    },
    {
      "name": "セブンーイレブン高梁市役所前店",
      "name_kana": "セブンーイレブンタカハシシヤクショマエテン",
      "business_type": "⑩ コンビニエンスストア",
      "address": "岡山県高梁市正宗町２０３８－８",
      "lat": 34.790873,
      "lng": 133.617414,
      "geocoding_level": null,
      "phone": "0866-22-3477",
      "license_no": "",
      "license_date": null,
      "expire_date": null
    },
    {
      "name": "株式会社共栄商事",
      "name_kana": "カブシキガイシャキョウエイショウジ",
      "business_type": "① 魚介類販売業（包装済みの魚介類のみの販売）",
      "address": "岡山県高梁市中原町１０８４－１",
      "lat": 34.783358,
      "lng": 133.610696,
      "geocoding_level": null,
      "phone": "0866-22-0808",
      "license_no": "",
      "license_date": null,
      "expire_date": null
    },
    {
      "name": "ポルカ食品館",
      "name_kana": "ポルカショクヒンカン",
      "business_type": "③ 乳類販売業",
      "address": "岡山県高梁市中原町１０８４－１",
      "lat": 34.783358,
      "lng": 133.610696,
      "geocoding_level": null,
      "phone": "0866-22-0808",
      "license_no": "",
      "license_date": null,
      "expire_date": null
    },
    {
      "name": "セブンーイレブン高梁落合町店",
      "name_kana": "セブンーイレブンタカハシオチアイチョウテン",
      "business_type": "① 魚介類販売業（包装済みの魚介類のみの販売）",
      "address": "岡山県高梁市落合町阿部１８４１－３",
      "lat": 34.77719,
      "lng": 133.585143,
      "geocoding_level": null,
      "phone": "0866-23-1337",
      "license_no": "",
      "license_date": null,
      "expire_date": null
    },
    {
      "name": "セブンーイレブン高梁落合町店",
      "name_kana": "セブンーイレブンタカハシオチアイチョウテン",
      "business_type": "② 食肉販売業（包装済みの食肉のみの販売）",
      "address": "岡山県高梁市落合町阿部１８４１－３",
      "lat": 34.77719,
      "lng": 133.585143,
      "geocoding_level": null,
      "phone": "0866-23-1337",
      "license_no": "",
      "license_date": null,
      "expire_date": null
    },
    {
      "name": "セブンーイレブン高梁落合町店",
      "name_kana": "セブンーイレブンタカハシオチアイチョウテン",
      "business_type": "③ 乳類販売業",
      "address": "岡山県高梁市落合町阿部１８４１－３",
      "lat": 34.77719,
      "lng": 133.585143,
      "geocoding_level": null,
      "phone": "0866-23-1337",
      "license_no": "",
      "license_date": null,
      "expire_date": null
    },
    {
      "name": "セブンーイレブン高梁落合町店",
      "name_kana": "セブンーイレブンタカハシオチアイチョウテン",
      "business_type": "⑩ コンビニエンスストア",
      "address": "岡山県高梁市落合町阿部１８４１－３",
      "lat": 34.77719,
      "lng": 133.585143,
      "geocoding_level": null,
      "phone": "0866-23-1337",
      "license_no": "",
      "license_date": null,
      "expire_date": null
    },
    {
      "name": "セブンーイレブン高梁落合町店",
      "name_kana": "セブンイレブンタカハシオチアイチョウテン",
      "business_type": "① 飲食店営業",
      "address": "岡山県高梁市落合町阿部１８４１－３",
      "lat": 34.77719,
      "lng": 133.585143,
      "geocoding_level": null,
      "phone": "0866-23-1337",
      "license_no": "岡山県指令備北保第160054号",
      "license_date": "2021-09-06",
      "expire_date": "2027-09-30"
    },
    {
      "name": "天亀堂",
      "name_kana": "テンキドウ",
      "business_type": "① 魚介類販売業（包装済みの魚介類のみの販売）",
      "address": "岡山県高梁市落合町阿部２３９８－１",
      "lat": 34.779701,
      "lng": 133.578757,
      "geocoding_level": null,
      "phone": "0866-22-2953",
      "license_no": "",
      "license_date": null,
      "expire_date": null
    },
    {
      "name": "天亀堂",
      "name_kana": "テンキドウ",
      "business_type": "② 食肉販売業（包装済みの食肉のみの販売）",
      "address": "岡山県高梁市落合町阿部２３９８－１",
      "lat": 34.779701,
      "lng": 133.578757,
      "geocoding_level": null,
      "phone": "0866-22-2953",
      "license_no": "",
      "license_date": null,
      "expire_date": null
    },
    {
      "name": "天亀堂",
      "name_kana": "テンキドウ",
      "business_type": "③ 乳類販売業",
      "address": "岡山県高梁市落合町阿部２３９８－１",
      "lat": 34.779701,
      "lng": 133.578757,
      "geocoding_level": null,
      "phone": "0866-22-2953",
      "license_no": "",
      "license_date": null,
      "expire_date": null
    },
    {
      "name": "成羽ショッピングパーク",
      "name_kana": "ナリワショッピングパーク",
      "business_type": "③ 乳類販売業",
      "address": "岡山県高梁市成羽町下原２９６",
      "lat": 34.783214,
      "lng": 133.545034,
      "geocoding_level": null,
      "phone": "0866-42-3907",
      "license_no": "",
      "license_date": null,
      "expire_date": null
    },
    {
      "name": "岡山県西部ヤクルト販売　高梁センター",
      "name_kana": "オカヤマケンセイブヤクルトハンバイタカハシセンター",
      "business_type": "⑬ その他の食料・飲料販売業",
      "address": "岡山県高梁市原田南町１１７４－１",
      "lat": 34.783991,
      "lng": 133.614939,
      "geocoding_level": null,
      "phone": "",
      "license_no": "",
      "license_date": null,
      "expire_date": null
    },
    {
      "name": "工房　森の樹",
      "name_kana": "コウボウ　モリノキ",
      "business_type": "㉔ その他の食料品製造・加工業",
      "address": "岡山県高梁市川面町４６９０",
      "lat": 34.868518,
      "lng": 133.59251,
      "geocoding_level": null,
      "phone": "",
      "license_no": "",
      "license_date": null,
      "expire_date": null
    },
    {
      "name": "ペルソナ",
      "name_kana": "ペルソナ",
      "business_type": "② 食肉販売業（包装済みの食肉のみの販売）",
      "address": "岡山県高梁市川上町地頭１７９１－１",
      "lat": 34.737003,
      "lng": 133.485286,
      "geocoding_level": null,
      "phone": "",
      "license_no": "",
      "license_date": null,
      "expire_date": null
    },
    {
      "name": "ペルソナ",
      "name_kana": "ペルソナ",
      "business_type": "③ 乳類販売業",
      "address": "岡山県高梁市川上町地頭１７９１－１",
      "lat": 34.737003,
      "lng": 133.485286,
      "geocoding_level": null,
      "phone": "",
      "license_no": "",
      "license_date": null,
      "expire_date": null
    },
    {
      "name": "ペルソナ",
      "name_kana": "ペルソナ",
      "business_type": "⑪ 百貨店、総合スーパー",
      "address": "岡山県高梁市川上町地頭１７９１－１",
      "lat": 34.737003,
      "lng": 133.485286,
      "geocoding_level": null,
      "phone": "",
      "license_no": "",
      "license_date": null,
      "expire_date": null
    },
    {
      "name": "高梁サービスエリア　上り線",
      "name_kana": "タカハシサービスエリア　ノボリセン",
      "business_type": "③ 乳類販売業",
      "address": "岡山県高梁市巨瀬町１１６３－４５",
      "lat": 34.873487,
      "lng": 133.661855,
      "geocoding_level": null,
      "phone": "0866-57-2161",
      "license_no": "",
      "license_date": null,
      "expire_date": null
    },
    {
      "name": "高梁サービスエリア　下り線",
      "name_kana": "タカハシサービスエリア　クダリセン",
      "business_type": "③ 乳類販売業",
      "address": "岡山県高梁市巨瀬町１１６５－３５",
      "lat": 34.878859,
      "lng": 133.662039,
      "geocoding_level": null,
      "phone": "0866-57-2091",
      "license_no": "",
      "license_date": null,
      "expire_date": null
    },
    {
      "name": "スターバックスコーヒー 蔦屋書店 高梁市図書館店",
      "name_kana": "スターバックスコーヒー ツタヤショテン タカハシシトショカンテン",
      "business_type": "⑬ その他の食料・飲料販売業",
      "address": "岡山県高梁市旭町1306",
      "lat": 34.788968,
      "lng": 133.616588,
      "geocoding_level": null,
      "phone": "0866-21-1313",
      "license_no": "",
      "license_date": null,
      "expire_date": null
    },
    {
      "name": "蔦屋書店　高梁市図書館",
      "name_kana": "ツタヤショテン　タカハシシトショカン",
      "business_type": "㉔ その他の食料品製造・加工業",
      "address": "岡山県高梁市県内一円",
      "lat": 34.791037,
      "lng": 133.616852,
      "geocoding_level": null,
      "phone": "0866-22-8000",
      "license_no": "",
      "license_date": null,
      "expire_date": null
    },
    {
      "name": "特別養護老人ホーム　まごころの里　備中",
      "name_kana": "トクベツヨウゴロウジンホーム　マゴコロノサト　ビッチュウ",
      "business_type": "㉖ 集団給食施設",
      "address": "岡山県高梁市落合町福地394",
      "lat": 34.783096,
      "lng": 133.555137,
      "geocoding_level": null,
      "phone": "0866-42-5600",
      "license_no": "",
      "license_date": null,
      "expire_date": null
    },
    {
      "name": "おかんの店",
      "name_kana": "オカンノミセ",
      "business_type": "① 飲食店営業",
      "address": "岡山県高梁市成羽町下原１００７",
      "lat": 34.781682,
      "lng": 133.537156,
      "geocoding_level": null,
      "phone": "0866-42-5150",
      "license_no": "岡山県指令備北保330032号",
      "license_date": "2021-07-27",
      "expire_date": "2027-06-30"
    },
    {
      "name": "おかんの店",
      "name_kana": "オカンノミセ",
      "business_type": "㉙ 漬物製造業",
      "address": "岡山県高梁市成羽町下原１００７",
      "lat": 34.781682,
      "lng": 133.537156,
      "geocoding_level": null,
      "phone": "0866-42-5150",
      "license_no": "岡山県指令備北保第360023号",
      "license_date": "2024-06-06",
      "expire_date": "2029-06-30"
    },
    {
      "name": "おかんの店",
      "name_kana": "オカンノミセ",
      "business_type": "① 飲食店営業",
      "address": "岡山県高梁市県内一円",
      "lat": 34.791037,
      "lng": 133.616852,
      "geocoding_level": null,
      "phone": "",
      "license_no": "岡山県指令備北保第370035号",
      "license_date": "2025-11-13",
      "expire_date": "2031-06-30"
    },
    {
      "name": "塩田生活改善センター",
      "name_kana": "シオダセイカツカイゼンセンター",
      "business_type": "⑪ 菓子製造業",
      "address": "岡山県高梁市宇治町穴田１３５７－１",
      "lat": 34.81568,
      "lng": 133.471682,
      "geocoding_level": null,
      "phone": "",
      "license_no": "岡山県指令備北保第330029号",
      "license_date": "2021-07-27",
      "expire_date": "2027-06-30"
    },
    {
      "name": "株式会社リノ",
      "name_kana": "カブシキガイシャリノ",
      "business_type": "⑪ 菓子製造業",
      "address": "岡山県高梁市有漢町有漢２５５５",
      "lat": 34.901821,
      "lng": 133.659907,
      "geocoding_level": null,
      "phone": "0866-57-9120",
      "license_no": "岡山県指令備北保第330028号",
      "license_date": "2021-07-26",
      "expire_date": "2026-12-31"
    },
    {
      "name": "岡山やまう株式会社　本社工場",
      "name_kana": "オカヤマヤマウカブシキガイシャ　ホンシャコウジョウ",
      "business_type": "㉙ 漬物製造業",
      "address": "岡山県高梁市川面町１９４６－２",
      "lat": 34.849495,
      "lng": 133.594642,
      "geocoding_level": null,
      "phone": "0866-26-1500",
      "license_no": "岡山県指令備北保330025号",
      "license_date": "2021-07-08",
      "expire_date": "2027-06-30"
    },
    {
      "name": "日清医療食品　成羽病院",
      "name_kana": "ニッシンイリョウショクヒン　ナリワビョウイン",
      "business_type": "① 飲食店営業",
      "address": "岡山県高梁市成羽町下原３０１",
      "lat": 34.782568,
      "lng": 133.545147,
      "geocoding_level": null,
      "phone": "0866-42-2363",
      "license_no": "岡山県指令備北保330024号",
      "license_date": "2021-06-28",
      "expire_date": "2026-06-30"
    },
    {
      "name": "白菊酒造",
      "name_kana": "シラギクシュゾウ",
      "business_type": "㉑ 酒類製造業",
      "address": "岡山県高梁市成羽町下日名１６３－１",
      "lat": 34.771976,
      "lng": 133.548611,
      "geocoding_level": null,
      "phone": "",
      "license_no": "岡山県指令備北保第090248号",
      "license_date": "2021-06-16",
      "expire_date": "2027-06-30"
    },
    {
      "name": "白菊酒造株式会社",
      "name_kana": "シラギクシュゾウカブシキガイシャ",
      "business_type": "⑭ 清涼飲料水製造業",
      "address": "岡山県高梁市成羽町下日名１６３－１",
      "lat": 34.771976,
      "lng": 133.548611,
      "geocoding_level": null,
      "phone": "",
      "license_no": "岡山県指令備北保第210085号",
      "license_date": "2021-06-16",
      "expire_date": "2027-06-30"
    },
    {
      "name": "カフェ＆バー１０（TEN)",
      "name_kana": "カフェアンドバーテン　テン",
      "business_type": "① 飲食店営業",
      "address": "岡山県高梁市南町１９２８",
      "lat": 34.788169,
      "lng": 133.613232,
      "geocoding_level": null,
      "phone": "",
      "license_no": "岡山県指令備北保330021号",
      "license_date": "2021-06-07",
      "expire_date": "2026-09-30"
    },
    {
      "name": "小池鮮魚店",
      "name_kana": "コイケセンギョテン",
      "business_type": "④ 魚介類販売業",
      "address": "岡山県高梁市本町９９",
      "lat": 34.799734,
      "lng": 133.616477,
      "geocoding_level": null,
      "phone": "0866-22-2016",
      "license_no": "岡山県指令備北保第090294号",
      "license_date": "2021-06-14",
      "expire_date": "2027-06-30"
    },
    {
      "name": "",
      "name_kana": "",
      "business_type": "① 飲食店営業",
      "address": "岡山県高梁市宇治町遠原１９８４",
      "lat": 34.842174,
      "lng": 133.507799,
      "geocoding_level": null,
      "phone": "0866-29-2123",
      "license_no": "岡山県指令備北保第150033号",
      "license_date": "2021-06-14",
      "expire_date": "2027-06-30"
    },
    {
      "name": "方谷の里農産加工部",
      "name_kana": "ホウコクノサトトクサンブ",
      "business_type": "① 飲食店営業",
      "address": "岡山県高梁市中井町西方３１５８",
      "lat": 34.897552,
      "lng": 133.584719,
      "geocoding_level": null,
      "phone": "0866-28-2001",
      "license_no": "岡山県指令備北保270133号",
      "license_date": "2021-06-14",
      "expire_date": "2027-06-30"
    },
    {
      "name": "方谷の里農産加工",
      "name_kana": "ホウコクノサトノウサンカコウ",
      "business_type": "㉚ 密封包装食品製造業",
      "address": "岡山県高梁市中井町西方３１５８",
      "lat": 34.909366,
      "lng": 133.579639,
      "geocoding_level": null,
      "phone": "0866-28-2001",
      "license_no": "岡山県指令備北保第350018号",
      "license_date": "2023-05-30",
      "expire_date": "2028-06-30"
    },
    {
      "name": "方谷の里農産加工",
      "name_kana": "ホウコクノサトノウサンカコウ",
      "business_type": "⑳ みそ又はしょうゆ製造業",
      "address": "岡山県高梁市中井町津々１５８８",
      "lat": 34.921739,
      "lng": 133.607424,
      "geocoding_level": null,
      "phone": "0866-28-2142",
      "license_no": "岡山県指令備北保第240021号",
      "license_date": "2023-06-01",
      "expire_date": "2029-06-30"
    },
    {
      "name": "方谷の里農産加工",
      "name_kana": "ホウコクノサトノウサンカコウ",
      "business_type": "㉔ その他の食料品製造・加工業",
      "address": "岡山県高梁市中井町西方３１５８",
      "lat": 34.909366,
      "lng": 133.579639,
      "geocoding_level": null,
      "phone": "0866-28-2001",
      "license_no": "",
      "license_date": null,
      "expire_date": null
    },
    {
      "name": "カラオケ喫茶　あしび",
      "name_kana": "カラオケキッサ　アシビ",
      "business_type": "① 飲食店営業",
      "address": "岡山県高梁市成羽町下原４１３－６",
      "lat": 34.783095,
      "lng": 133.544381,
      "geocoding_level": null,
      "phone": "",
      "license_no": "岡山県指令備北保330023号",
      "license_date": "2021-06-15",
      "expire_date": "2026-06-30"
    },
    {
      "name": "為永商店",
      "name_kana": "タメナガショウテン",
      "business_type": "㉙ その他",
      "address": "岡山県高梁市成羽町下原908",
      "lat": 34.782455,
      "lng": 133.539861,
      "geocoding_level": null,
      "phone": "0866-42-2253",
      "license_no": "",
      "license_date": null,
      "expire_date": null
    },
    {
      "name": "為永商店",
      "name_kana": "タメナガショウテン",
      "business_type": "㉔ 麺類製造業",
      "address": "岡山県高梁市成羽町下原９０８",
      "lat": 34.782455,
      "lng": 133.539861,
      "geocoding_level": null,
      "phone": "",
      "license_no": "岡山県指令備北保第091697号",
      "license_date": "2021-06-16",
      "expire_date": "2027-06-30"
    },
    {
      "name": "児童発達支援センターくるーる",
      "name_kana": "ジドウハッタツシエンセンタークルール",
      "business_type": "① 飲食店営業",
      "address": "岡山県高梁市高倉町大瀬八長１６５６－１",
      "lat": 34.801963,
      "lng": 133.613693,
      "geocoding_level": null,
      "phone": "0866-21-0655",
      "license_no": "岡山県指令備北保270130号",
      "license_date": "2021-06-14",
      "expire_date": "2027-06-30"
    },
    {
      "name": "さきがけホスピタル",
      "name_kana": "サキガケホスピタル",
      "business_type": "㉖ 集団給食施設",
      "address": "岡山県高梁市落合町阿部2220",
      "lat": 34.780988,
      "lng": 133.584719,
      "geocoding_level": null,
      "phone": "0866-22-2217",
      "license_no": "",
      "license_date": null,
      "expire_date": null
    },
    {
      "name": "地域密着型　特別養護老人ホーム　まごころの里　高梁",
      "name_kana": "チイキミッチャクガタ　トクベツヨウゴロウジンホーム　マゴコロノサト　タカハシ",
      "business_type": "㉖ 集団給食施設",
      "address": "岡山県高梁市落合町福地380-1",
      "lat": 34.798122,
      "lng": 133.546274,
      "geocoding_level": null,
      "phone": "0866-42-3535",
      "license_no": "",
      "license_date": null,
      "expire_date": null
    },
    {
      "name": "ラ・ミューズ",
      "name_kana": "ラ・ミューズ",
      "business_type": "① 飲食店営業",
      "address": "岡山県高梁市成羽町下原１０６８－３",
      "lat": 34.780672,
      "lng": 133.536699,
      "geocoding_level": null,
      "phone": "0866-42-2202",
      "license_no": "岡山県指令備北保090530号",
      "license_date": "2021-06-16",
      "expire_date": "2027-06-30"
    },
    {
      "name": "割烹　ひろし",
      "name_kana": "カッポウ　ヒロシ",
      "business_type": "① 飲食店営業",
      "address": "岡山県高梁市成羽町下原１１２３－３",
      "lat": 34.781056,
      "lng": 133.539011,
      "geocoding_level": null,
      "phone": "0866-42-3446",
      "license_no": "岡山県指令備北保160021号",
      "license_date": "2021-06-16",
      "expire_date": "2027-06-30"
    },
    {
      "name": "デイサービスすずらん",
      "name_kana": "デイサービススズラン",
      "business_type": "㉙ その他",
      "address": "岡山県高梁市松原通2023-1",
      "lat": 34.791554,
      "lng": 133.618164,
      "geocoding_level": null,
      "phone": "0866-22-1870",
      "license_no": "",
      "license_date": null,
      "expire_date": null
    },
    {
      "name": "P.P.P.  オールスターズ!布寄",
      "name_kana": "ピー  ピー  ピー   オールスターズ　フヨリ",
      "business_type": "⑦ 野菜果物販売業",
      "address": "岡山県高梁市成羽町長地941-1",
      "lat": 34.802864,
      "lng": 133.46891,
      "geocoding_level": null,
      "phone": "0866-29-3337",
      "license_no": "",
      "license_date": null,
      "expire_date": null
    },
    {
      "name": "P.P.P.  オールスターズ!布寄",
      "name_kana": "ピー  ピー  ピー   オールスターズ　フヨリ",
      "business_type": "㉔ その他の食料品製造・加工業",
      "address": "岡山県高梁市成羽町長地941-1",
      "lat": 34.802864,
      "lng": 133.46891,
      "geocoding_level": null,
      "phone": "0866-29-3337",
      "license_no": "",
      "license_date": null,
      "expire_date": null
    },
    {
      "name": "P.P.P.オールスターズ！布寄　ふより食堂",
      "name_kana": "ピーピーピーオールスターズ　フヨリ　フヨリショクドウ",
      "business_type": "① 飲食店営業",
      "address": "岡山県高梁市成羽町長地９２５",
      "lat": 34.797417,
      "lng": 133.462072,
      "geocoding_level": null,
      "phone": "",
      "license_no": "岡山県指令備北保第350004号",
      "license_date": "2023-04-21",
      "expire_date": "2029-03-31"
    },
    {
      "name": "Vent vert",
      "name_kana": "ヴァンベール",
      "business_type": "① 飲食店営業",
      "address": "岡山県高梁市宇治町穴田3487-3",
      "lat": 34.812123,
      "lng": 133.466573,
      "geocoding_level": null,
      "phone": "0866-29-3337",
      "license_no": "岡山県指令備北保第360067号",
      "license_date": "2024-12-23",
      "expire_date": "2030-06-30"
    },
    {
      "name": "高梁市養護老人ホーム成羽長寿園",
      "name_kana": "タカハシシヨウゴロウジンホームナリワチョウジュエン",
      "business_type": "㉖ 集団給食施設",
      "address": "岡山県高梁市成羽町成羽2251-1",
      "lat": 34.786661,
      "lng": 133.531594,
      "geocoding_level": null,
      "phone": "0866422713",
      "license_no": "",
      "license_date": null,
      "expire_date": null
    },
    {
      "name": "松栄",
      "name_kana": "ショウエイ",
      "business_type": "⑬ その他の食料・飲料販売業",
      "address": "岡山県高梁市栄町1954-7",
      "lat": 34.790413,
      "lng": 133.615057,
      "geocoding_level": null,
      "phone": "0866-22-3107",
      "license_no": "",
      "license_date": null,
      "expire_date": null
    },
    {
      "name": "すき家　ポルカ高梁店",
      "name_kana": "スキヤ　ポルカタカハシテン",
      "business_type": "① 飲食店営業",
      "address": "岡山県高梁市中原町1079-1",
      "lat": 34.784182,
      "lng": 133.611149,
      "geocoding_level": null,
      "phone": "",
      "license_no": "岡山県指令備北保第240106号",
      "license_date": "2024-09-13",
      "expire_date": "2030-09-30"
    },
    {
      "name": "ドラッグコスモス高梁店",
      "name_kana": "ドラッグコスモスタカハシテン",
      "business_type": "⑪ 百貨店、総合スーパー",
      "address": "岡山県高梁市落合町阿部808-1",
      "lat": 34.778939,
      "lng": 133.592461,
      "geocoding_level": null,
      "phone": "0866-22-7600",
      "license_no": "",
      "license_date": null,
      "expire_date": null
    },
    {
      "name": "ドラッグコスモス高梁段町店",
      "name_kana": "ドラッグコスモスタカハシダンチョウテン",
      "business_type": "⑪ 百貨店、総合スーパー",
      "address": "岡山県高梁市段町1004-1",
      "lat": 34.782081,
      "lng": 133.608728,
      "geocoding_level": null,
      "phone": "0866-56-1455",
      "license_no": "",
      "license_date": null,
      "expire_date": null
    },
    {
      "name": "蔦屋書店　高梁市図書館",
      "name_kana": "ツタヤショテン　タカハシシトショカン",
      "business_type": "⑬ その他の食料・飲料販売業",
      "address": "岡山県高梁市旭町1306 高梁市複合施設",
      "lat": 34.788958,
      "lng": 133.616467,
      "geocoding_level": null,
      "phone": "0866-22-8000",
      "license_no": "",
      "license_date": null,
      "expire_date": null
    },
    {
      "name": "有限会社もりもと",
      "name_kana": "ユウゲンガイシャモリモト",
      "business_type": "⑬ その他の食料・飲料販売業",
      "address": "岡山県高梁市松原町大津寄1885の5",
      "lat": 34.820394,
      "lng": 133.557349,
      "geocoding_level": null,
      "phone": "080-5238-1218",
      "license_no": "",
      "license_date": null,
      "expire_date": null
    },
    {
      "name": "リトルマーメイド　ポルカ店",
      "name_kana": "リトルマーメイド　ポルカテン",
      "business_type": "③ 乳類販売業",
      "address": "岡山県高梁市中原町1084番地の1",
      "lat": 34.783358,
      "lng": 133.610696,
      "geocoding_level": null,
      "phone": "0866-22-8335",
      "license_no": "",
      "license_date": null,
      "expire_date": null
    },
    {
      "name": "リトルマーメイド　ポルカ店",
      "name_kana": "リトルマーメイド　ポルカテン",
      "business_type": "⑪ 菓子製造業",
      "address": "岡山県高梁市中原町１０８４－１",
      "lat": 34.783358,
      "lng": 133.610696,
      "geocoding_level": null,
      "phone": "0866-22-8335",
      "license_no": "岡山県指令備北保第330043号",
      "license_date": "2021-10-19",
      "expire_date": "2027-09-30"
    },
    {
      "name": "辰己屋",
      "name_kana": "タツミヤ",
      "business_type": "⑬ その他の食料・飲料販売業",
      "address": "岡山県高梁市備中町東油野1745",
      "lat": 34.831999,
      "lng": 133.422958,
      "geocoding_level": null,
      "phone": "0866-45-2635",
      "license_no": "",
      "license_date": null,
      "expire_date": null
    },
    {
      "name": "ホームプラザナフコ　高梁店",
      "name_kana": "ホームプラザナフコ　タカハシテン",
      "business_type": "⑧ 米穀類販売業",
      "address": "岡山県高梁市落合町阿部800",
      "lat": 34.777588,
      "lng": 133.593152,
      "geocoding_level": null,
      "phone": "0866-21-3801",
      "license_no": "",
      "license_date": null,
      "expire_date": null
    },
    {
      "name": "清原商店",
      "name_kana": "キヨハラショウテン",
      "business_type": "① 魚介類販売業（包装済みの魚介類のみの販売）",
      "address": "岡山県高梁市有漢町有漢４５５６－１",
      "lat": 34.916777,
      "lng": 133.679434,
      "geocoding_level": null,
      "phone": "0866-57-2222",
      "license_no": "",
      "license_date": null,
      "expire_date": null
    },
    {
      "name": "清原商店",
      "name_kana": "キヨハラショウテン",
      "business_type": "② 食肉販売業（包装済みの食肉のみの販売）",
      "address": "岡山県高梁市有漢町有漢４５５６－１",
      "lat": 34.916777,
      "lng": 133.679434,
      "geocoding_level": null,
      "phone": "0866-57-2222",
      "license_no": "",
      "license_date": null,
      "expire_date": null
    },
    {
      "name": "清原商店",
      "name_kana": "キヨハラショウテン",
      "business_type": "③ 乳類販売業",
      "address": "岡山県高梁市有漢町有漢４５５６－１",
      "lat": 34.916777,
      "lng": 133.679434,
      "geocoding_level": null,
      "phone": "0866-57-2222",
      "license_no": "",
      "license_date": null,
      "expire_date": null
    },
    {
      "name": "大石商店",
      "name_kana": "オオイシショウテン",
      "business_type": "① 魚介類販売業（包装済みの魚介類のみの販売）",
      "address": "岡山県高梁市有漢町有漢８０７７",
      "lat": 34.892411,
      "lng": 133.666314,
      "geocoding_level": null,
      "phone": "",
      "license_no": "",
      "license_date": null,
      "expire_date": null
    },
    {
      "name": "川上商店",
      "name_kana": "カワカミショウテン",
      "business_type": "① 魚介類販売業（包装済みの魚介類のみの販売）",
      "address": "岡山県高梁市備中町布瀬１５４７－１",
      "lat": 34.77496,
      "lng": 133.462072,
      "geocoding_level": null,
      "phone": "0866-45-3233",
      "license_no": "",
      "license_date": null,
      "expire_date": null
    },
    {
      "name": "川上商店",
      "name_kana": "カワカミショウテン",
      "business_type": "② 食肉販売業（包装済みの食肉のみの販売）",
      "address": "岡山県高梁市備中町布瀬１５４７－１",
      "lat": 34.77496,
      "lng": 133.462072,
      "geocoding_level": null,
      "phone": "0866-45-3233",
      "license_no": "",
      "license_date": null,
      "expire_date": null
    },
    {
      "name": "川上商店",
      "name_kana": "カワカミショウテン",
      "business_type": "③ 乳類販売業",
      "address": "岡山県高梁市備中町布瀬１５４７－１",
      "lat": 34.77496,
      "lng": 133.462072,
      "geocoding_level": null,
      "phone": "0866-45-3233",
      "license_no": "",
      "license_date": null,
      "expire_date": null
    },
    {
      "name": "森崎商店",
      "name_kana": "モリサキショウテン",
      "business_type": "② 食肉販売業（包装済みの食肉のみの販売）",
      "address": "岡山県高梁市備中町西山１７５９",
      "lat": 34.856332,
      "lng": 133.354978,
      "geocoding_level": null,
      "phone": "0866-45-3112",
      "license_no": "",
      "license_date": null,
      "expire_date": null
    },
    {
      "name": "セブンーイレブン高梁津川町店",
      "name_kana": "セブンーイレブンタカハシツガワチョウテン",
      "business_type": "① 魚介類販売業（包装済みの魚介類のみの販売）",
      "address": "岡山県高梁市津川町今津２５６４",
      "lat": 34.827786,
      "lng": 133.625533,
      "geocoding_level": null,
      "phone": "0866-21-3955",
      "license_no": "",
      "license_date": null,
      "expire_date": null
    },
    {
      "name": "セブンーイレブン高梁津川町店",
      "name_kana": "セブンーイレブンタカハシツガワチョウテン",
      "business_type": "② 食肉販売業（包装済みの食肉のみの販売）",
      "address": "岡山県高梁市津川町今津２５６４",
      "lat": 34.827786,
      "lng": 133.625533,
      "geocoding_level": null,
      "phone": "0866-21-3955",
      "license_no": "",
      "license_date": null,
      "expire_date": null
    },
    {
      "name": "セブンーイレブン高梁津川町店",
      "name_kana": "セブンーイレブンタカハシツガワチョウテン",
      "business_type": "③ 乳類販売業",
      "address": "岡山県高梁市津川町今津２５６４",
      "lat": 34.827786,
      "lng": 133.625533,
      "geocoding_level": null,
      "phone": "0866-21-3955",
      "license_no": "",
      "license_date": null,
      "expire_date": null
    },
    {
      "name": "セブン-イレブン高梁津川町店",
      "name_kana": "セブンーイレブンタカハシツガワチョウテン",
      "business_type": "① 飲食店営業",
      "address": "岡山県高梁市津川町今津２５６４",
      "lat": 34.827786,
      "lng": 133.625533,
      "geocoding_level": null,
      "phone": "0866-21-3955",
      "license_no": "岡山県指令備北保第330058号",
      "license_date": "2022-01-11",
      "expire_date": "2027-06-30"
    },
    {
      "name": "綱島商店",
      "name_kana": "ツナシマショウテン",
      "business_type": "⑦ 野菜果物販売業",
      "address": "岡山県高梁市巨瀬町4788-1",
      "lat": 34.877297,
      "lng": 133.643658,
      "geocoding_level": null,
      "phone": "0866-25-0261",
      "license_no": "",
      "license_date": null,
      "expire_date": null
    },
    {
      "name": "",
      "name_kana": "",
      "business_type": "⑥ 弁当販売業",
      "address": "岡山県高梁市（県内一円）",
      "lat": 34.791037,
      "lng": 133.616852,
      "geocoding_level": null,
      "phone": "",
      "license_no": "",
      "license_date": null,
      "expire_date": null
    },
    {
      "name": "",
      "name_kana": "",
      "business_type": "⑬ その他の食料・飲料販売業",
      "address": "岡山県高梁市（県内一円）",
      "lat": 34.791037,
      "lng": 133.616852,
      "geocoding_level": null,
      "phone": "",
      "license_no": "",
      "license_date": null,
      "expire_date": null
    },
    {
      "name": "広金製茶",
      "name_kana": "ヒロカネセイチャ",
      "business_type": "㉑ 製茶業",
      "address": "岡山県高梁市宇治町本郷538",
      "lat": 34.837226,
      "lng": 133.486331,
      "geocoding_level": null,
      "phone": "0866-29-2189",
      "license_no": "",
      "license_date": null,
      "expire_date": null
    },
    {
      "name": "ローソン高梁落合町店",
      "name_kana": "ローソンタカハシオチアイチョウテン",
      "business_type": "⑩ コンビニエンスストア",
      "address": "岡山県高梁市落合町阿部9-2",
      "lat": 34.779791,
      "lng": 133.597649,
      "geocoding_level": null,
      "phone": "0866-23-1207",
      "license_no": "",
      "license_date": null,
      "expire_date": null
    },
    {
      "name": "ローソン高梁落合町店",
      "name_kana": "ローソンタカハシオチアイチョウテン",
      "business_type": "① 魚介類販売業（包装済みの魚介類のみの販売）",
      "address": "岡山県高梁市落合町阿部９－２",
      "lat": 34.779807,
      "lng": 133.597648,
      "geocoding_level": null,
      "phone": "0866-23-1207",
      "license_no": "",
      "license_date": null,
      "expire_date": null
    },
    {
      "name": "ローソン高梁落合町店",
      "name_kana": "ローソンタカハシオチアイチョウテン",
      "business_type": "② 食肉販売業（包装済みの食肉のみの販売）",
      "address": "岡山県高梁市落合町阿部９－２",
      "lat": 34.779807,
      "lng": 133.597648,
      "geocoding_level": null,
      "phone": "0866-23-1207",
      "license_no": "",
      "license_date": null,
      "expire_date": null
    },
    {
      "name": "ローソン高梁落合町店",
      "name_kana": "ローソンタカハシオチアイチョウテン",
      "business_type": "① 飲食店営業",
      "address": "岡山県高梁市落合町阿部９－２",
      "lat": 34.779807,
      "lng": 133.597648,
      "geocoding_level": null,
      "phone": "",
      "license_no": "岡山県指令備北保第120029号",
      "license_date": "2023-09-06",
      "expire_date": "2029-09-30"
    },
    {
      "name": "ローソン高梁駅前店",
      "name_kana": "ローソンタカハシエキマエテン",
      "business_type": "① 飲食店営業",
      "address": "岡山県高梁市旭町1321",
      "lat": 34.789271,
      "lng": 133.616139,
      "geocoding_level": null,
      "phone": "0866-23-1563",
      "license_no": "岡山県指令備北保第250089号",
      "license_date": "2025-09-09",
      "expire_date": "2031-09-30"
    },
    {
      "name": "ローソン高梁駅前店",
      "name_kana": "ローソンタカハシエキマエテン",
      "business_type": "⑩ コンビニエンスストア",
      "address": "岡山県高梁市旭町1321-1",
      "lat": 34.789271,
      "lng": 133.616125,
      "geocoding_level": null,
      "phone": "0866-23-1563",
      "license_no": "",
      "license_date": null,
      "expire_date": null
    },
    {
      "name": "ローソン高梁津川町店",
      "name_kana": "ローソンタカハシツガワチョウテン",
      "business_type": "⑩ コンビニエンスストア",
      "address": "岡山県高梁市津川町今津1738-1",
      "lat": 34.827786,
      "lng": 133.625533,
      "geocoding_level": null,
      "phone": "0866-22-3788",
      "license_no": "",
      "license_date": null,
      "expire_date": null
    },
    {
      "name": "ローソン成羽町店",
      "name_kana": "ローソンナリワチョウテン",
      "business_type": "⑩ コンビニエンスストア",
      "address": "岡山県高梁市成羽町下原265-1",
      "lat": 34.782746,
      "lng": 133.547284,
      "geocoding_level": null,
      "phone": "0866-42-4788",
      "license_no": "",
      "license_date": null,
      "expire_date": null
    },
    {
      "name": "おぐろ",
      "name_kana": "オグロ",
      "business_type": "⑬ その他の食料・飲料販売業",
      "address": "岡山県高梁市巨瀬町4991-2",
      "lat": 34.870798,
      "lng": 133.639511,
      "geocoding_level": null,
      "phone": "0866-25-0450",
      "license_no": "",
      "license_date": null,
      "expire_date": null
    },
    {
      "name": "おぐろ",
      "name_kana": "オグロ",
      "business_type": "① 飲食店営業",
      "address": "岡山県高梁市巨瀬町４９９１－３",
      "lat": 34.870798,
      "lng": 133.639511,
      "geocoding_level": null,
      "phone": "0866-25-0441",
      "license_no": "岡山県指令備北保第350066号",
      "license_date": "2023-11-10",
      "expire_date": "2029-06-30"
    },
    {
      "name": "おぐろ",
      "name_kana": "オグロ",
      "business_type": "④ 魚介類販売業",
      "address": "岡山県高梁市巨瀬町４９９１－３",
      "lat": 34.870798,
      "lng": 133.639511,
      "geocoding_level": null,
      "phone": "0866-25-0441",
      "license_no": "岡山県指令備北保第350067号",
      "license_date": "2023-11-10",
      "expire_date": "2029-06-30"
    },
    {
      "name": "BH2533岡山",
      "name_kana": "ビイエイチ　ニイゴウサンサン　オカヤマ",
      "business_type": "㉙ その他",
      "address": "岡山県高梁市成羽町成羽2901",
      "lat": 34.782837,
      "lng": 133.527546,
      "geocoding_level": null,
      "phone": "0866-42-5028",
      "license_no": "",
      "license_date": null,
      "expire_date": null
    },
    {
      "name": "五葉商店",
      "name_kana": "ゴヨウショウテン",
      "business_type": "㉔ その他の食料品製造・加工業",
      "address": "岡山県高梁市宇治町宇治1076",
      "lat": 34.830401,
      "lng": 133.500235,
      "geocoding_level": null,
      "phone": "0866-29-2051",
      "license_no": "",
      "license_date": null,
      "expire_date": null
    },
    {
      "name": "岡山県高梁市立松山高等学校",
      "name_kana": "オカヤマケンタカハシシリツマツヤマコウトウガッコウ",
      "business_type": "⑯ コーヒー製造・加工業（飲料の製造を除く。）",
      "address": "岡山県高梁市原田北町1216-1",
      "lat": 34.786309,
      "lng": 133.614936,
      "geocoding_level": null,
      "phone": "0866-22-3618",
      "license_no": "",
      "license_date": null,
      "expire_date": null
    },
    {
      "name": "ラ・エスペランサ",
      "name_kana": "ラ　エスペランサ",
      "business_type": "① 飲食店営業",
      "address": "岡山県高梁市伊賀町８",
      "lat": 34.79646,
      "lng": 133.620657,
      "geocoding_level": null,
      "phone": "0866-22-3720",
      "license_no": "岡山県指令備北保第330036号",
      "license_date": "2021-09-16",
      "expire_date": "2027-06-30"
    },
    {
      "name": "鶴橋キムチ　(黒岩商店)",
      "name_kana": "ツルハシキムチ　クロイワシヨウテン",
      "business_type": "⑬ その他の食料・飲料販売業",
      "address": "岡山県高梁市落合町阿部1700　ゆめタウン高梁 1階トマト&オニオン様横　鶴橋キムチ",
      "lat": 34.777411,
      "lng": 133.58773,
      "geocoding_level": null,
      "phone": "090-9070-0302",
      "license_no": "",
      "license_date": null,
      "expire_date": null
    },
    {
      "name": "医療法人慶真会　大杉病院",
      "name_kana": "イリョウホウジンケイシンカイ　オオスギビョウイン",
      "business_type": "㉖ 集団給食施設",
      "address": "岡山県高梁市柿木町24",
      "lat": 34.795706,
      "lng": 133.61777,
      "geocoding_level": null,
      "phone": "0866-22-5155",
      "license_no": "",
      "license_date": null,
      "expire_date": null
    },
    {
      "name": "さくらの木の下で",
      "name_kana": "サクラノキノシタデ",
      "business_type": "㉔ その他の食料品製造・加工業",
      "address": "岡山県高梁市成羽町吹屋277",
      "lat": 34.867309,
      "lng": 133.476517,
      "geocoding_level": null,
      "phone": "090-5061-1498",
      "license_no": "",
      "license_date": null,
      "expire_date": null
    },
    {
      "name": "特別養護老人ホーム白和荘",
      "name_kana": "トクベツヨウゴロウジンホームハクワソウ",
      "business_type": "㉖ 集団給食施設",
      "address": "岡山県高梁市高倉町大瀬八長２６６３－１",
      "lat": 34.821493,
      "lng": 133.612292,
      "geocoding_level": null,
      "phone": "0866-22-5529",
      "license_no": "",
      "license_date": null,
      "expire_date": null
    },
    {
      "name": "柏木みどり",
      "name_kana": "カシワギミドリ",
      "business_type": "㉔ その他の食料品製造・加工業",
      "address": "岡山県高梁市川上町下大竹１６６１",
      "lat": 34.730463,
      "lng": 133.463685,
      "geocoding_level": null,
      "phone": "",
      "license_no": "",
      "license_date": null,
      "expire_date": null
    },
    {
      "name": "cafe and shop POPEYE",
      "name_kana": "カフェアンドショップポパイ",
      "business_type": "⑬ その他の食料・飲料販売業",
      "address": "岡山県高梁市川上町領家2462-1",
      "lat": 34.741576,
      "lng": 133.459645,
      "geocoding_level": null,
      "phone": "0866-48-3020",
      "license_no": "",
      "license_date": null,
      "expire_date": null
    },
    {
      "name": "cafe POPEYE",
      "name_kana": "カフェ　ポパイ",
      "business_type": "① 飲食店営業",
      "address": "岡山県高梁市県内一円",
      "lat": 34.791037,
      "lng": 133.616852,
      "geocoding_level": null,
      "phone": "",
      "license_no": "岡山県指令備北保第350031号",
      "license_date": "2023-07-10",
      "expire_date": "2029-06-30"
    },
    {
      "name": "CAFE tulenote",
      "name_kana": "カフェツレノーテ",
      "business_type": "⑯ コーヒー製造・加工業（飲料の製造を除く。）",
      "address": "岡山県高梁市川上町領家４６９",
      "lat": 34.741576,
      "lng": 133.459645,
      "geocoding_level": null,
      "phone": "09068230646",
      "license_no": "",
      "license_date": null,
      "expire_date": null
    },
    {
      "name": "ＣＡＦＥ　ｔｕｌｅｎｏｔｅ",
      "name_kana": "カフェ　ツレノーテ",
      "business_type": "① 飲食店営業",
      "address": "岡山県高梁市川上町領家４６９",
      "lat": 34.741576,
      "lng": 133.459645,
      "geocoding_level": null,
      "phone": "09068230646",
      "license_no": "岡山県指令備北保第360018号",
      "license_date": "2024-05-20",
      "expire_date": "2029-09-30"
    },
    {
      "name": "tulenote",
      "name_kana": "ツレノーテ",
      "business_type": "① 飲食店営業",
      "address": "岡山県高梁市県内一円",
      "lat": 34.791037,
      "lng": 133.616852,
      "geocoding_level": null,
      "phone": "",
      "license_no": "岡山県指令備北保第370029号",
      "license_date": "2025-10-14",
      "expire_date": "2031-09-30"
    },
    {
      "name": "須山豆腐店",
      "name_kana": "スヤマトウフテン",
      "business_type": "⑬ その他の食料・飲料販売業",
      "address": "岡山県高梁市(県内一円)",
      "lat": 34.791037,
      "lng": 133.616852,
      "geocoding_level": null,
      "phone": "",
      "license_no": "",
      "license_date": null,
      "expire_date": null
    },
    {
      "name": "株式会社　パンドミ",
      "name_kana": "カブシキガイシャ　パンドミ",
      "business_type": "⑬ その他の食料・飲料販売業",
      "address": "岡山県高梁市津川町八川261-1",
      "lat": 34.849214,
      "lng": 133.632732,
      "geocoding_level": null,
      "phone": "09052651414",
      "license_no": "",
      "license_date": null,
      "expire_date": null
    },
    {
      "name": "黒川　とよみ",
      "name_kana": "クロカワ　トヨミ",
      "business_type": "㉔ その他の食料品製造・加工業",
      "address": "岡山県高梁市成羽町長地904",
      "lat": 34.801171,
      "lng": 133.471194,
      "geocoding_level": null,
      "phone": "090-1330-8001",
      "license_no": "",
      "license_date": null,
      "expire_date": null
    },
    {
      "name": "柚子生産組合",
      "name_kana": "ユズセイサンクミアイ",
      "business_type": "⑱ 調味料製造・加工業",
      "address": "岡山県高梁市成羽町長地1247-1",
      "lat": 34.802971,
      "lng": 133.470172,
      "geocoding_level": null,
      "phone": "",
      "license_no": "",
      "license_date": null,
      "expire_date": null
    },
    {
      "name": "ぜきお農園　coffee roast club",
      "name_kana": "ゼキオノウエン　コーヒーローストクラブ",
      "business_type": "⑯ コーヒー製造・加工業（飲料の製造を除く。）",
      "address": "岡山県高梁市有漢町上有漢9501",
      "lat": 34.914766,
      "lng": 133.699835,
      "geocoding_level": null,
      "phone": "",
      "license_no": "",
      "license_date": null,
      "expire_date": null
    },
    {
      "name": "株式会社蔵家",
      "name_kana": "カブシキガイシャクラヤ",
      "business_type": "⑪ 菓子製造業",
      "address": "岡山県高梁市有漢町有漢２５５５",
      "lat": 34.901784,
      "lng": 133.659832,
      "geocoding_level": null,
      "phone": "0866-57-9120",
      "license_no": "岡山県指令備北保第290087号",
      "license_date": "2023-12-12",
      "expire_date": "2029-12-31"
    },
    {
      "name": "かっこう花グループ",
      "name_kana": "カッコウバナグループ",
      "business_type": "㉔ その他の食料品製造・加工業",
      "address": "岡山県高梁市川上町高山市35",
      "lat": 34.733717,
      "lng": 133.401333,
      "geocoding_level": null,
      "phone": "0866-48-3152",
      "license_no": "",
      "license_date": null,
      "expire_date": null
    },
    {
      "name": "百姓屋敷わら",
      "name_kana": "ヒャクショウヤシキワラ",
      "business_type": "① 飲食店営業",
      "address": "岡山県高梁市川上町下大竹２０８５",
      "lat": 34.73582,
      "lng": 133.445703,
      "geocoding_level": null,
      "phone": "0866-48-3243",
      "license_no": "岡山県指令備北保090451号",
      "license_date": "2021-09-01",
      "expire_date": "2027-09-30"
    },
    {
      "name": "ＷａＲａ倶楽無",
      "name_kana": "ワラクラブ",
      "business_type": "① 飲食店営業",
      "address": "岡山県高梁市川上町下大竹２０８３",
      "lat": 34.736055,
      "lng": 133.445403,
      "geocoding_level": null,
      "phone": "0866-48-3243",
      "license_no": "岡山県指令備北保第220029号",
      "license_date": "2021-09-01",
      "expire_date": "2027-09-30"
    },
    {
      "name": "百姓屋敷わら",
      "name_kana": "ヒャクショウヤシキワラ",
      "business_type": "㉙ 漬物製造業",
      "address": "岡山県高梁市川上町下大竹2085",
      "lat": 34.73582,
      "lng": 133.445703,
      "geocoding_level": null,
      "phone": "0866-48-3243",
      "license_no": "岡山県指令備北保第370027号",
      "license_date": "2025-10-02",
      "expire_date": "2031-09-30"
    },
    {
      "name": "株式会社さとう紅商店",
      "name_kana": "カブシキガイシャサトウベニショウテン",
      "business_type": "① 飲食店営業",
      "address": "岡山県高梁市県内一円",
      "lat": 34.791037,
      "lng": 133.616852,
      "geocoding_level": null,
      "phone": "",
      "license_no": "岡山県指令備北保第340004号",
      "license_date": "2022-04-07",
      "expire_date": "2028-03-31"
    },
    {
      "name": "株式会社さとう紅商店",
      "name_kana": "カブシキガイシャサトウベニショウテン",
      "business_type": "㉚ 密封包装食品製造業",
      "address": "岡山県高梁市成羽町中野２７５４－１",
      "lat": 34.841718,
      "lng": 133.469245,
      "geocoding_level": null,
      "phone": "",
      "license_no": "岡山県指令備北保第340003号",
      "license_date": "2022-04-07",
      "expire_date": "2028-03-31"
    },
    {
      "name": "株式会社さとう紅商店",
      "name_kana": "カブシキガイシャサトウベニショウテン",
      "business_type": "㉙ 漬物製造業",
      "address": "岡山県高梁市成羽町中野2754-1",
      "lat": 34.841718,
      "lng": 133.469245,
      "geocoding_level": null,
      "phone": "",
      "license_no": "岡山県指令備北保第340053号",
      "license_date": "2022-10-27",
      "expire_date": "2028-03-31"
    },
    {
      "name": "株式会社さとう紅商店",
      "name_kana": "カブシキガイシャサトウベニショウテン",
      "business_type": "⑪ 菓子製造業",
      "address": "岡山県高梁市成羽町中野2754-1",
      "lat": 34.836652,
      "lng": 133.459664,
      "geocoding_level": null,
      "phone": "08014876077",
      "license_no": "岡山県指令備北保第340081号",
      "license_date": "2023-03-20",
      "expire_date": "2028-03-31"
    },
    {
      "name": "公共の宿　神原荘",
      "name_kana": "コウキョウノヤド　コウバラソウ",
      "business_type": "㉕ そうざい製造業",
      "address": "岡山県高梁市松原町神原２２８１－３",
      "lat": 34.811034,
      "lng": 133.592652,
      "geocoding_level": null,
      "phone": "0866-22-0135",
      "license_no": "岡山県指令備北保第340005号",
      "license_date": "2022-04-13",
      "expire_date": "2027-09-30"
    },
    {
      "name": "高梁グリーンパーク",
      "name_kana": "タカハシグリーンパーク",
      "business_type": "① 飲食店営業",
      "address": "岡山県高梁市松原町神原２２８１番地４",
      "lat": 34.812638,
      "lng": 133.5943,
      "geocoding_level": null,
      "phone": "0866-21-2080",
      "license_no": "岡山県指令備北保第350072号",
      "license_date": "2023-11-24",
      "expire_date": "2029-09-30"
    },
    {
      "name": "高梁グリーンパーク",
      "name_kana": "タカハシグリーンパーク",
      "business_type": "㉕ そうざい製造業",
      "address": "岡山県高梁市松原町神原２２８１番地４",
      "lat": 34.812638,
      "lng": 133.5943,
      "geocoding_level": null,
      "phone": "0866-21-2080",
      "license_no": "岡山県指令備北保第350073号",
      "license_date": "2023-11-24",
      "expire_date": "2029-09-30"
    },
    {
      "name": "sasaya",
      "name_kana": "ササヤ",
      "business_type": "① 飲食店営業",
      "address": "岡山県高梁市下谷町４８４３－３",
      "lat": 34.782775,
      "lng": 133.617977,
      "geocoding_level": null,
      "phone": "",
      "license_no": "岡山県指令備北保第330045号",
      "license_date": "2021-11-04",
      "expire_date": "2027-09-30"
    },
    {
      "name": "百笑茶ひがしや",
      "name_kana": "ヒャクショウチャヒガシヤ",
      "business_type": "① 飲食店営業",
      "address": "岡山県高梁市高倉町飯部４１０２",
      "lat": 34.865111,
      "lng": 133.552904,
      "geocoding_level": null,
      "phone": "",
      "license_no": "岡山県指令備北保第330046号",
      "license_date": "2021-11-05",
      "expire_date": "2027-06-30"
    },
    {
      "name": "しばくらぶどう園",
      "name_kana": "シバクラブドウエン",
      "business_type": "㉚ 密封包装食品製造業",
      "address": "岡山県高梁市川面町５１８９",
      "lat": 34.867529,
      "lng": 133.595113,
      "geocoding_level": null,
      "phone": "0866-26-0322",
      "license_no": "岡山県指令備北保第330050号",
      "license_date": "2021-11-15",
      "expire_date": "2027-06-30"
    },
    {
      "name": "しばくらぶどう園",
      "name_kana": "シバクラブドウエン",
      "business_type": "㉙ 漬物製造業",
      "address": "岡山県高梁市川面町５１８９",
      "lat": 34.867529,
      "lng": 133.595113,
      "geocoding_level": null,
      "phone": "0866-26-0322",
      "license_no": "岡山県指令備北保第330049号",
      "license_date": "2021-11-15",
      "expire_date": "2027-06-30"
    },
    {
      "name": "忠兵衛フーズ",
      "name_kana": "チュウベイフーズ",
      "business_type": "① 飲食店営業",
      "address": "岡山県高梁市（県内一円 ６月）",
      "lat": 34.791037,
      "lng": 133.616852,
      "geocoding_level": null,
      "phone": "",
      "license_no": "岡山県指令備北保第330052号",
      "license_date": "2021-11-22",
      "expire_date": "2027-06-30"
    },
    {
      "name": "岡本悦子",
      "name_kana": "オカモトエツコ",
      "business_type": "⑪ 菓子製造業",
      "address": "岡山県高梁市巨瀬町９７６",
      "lat": 34.870864,
      "lng": 133.641842,
      "geocoding_level": null,
      "phone": "0866-25-0878",
      "license_no": "岡山県指令備北保第330051号",
      "license_date": "2021-11-22",
      "expire_date": "2027-06-30"
    },
    {
      "name": "",
      "name_kana": "",
      "business_type": "④ 魚介類販売業",
      "address": "岡山県高梁市成羽町星原１０－１",
      "lat": 34.780674,
      "lng": 133.532159,
      "geocoding_level": null,
      "phone": "",
      "license_no": "岡山県指令備北保第330054号",
      "license_date": "2021-12-03",
      "expire_date": "2027-06-30"
    },
    {
      "name": "恵",
      "name_kana": "メグミ",
      "business_type": "⑪ 菓子製造業",
      "address": "岡山県高梁市備中町平川２９９８",
      "lat": 34.797075,
      "lng": 133.397018,
      "geocoding_level": null,
      "phone": "0866-45-2192",
      "license_no": "岡山県指令備北保第220050号",
      "license_date": "2021-12-13",
      "expire_date": "2027-12-31"
    },
    {
      "name": "恵",
      "name_kana": "メグミ",
      "business_type": "① 飲食店営業",
      "address": "岡山県高梁市備中町平川２９９８",
      "lat": 34.797075,
      "lng": 133.397018,
      "geocoding_level": null,
      "phone": "0866-45-2192",
      "license_no": "岡山県指令備北保第220049号",
      "license_date": "2021-12-13",
      "expire_date": "2027-12-31"
    },
    {
      "name": "百姓屋敷わら",
      "name_kana": "ヒャクショウヤシキワラ",
      "business_type": "⑪ 菓子製造業",
      "address": "岡山県高梁市川上町下大竹２０８５",
      "lat": 34.73582,
      "lng": 133.445703,
      "geocoding_level": null,
      "phone": "0866-48-3243",
      "license_no": "岡山県指令備北保第350062号",
      "license_date": "2023-11-02",
      "expire_date": "2029-09-30"
    },
    {
      "name": "株式会社池田本店",
      "name_kana": "カブシキガイシャイケダホンテン",
      "business_type": "① 飲食店営業",
      "address": "岡山県高梁市川上町地頭１３０９－３",
      "lat": 34.73829,
      "lng": 133.484979,
      "geocoding_level": null,
      "phone": "0866-48-3012",
      "license_no": "岡山県指令備北保第100003号",
      "license_date": "2021-09-01",
      "expire_date": "2027-09-30"
    },
    {
      "name": "株式会社池田本店",
      "name_kana": "カブシキガイシャイケダホンテン",
      "business_type": "① 飲食店営業",
      "address": "岡山県高梁市川上町地頭1283-1",
      "lat": 34.738552,
      "lng": 133.485264,
      "geocoding_level": null,
      "phone": "0866-48-2540",
      "license_no": "岡山県指令備北保第080051号",
      "license_date": "2025-09-22",
      "expire_date": "2031-09-30"
    },
    {
      "name": "株式会社池田本店",
      "name_kana": "カブシキガイシャイケダホンテン",
      "business_type": "⑪ 百貨店、総合スーパー",
      "address": "岡山県高梁市川上町地頭1283-1",
      "lat": 34.738552,
      "lng": 133.485264,
      "geocoding_level": null,
      "phone": "0866-48-2540",
      "license_no": "",
      "license_date": null,
      "expire_date": null
    },
    {
      "name": "株式会社池田本店",
      "name_kana": "カブシキガイシャイケダホンテン",
      "business_type": "㉕ そうざい製造業",
      "address": "岡山県高梁市川上町地頭1283-1",
      "lat": 34.738552,
      "lng": 133.485264,
      "geocoding_level": null,
      "phone": "0866-48-2540",
      "license_no": "岡山県指令備北保第080058号",
      "license_date": "2025-09-22",
      "expire_date": "2031-09-30"
    },
    {
      "name": "株式会社池田本店",
      "name_kana": "カブシキガイシャイケダホンテン",
      "business_type": "④ 魚介類販売業",
      "address": "岡山県高梁市川上町地頭1283-1",
      "lat": 34.738552,
      "lng": 133.485264,
      "geocoding_level": null,
      "phone": "0866-48-2540",
      "license_no": "岡山県指令備北保第080056号",
      "license_date": "2025-09-22",
      "expire_date": "2031-09-30"
    },
    {
      "name": "株式会社池田本店",
      "name_kana": "カブシキガイシャイケダホンテン",
      "business_type": "③ 食肉販売業",
      "address": "岡山県高梁市川上町地頭1283-1",
      "lat": 34.738552,
      "lng": 133.485264,
      "geocoding_level": null,
      "phone": "0866-48-2540",
      "license_no": "岡山県指令備北保第080054号",
      "license_date": "2025-09-22",
      "expire_date": "2031-09-30"
    },
    {
      "name": "きまぐれさ～ん磯崎",
      "name_kana": "キマグレサーンイソザキ",
      "business_type": "⑪ 菓子製造業",
      "address": "岡山県高梁市川上町地頭１７５９－７",
      "lat": 34.737436,
      "lng": 133.486389,
      "geocoding_level": null,
      "phone": "0866-48-3166",
      "license_no": "岡山県指令備北保第280041号",
      "license_date": "2021-09-01",
      "expire_date": "2027-09-30"
    },
    {
      "name": "寿司・割烹　福ろう",
      "name_kana": "スシ・カッポウ　フクロウ",
      "business_type": "① 飲食店営業",
      "address": "岡山県高梁市落合町阿部１１９０－１",
      "lat": 34.778204,
      "lng": 133.589954,
      "geocoding_level": null,
      "phone": "",
      "license_no": "岡山県指令備北保第270073号",
      "license_date": "2021-09-01",
      "expire_date": "2027-09-30"
    },
    {
      "name": "絆",
      "name_kana": "キズナ",
      "business_type": "① 飲食店営業",
      "address": "岡山県高梁市弓之町１６７０－１",
      "lat": 34.789503,
      "lng": 133.612951,
      "geocoding_level": null,
      "phone": "0866-22-1469",
      "license_no": "岡山県指令備北保第090500号",
      "license_date": "2021-09-01",
      "expire_date": "2027-09-30"
    },
    {
      "name": "ネパール人シェフのきいろい台所",
      "name_kana": "ネパールジンシェフノキイロイダイドコロ",
      "business_type": "① 飲食店営業",
      "address": "岡山県高梁市成羽町吹屋２８５",
      "lat": 34.860768,
      "lng": 133.47079,
      "geocoding_level": null,
      "phone": "",
      "license_no": "岡山県指令備北保第340007号",
      "license_date": "2022-04-15",
      "expire_date": "2028-03-31"
    },
    {
      "name": "きいろい台所",
      "name_kana": "キイロイダイドコロ",
      "business_type": "① 飲食店営業",
      "address": "岡山県高梁市県内一円",
      "lat": 34.791037,
      "lng": 133.616852,
      "geocoding_level": null,
      "phone": "",
      "license_no": "岡山県指令備北保第340079号",
      "license_date": "2023-03-15",
      "expire_date": "2028-03-31"
    },
    {
      "name": "",
      "name_kana": "",
      "business_type": "① 飲食店営業",
      "address": "岡山県高梁市県内一円",
      "lat": 34.791037,
      "lng": 133.616852,
      "geocoding_level": null,
      "phone": "",
      "license_no": "岡山県指令備北保第340008号",
      "license_date": "2022-04-25",
      "expire_date": "2027-09-30"
    },
    {
      "name": "ココちゃんのカステラ",
      "name_kana": "ココチャンノカステラ",
      "business_type": "⑪ 菓子製造業",
      "address": "岡山県高梁市有漢町有漢２９８",
      "lat": 34.88985,
      "lng": 133.647361,
      "geocoding_level": null,
      "phone": "0866-57-2615",
      "license_no": "岡山県指令備北保第340012号",
      "license_date": "2022-05-10",
      "expire_date": "2027-12-31"
    },
    {
      "name": "綱島商店",
      "name_kana": "ツナシマショウテン",
      "business_type": "④ 魚介類販売業",
      "address": "岡山県高梁市巨瀬町4788-1",
      "lat": 34.877297,
      "lng": 133.643658,
      "geocoding_level": null,
      "phone": "0866-25-0261",
      "license_no": "岡山県指令備北保第330060号",
      "license_date": "2022-01-18",
      "expire_date": "2027-06-30"
    },
    {
      "name": "綱島商店",
      "name_kana": "ツナシマショウテン",
      "business_type": "① 飲食店営業",
      "address": "岡山県高梁市巨瀬町4788-1",
      "lat": 34.877297,
      "lng": 133.643658,
      "geocoding_level": null,
      "phone": "0866-25-0261",
      "license_no": "岡山県指令備北保第330059号",
      "license_date": "2022-01-18",
      "expire_date": "2027-06-30"
    },
    {
      "name": "南風食彩　よしたか",
      "name_kana": "ナンプウショクサイ　ヨシタカ",
      "business_type": "① 飲食店営業",
      "address": "岡山県高梁市南町１１６－２",
      "lat": 34.789506,
      "lng": 133.613964,
      "geocoding_level": null,
      "phone": "",
      "license_no": "岡山県指令備北保第330064号",
      "license_date": "2022-02-03",
      "expire_date": "2027-09-30"
    },
    {
      "name": "南風食彩　よしたか",
      "name_kana": "ナンプウショクサイ　ヨシタカ",
      "business_type": "① 飲食店営業",
      "address": "岡山県高梁市県内一円",
      "lat": 34.791037,
      "lng": 133.616852,
      "geocoding_level": null,
      "phone": "",
      "license_no": "岡山県指令備北保第350022号",
      "license_date": "2023-06-19",
      "expire_date": "2028-09-30"
    },
    {
      "name": "南風食彩よしたか　初庵",
      "name_kana": "ナンプウショクサイヨシタカ　ウイアン",
      "business_type": "① 飲食店営業",
      "address": "岡山県高梁市旭町1336-1",
      "lat": 34.789205,
      "lng": 133.614687,
      "geocoding_level": null,
      "phone": "",
      "license_no": "岡山県指令備北保第370030号",
      "license_date": "2025-10-21",
      "expire_date": "2031-09-30"
    },
    {
      "name": "公共の宿　神原荘",
      "name_kana": "コウキョウノヤド　コウバラソウ",
      "business_type": "① 飲食店営業",
      "address": "岡山県高梁市松原町神原２２８１－３",
      "lat": 34.811034,
      "lng": 133.592652,
      "geocoding_level": null,
      "phone": "0866-22-0135",
      "license_no": "岡山県指令備北保第330065号",
      "license_date": "2022-02-14",
      "expire_date": "2027-09-30"
    },
    {
      "name": "スカウト７",
      "name_kana": "スカウトセブン",
      "business_type": "① 飲食店営業",
      "address": "岡山県高梁市有漢町上有漢8830",
      "lat": 34.913445,
      "lng": 133.693835,
      "geocoding_level": null,
      "phone": "",
      "license_no": "岡山県指令備北保第330068号",
      "license_date": "2022-03-10",
      "expire_date": "2027-12-31"
    },
    {
      "name": "松栄館",
      "name_kana": "ショウエイカン",
      "business_type": "① 飲食店営業",
      "address": "岡山県高梁市成羽町吹屋３００",
      "lat": 34.861446,
      "lng": 133.469953,
      "geocoding_level": null,
      "phone": "0866-29-9007",
      "license_no": "岡山県指令備北保第280007号",
      "license_date": "2022-03-22",
      "expire_date": "2028-03-31"
    },
    {
      "name": "金子や",
      "name_kana": "カネコヤ",
      "business_type": "① 飲食店営業",
      "address": "岡山県高梁市成羽町吹屋８８５",
      "lat": 34.859613,
      "lng": 133.471826,
      "geocoding_level": null,
      "phone": "",
      "license_no": "岡山県指令備北保第220031号",
      "license_date": "2022-03-22",
      "expire_date": "2028-03-31"
    },
    {
      "name": "就労継続支援Ａ型　やまなみ",
      "name_kana": "シュウロウケイゾクシエンエーガタ　ヤマナミ",
      "business_type": "① 飲食店営業",
      "address": "岡山県高梁市中原町１４７２－３",
      "lat": 34.785455,
      "lng": 133.612158,
      "geocoding_level": null,
      "phone": "0866-21-2320",
      "license_no": "岡山県指令備北保第330071号",
      "license_date": "2022-03-22",
      "expire_date": "2027-09-30"
    },
    {
      "name": "須山豆富店",
      "name_kana": "スヤマトウフテン",
      "business_type": "㉕ そうざい製造業",
      "address": "岡山県高梁市原田北町１２１４－１４",
      "lat": 34.786039,
      "lng": 133.616021,
      "geocoding_level": null,
      "phone": "0866-22-2257",
      "license_no": "岡山県指令備北保第330073号",
      "license_date": "2022-03-22",
      "expire_date": "2027-09-30"
    },
    {
      "name": "須山豆富店",
      "name_kana": "スヤマトウフテン",
      "business_type": "㉒ 豆腐製造業",
      "address": "岡山県高梁市原田北町１２１４－１４",
      "lat": 34.786039,
      "lng": 133.616021,
      "geocoding_level": null,
      "phone": "0866-22-2257",
      "license_no": "岡山県指令備北保第330072号",
      "license_date": "2022-03-22",
      "expire_date": "2027-09-30"
    },
    {
      "name": "赤城旅館",
      "name_kana": "アカギリョカン",
      "business_type": "① 飲食店営業",
      "address": "岡山県高梁市段町７８９",
      "lat": 34.779806,
      "lng": 133.602335,
      "geocoding_level": null,
      "phone": "0866-22-3241",
      "license_no": "090484",
      "license_date": "2021-09-01",
      "expire_date": "2027-09-30"
    },
    {
      "name": "臥牛",
      "name_kana": "ガギュウ",
      "business_type": "① 飲食店営業",
      "address": "岡山県高梁市南町１９４",
      "lat": 34.791486,
      "lng": 133.614864,
      "geocoding_level": null,
      "phone": "0866-22-0202",
      "license_no": "岡山県指令備北保第090488号",
      "license_date": "2021-09-01",
      "expire_date": "2027-09-30"
    },
    {
      "name": "ほっともっと高梁落合店",
      "name_kana": "ホットモットタカハシオチアイテン",
      "business_type": "① 飲食店営業",
      "address": "岡山県高梁市落合町阿部１１８９－１",
      "lat": 34.780988,
      "lng": 133.584719,
      "geocoding_level": null,
      "phone": "0866-21-3722",
      "license_no": "岡山県指令備北保第210094号",
      "license_date": "2021-09-01",
      "expire_date": "2027-09-30"
    },
    {
      "name": "おらがそば",
      "name_kana": "オラガソバ",
      "business_type": "① 飲食店営業",
      "address": "岡山県高梁市南町１８２",
      "lat": 34.792227,
      "lng": 133.615089,
      "geocoding_level": null,
      "phone": "0866-22-5322",
      "license_no": "090406",
      "license_date": "2021-09-01",
      "expire_date": "2027-09-30"
    },
    {
      "name": "セブン－イレブン高梁市役所前店",
      "name_kana": "セブンイレブンタカハシシヤクショマエテン",
      "business_type": "① 飲食店営業",
      "address": "岡山県高梁市正宗町２０３８－８",
      "lat": 34.790802,
      "lng": 133.617339,
      "geocoding_level": null,
      "phone": "0866-22-3477",
      "license_no": "岡山県指令備北保第270110号",
      "license_date": "2021-09-06",
      "expire_date": "2027-09-30"
    },
    {
      "name": "富家食堂",
      "name_kana": "フウカショクドウ",
      "business_type": "① 飲食店営業",
      "address": "岡山県高梁市旭町１３１７－１４",
      "lat": 34.788417,
      "lng": 133.615539,
      "geocoding_level": null,
      "phone": "0866-22-2429",
      "license_no": "岡山県指令備北保第090424号",
      "license_date": "2021-09-06",
      "expire_date": "2027-09-30"
    },
    {
      "name": "上野牧場",
      "name_kana": "ウエノボクジョウ",
      "business_type": "③ 食肉販売業",
      "address": "岡山県高梁市正宗町１９６７－１",
      "lat": 34.789783,
      "lng": 133.617189,
      "geocoding_level": null,
      "phone": "0866-22-2666",
      "license_no": "岡山県指令備北保第090473号",
      "license_date": "2021-09-06",
      "expire_date": "2027-09-30"
    },
    {
      "name": "雲白（くもじろ）",
      "name_kana": "クモジロ",
      "business_type": "① 飲食店営業",
      "address": "岡山県高梁市津川町今津１８１１－１",
      "lat": 34.829605,
      "lng": 133.630184,
      "geocoding_level": null,
      "phone": "0866-22-9222",
      "license_no": "岡山県指令備北保第290022号",
      "license_date": "2022-06-06",
      "expire_date": "2028-06-30"
    },
    {
      "name": "本家かまどや高梁店",
      "name_kana": "ホンケカマドヤタカハシテン",
      "business_type": "① 飲食店営業",
      "address": "岡山県高梁市中間町７６",
      "lat": 34.794528,
      "lng": 133.614564,
      "geocoding_level": null,
      "phone": "0866-22-8333",
      "license_no": "岡山県指令備北保第220080号",
      "license_date": "2022-06-06",
      "expire_date": "2028-06-30"
    },
    {
      "name": "宮前商店",
      "name_kana": "ミヤマエショウテン",
      "business_type": "① 飲食店営業",
      "address": "岡山県高梁市宇治町宇治１６７０－１",
      "lat": 34.826959,
      "lng": 133.49167,
      "geocoding_level": null,
      "phone": "0866-29-2035",
      "license_no": "岡山県指令備北保第220074号",
      "license_date": "2022-06-06",
      "expire_date": "2028-06-30"
    },
    {
      "name": "さつき",
      "name_kana": "サツキ",
      "business_type": "① 飲食店営業",
      "address": "岡山県高梁市成羽町下原７２９",
      "lat": 34.783218,
      "lng": 133.543175,
      "geocoding_level": null,
      "phone": "0866-42-2588",
      "license_no": "岡山県指令備北保第280089号",
      "license_date": "2022-06-06",
      "expire_date": "2028-06-30"
    },
    {
      "name": "笹部精肉本店",
      "name_kana": "ササベセイニクホンテン",
      "business_type": "③ 食肉販売業",
      "address": "岡山県高梁市成羽町下原１０９７",
      "lat": 34.79357,
      "lng": 133.533259,
      "geocoding_level": null,
      "phone": "0866-42-2102",
      "license_no": "岡山県指令備北保第070032号",
      "license_date": "2022-06-06",
      "expire_date": "2028-06-30"
    },
    {
      "name": "笹部精肉本店",
      "name_kana": "ササベセイニクホンテン",
      "business_type": "① 飲食店営業",
      "address": "岡山県高梁市県内一円",
      "lat": 34.791037,
      "lng": 133.616852,
      "geocoding_level": null,
      "phone": "",
      "license_no": "岡山県指令備北保第340026号",
      "license_date": "2022-06-29",
      "expire_date": "2027-06-30"
    },
    {
      "name": "カフェドサンライズ",
      "name_kana": "カフェドサンライズ",
      "business_type": "① 飲食店営業",
      "address": "岡山県高梁市津川町今津８９４－１",
      "lat": 34.824992,
      "lng": 133.616382,
      "geocoding_level": null,
      "phone": "0866-22-0084",
      "license_no": "岡山県指令備北保第070297号",
      "license_date": "2022-06-06",
      "expire_date": "2028-06-30"
    },
    {
      "name": "台湾料理　天福",
      "name_kana": "タイワンリョウリ　テンプク",
      "business_type": "① 飲食店営業",
      "address": "岡山県高梁市正宗町１９６７ー１",
      "lat": 34.789783,
      "lng": 133.617189,
      "geocoding_level": null,
      "phone": "0866-56-3268",
      "license_no": "岡山県指令備北保第270132号",
      "license_date": "2021-09-06",
      "expire_date": "2027-09-30"
    },
    {
      "name": "市川鮮魚店",
      "name_kana": "イチカワセンギョテン",
      "business_type": "④ 魚介類販売業",
      "address": "岡山県高梁市成羽町下原２２１－１",
      "lat": 34.784471,
      "lng": 133.548114,
      "geocoding_level": null,
      "phone": "0866-42-2314",
      "license_no": "岡山県指令備北保第070038号",
      "license_date": "2022-06-08",
      "expire_date": "2028-06-30"
    },
    {
      "name": "土井鮮魚店",
      "name_kana": "ドイセンギョテン",
      "business_type": "④ 魚介類販売業",
      "address": "岡山県高梁市鍜冶町73",
      "lat": 34.793556,
      "lng": 133.616055,
      "geocoding_level": null,
      "phone": "0866-22-4052",
      "license_no": "岡山県指令備北保第100070号",
      "license_date": "2022-06-08",
      "expire_date": "2028-06-30"
    },
    {
      "name": "VicchuNut　ヴィッチュナッツ",
      "name_kana": "ヴィッチュナッツ",
      "business_type": "① 飲食店営業",
      "address": "岡山県高梁市県内一円",
      "lat": 34.791037,
      "lng": 133.616852,
      "geocoding_level": null,
      "phone": "",
      "license_no": "岡山県指令備北保第360041号",
      "license_date": "2024-08-07",
      "expire_date": "2029-12-31"
    },
    {
      "name": "ヴィッチュ　ナッツ",
      "name_kana": "ヴィッチュ　ナッツ",
      "business_type": "① 飲食店営業",
      "address": "岡山県高梁市備中町布瀬１８－１",
      "lat": 34.781526,
      "lng": 133.468512,
      "geocoding_level": null,
      "phone": "0866-45-3154",
      "license_no": "岡山県指令備北保第240100号",
      "license_date": "2024-12-18",
      "expire_date": "2030-12-31"
    },
    {
      "name": "有限会社岡﨑商店",
      "name_kana": "ユウゲンガイシャオカザキショウテン",
      "business_type": "㉒ 豆腐製造業",
      "address": "岡山県高梁市川面町８８０",
      "lat": 34.847905,
      "lng": 133.598246,
      "geocoding_level": null,
      "phone": "0866-26-0053",
      "license_no": "岡山県指令備北保第070288号",
      "license_date": "2022-06-08",
      "expire_date": "2028-06-30"
    },
    {
      "name": "有限会社岡﨑商店",
      "name_kana": "ユウゲンガイシャオカザキショウテン",
      "business_type": "㉕ そうざい製造業",
      "address": "岡山県高梁市川面町８８０",
      "lat": 34.847905,
      "lng": 133.598246,
      "geocoding_level": null,
      "phone": "0866-26-0053",
      "license_no": "岡山県指令備北保第160062号",
      "license_date": "2022-06-08",
      "expire_date": "2028-06-30"
    },
    {
      "name": "フレッシュストアーかわかみ",
      "name_kana": "フレッシュストアーカワカミ",
      "business_type": "① 飲食店営業",
      "address": "岡山県高梁市鍜冶町５３",
      "lat": 34.794618,
      "lng": 133.616264,
      "geocoding_level": null,
      "phone": "0866-22-2569",
      "license_no": "岡山県指令備北保第070253号",
      "license_date": "2022-06-22",
      "expire_date": "2028-06-30"
    },
    {
      "name": "シャトー",
      "name_kana": "シャトー",
      "business_type": "① 飲食店営業",
      "address": "岡山県高梁市頼久寺町１３－１１",
      "lat": 34.796556,
      "lng": 133.618652,
      "geocoding_level": null,
      "phone": "0866-22-1008",
      "license_no": "岡山県指令備北保第070263号",
      "license_date": "2022-06-22",
      "expire_date": "2028-06-30"
    },
    {
      "name": "青柳",
      "name_kana": "アオヤギ",
      "business_type": "⑪ 菓子製造業",
      "address": "岡山県高梁市鍛冶町１０１",
      "lat": 34.796323,
      "lng": 133.616947,
      "geocoding_level": null,
      "phone": "0866-22-3322",
      "license_no": "岡山県指令備北保第070269号",
      "license_date": "2022-06-22",
      "expire_date": "2028-06-30"
    },
    {
      "name": "松岡商店",
      "name_kana": "マツオカショウテン",
      "business_type": "① 飲食店営業",
      "address": "岡山県高梁市県内一円",
      "lat": 34.791037,
      "lng": 133.616852,
      "geocoding_level": null,
      "phone": "",
      "license_no": "岡山県指令備北保第280038号",
      "license_date": "2022-06-28",
      "expire_date": "2028-06-30"
    },
    {
      "name": "魚清",
      "name_kana": "ウオセイ",
      "business_type": "① 飲食店営業",
      "address": "岡山県高梁市成羽町下原９２７－１",
      "lat": 34.782959,
      "lng": 133.541407,
      "geocoding_level": null,
      "phone": "0866-42-2067",
      "license_no": "岡山県指令備北保第070016号",
      "license_date": "2022-06-28",
      "expire_date": "2028-06-30"
    },
    {
      "name": "魚清",
      "name_kana": "ウオセイ",
      "business_type": "④ 魚介類販売業",
      "address": "岡山県高梁市成羽町下原９２７－１",
      "lat": 34.782959,
      "lng": 133.541407,
      "geocoding_level": null,
      "phone": "0866-42-2078",
      "license_no": "岡山県指令備北保第300018号",
      "license_date": "2023-06-21",
      "expire_date": "2029-06-30"
    },
    {
      "name": "有限会社　パンドミ",
      "name_kana": "ユウゲンガイシャ　パンドミ",
      "business_type": "③ 乳類販売業",
      "address": "岡山県高梁市津川町八川２６１－１",
      "lat": 34.842478,
      "lng": 133.632095,
      "geocoding_level": null,
      "phone": "",
      "license_no": "",
      "license_date": null,
      "expire_date": null
    },
    {
      "name": "有限会社　パンドミ",
      "name_kana": "ユウゲンガイシャ　パンドミ",
      "business_type": "⑪ 菓子製造業",
      "address": "岡山県高梁市津川町八川２６１－１",
      "lat": 34.842478,
      "lng": 133.632095,
      "geocoding_level": null,
      "phone": "",
      "license_no": "岡山県指令備北保第350045号",
      "license_date": "2023-08-31",
      "expire_date": "2029-06-30"
    },
    {
      "name": "（有）パンドミ",
      "name_kana": "ユウパンドミ",
      "business_type": "① 飲食店営業",
      "address": "岡山県高梁市津川町八川261-1",
      "lat": 34.842478,
      "lng": 133.632095,
      "geocoding_level": null,
      "phone": "0866-22-8013",
      "license_no": "岡山県指令備北保第360010号",
      "license_date": "2024-05-07",
      "expire_date": "2029-06-30"
    },
    {
      "name": "（有）パンドミ",
      "name_kana": "ユウゲンガイシャパンドミ",
      "business_type": "⑫ 自動販売機による販売業（コップ式自動販売機（自動洗浄・屋内設置）及び営業許可の対象となる自動販売機を除く）",
      "address": "岡山県高梁市津川町八川２６１－１",
      "lat": 34.842478,
      "lng": 133.632095,
      "geocoding_level": null,
      "phone": "0866228013",
      "license_no": "",
      "license_date": null,
      "expire_date": null
    },
    {
      "name": "天任堂",
      "name_kana": "テンニンドウ",
      "business_type": "⑪ 菓子製造業",
      "address": "岡山県高梁市東町１８７７",
      "lat": 34.792543,
      "lng": 133.615773,
      "geocoding_level": null,
      "phone": "0866-22-2538",
      "license_no": "岡山県指令備北保第070380号",
      "license_date": "2022-09-12",
      "expire_date": "2028-09-30"
    },
    {
      "name": "画廊＆喫茶＆舶来品の店　パレット",
      "name_kana": "ガロウキッサハクライノミセパレット",
      "business_type": "① 飲食店営業",
      "address": "岡山県高梁市旭町１３９０",
      "lat": 34.788,
      "lng": 133.614674,
      "geocoding_level": null,
      "phone": "0866-22-0372",
      "license_no": "岡山県指令備北保第070409号",
      "license_date": "2022-09-12",
      "expire_date": "2028-09-30"
    },
    {
      "name": "スターバックスコーヒー蔦屋書店高梁市図書館店",
      "name_kana": "スターバックスコーヒーツタヤショテンタカハシシトショカンテン",
      "business_type": "① 飲食店営業",
      "address": "岡山県高梁市旭町１３０６ 高梁市複合施設２Ｆ",
      "lat": 34.788968,
      "lng": 133.616588,
      "geocoding_level": null,
      "phone": "0866-21-1313",
      "license_no": "岡山県指令備北保第280105号",
      "license_date": "2022-09-12",
      "expire_date": "2028-09-30"
    },
    {
      "name": "白龍",
      "name_kana": "ハクリュウ",
      "business_type": "① 飲食店営業",
      "address": "岡山県高梁市川上町領家１３７４－１",
      "lat": 34.757638,
      "lng": 133.490957,
      "geocoding_level": null,
      "phone": "0866-48-4089",
      "license_no": "岡山県指令備北保第070094号",
      "license_date": "2022-09-16",
      "expire_date": "2028-09-30"
    },
    {
      "name": "惣菜ＢＡＲなるせ",
      "name_kana": "ソウザイバーナルセ",
      "business_type": "① 飲食店営業",
      "address": "岡山県高梁市正宗町１９６３－３６",
      "lat": 34.790331,
      "lng": 133.616753,
      "geocoding_level": null,
      "phone": "0866-22-8225",
      "license_no": "岡山県指令備北保第160092号",
      "license_date": "2022-09-16",
      "expire_date": "2028-09-30"
    },
    {
      "name": "ＧＡＴＴＯ　ＬＩＢＥＲＯ",
      "name_kana": "ガットリベロ",
      "business_type": "① 飲食店営業",
      "address": "岡山県高梁市旭町１３０６ 高梁市複合施設１階",
      "lat": 34.788958,
      "lng": 133.616467,
      "geocoding_level": null,
      "phone": "0866-21-2788",
      "license_no": "岡山県指令備北保第280103号",
      "license_date": "2022-09-16",
      "expire_date": "2028-09-30"
    },
    {
      "name": "パインツリーゴルフクラブクラブハウス",
      "name_kana": "パインツリーゴルフクラブクラブハウス",
      "business_type": "① 飲食店営業",
      "address": "岡山県高梁市松原町神原２２４６",
      "lat": 34.805048,
      "lng": 133.592989,
      "geocoding_level": null,
      "phone": "0866-22-6111",
      "license_no": "岡山県指令備北保第070332号",
      "license_date": "2022-09-20",
      "expire_date": "2028-09-30"
    },
    {
      "name": "パインツリーゴルフクラブアウトコ－ス売店",
      "name_kana": "パインツリーゴルフクラブアウトコースバイテン",
      "business_type": "① 飲食店営業",
      "address": "岡山県高梁市松原町神原２２４６",
      "lat": 34.809147,
      "lng": 133.590366,
      "geocoding_level": null,
      "phone": "0866-22-6111",
      "license_no": "岡山県指令備北保第070331号",
      "license_date": "2022-09-20",
      "expire_date": "2028-09-30"
    },
    {
      "name": "パインツリーゴルフクラブインコース売店",
      "name_kana": "パインツリーゴルフクラブインコースバイテン",
      "business_type": "① 飲食店営業",
      "address": "岡山県高梁市松原町神原２２４６",
      "lat": 34.809147,
      "lng": 133.590366,
      "geocoding_level": null,
      "phone": "0866-22-6111",
      "license_no": "岡山県指令備北保第070318号",
      "license_date": "2022-09-20",
      "expire_date": "2028-09-30"
    },
    {
      "name": "ゆめタウン高梁",
      "name_kana": "ユメタウンタカハシ",
      "business_type": "④ 魚介類販売業",
      "address": "岡山県高梁市落合町阿部１７００",
      "lat": 34.777411,
      "lng": 133.58773,
      "geocoding_level": null,
      "phone": "0866-22-7700",
      "license_no": "岡山県指令備北保第070427号",
      "license_date": "2022-09-20",
      "expire_date": "2028-09-30"
    },
    {
      "name": "ゆめタウン高梁",
      "name_kana": "ユメタウンタカハシ",
      "business_type": "③ 食肉販売業",
      "address": "岡山県高梁市落合町阿部１７００",
      "lat": 34.777411,
      "lng": 133.58773,
      "geocoding_level": null,
      "phone": "0866-22-7700",
      "license_no": "岡山県指令備北保第070426号",
      "license_date": "2022-09-20",
      "expire_date": "2028-09-30"
    },
    {
      "name": "ゆめタウン高梁",
      "name_kana": "ユメタウンタカハシ",
      "business_type": "① 飲食店営業",
      "address": "岡山県高梁市落合町阿部１７００",
      "lat": 34.777411,
      "lng": 133.58773,
      "geocoding_level": null,
      "phone": "0866227700",
      "license_no": "岡山県指令備北保第070423号",
      "license_date": "2022-09-20",
      "expire_date": "2028-09-30"
    },
    {
      "name": "ゆめタウン高梁",
      "name_kana": "ユメタウンタカハシ",
      "business_type": "① 飲食店営業",
      "address": "岡山県高梁市落合町阿部１７００",
      "lat": 34.777411,
      "lng": 133.58773,
      "geocoding_level": null,
      "phone": "0866-22-7700",
      "license_no": "岡山県指令備北保第070422号",
      "license_date": "2022-09-20",
      "expire_date": "2028-09-30"
    },
    {
      "name": "ゆめタウン高梁",
      "name_kana": "ユメタウンタカハシ",
      "business_type": "① 飲食店営業",
      "address": "岡山県高梁市落合町阿部１７００",
      "lat": 34.777411,
      "lng": 133.58773,
      "geocoding_level": null,
      "phone": "0866227700",
      "license_no": "岡山県指令備北保第090397号",
      "license_date": "2021-09-09",
      "expire_date": "2027-09-30"
    },
    {
      "name": "ゆめタウン高梁",
      "name_kana": "ユメタウンタカハシ",
      "business_type": "③ 乳類販売業",
      "address": "岡山県高梁市落合町阿部１７００",
      "lat": 34.777411,
      "lng": 133.58773,
      "geocoding_level": null,
      "phone": "",
      "license_no": "",
      "license_date": null,
      "expire_date": null
    },
    {
      "name": "ゆめタウン高梁",
      "name_kana": "ユメタウンタカハシ",
      "business_type": "① 飲食店営業",
      "address": "岡山県高梁市落合町阿部１７００",
      "lat": 34.777411,
      "lng": 133.58773,
      "geocoding_level": null,
      "phone": "0866227700",
      "license_no": "岡山県指令備北保第160033号",
      "license_date": "2021-09-09",
      "expire_date": "2027-09-30"
    },
    {
      "name": "ゆめタウン高梁",
      "name_kana": "ユメタウンタカハシ",
      "business_type": "⑫ 自動販売機による販売業（コップ式自動販売機（自動洗浄・屋内設置）及び営業許可の対象となる自動販売機を除く）",
      "address": "岡山県高梁市落合町阿部１７００",
      "lat": 34.777411,
      "lng": 133.58773,
      "geocoding_level": null,
      "phone": "0866-22-7700",
      "license_no": "",
      "license_date": null,
      "expire_date": null
    },
    {
      "name": "不二家　ゆめタウン高梁",
      "name_kana": "フジヤ　ユメタウンタカハシ",
      "business_type": "① 飲食店営業",
      "address": "岡山県高梁市落合町阿部１７００",
      "lat": 34.77741,
      "lng": 133.587724,
      "geocoding_level": null,
      "phone": "0866-22-7700",
      "license_no": "岡山県指令備北保第370056号",
      "license_date": "2026-03-10",
      "expire_date": "2031-09-30"
    },
    {
      "name": "",
      "name_kana": "",
      "business_type": "④ 魚介類販売業",
      "address": "岡山県高梁市県内一円",
      "lat": 34.791037,
      "lng": 133.616852,
      "geocoding_level": null,
      "phone": "",
      "license_no": "岡山県指令備北保第230051号",
      "license_date": "2022-09-21",
      "expire_date": "2028-09-30"
    },
    {
      "name": "有限会社魚富",
      "name_kana": "ユウゲンガイシャウオトミ",
      "business_type": "① 飲食店営業",
      "address": "岡山県高梁市県内一円",
      "lat": 34.791037,
      "lng": 133.616852,
      "geocoding_level": null,
      "phone": "",
      "license_no": "岡山県指令備北保第340014号",
      "license_date": "2022-05-24",
      "expire_date": "2027-06-30"
    },
    {
      "name": "魚富",
      "name_kana": "ウオトミ",
      "business_type": "① 飲食店営業",
      "address": "岡山県高梁市鍜冶町１０６",
      "lat": 34.793647,
      "lng": 133.615811,
      "geocoding_level": null,
      "phone": "0866-22-0365",
      "license_no": "岡山県指令備北保第180011号",
      "license_date": "2023-06-09",
      "expire_date": "2029-06-30"
    },
    {
      "name": "ペルソナ",
      "name_kana": "ペルソナ",
      "business_type": "④ 魚介類販売業",
      "address": "岡山県高梁市川上町地頭１７９１－１",
      "lat": 34.737016,
      "lng": 133.485299,
      "geocoding_level": null,
      "phone": "0866-48-3678",
      "license_no": "岡山県指令備北保第070076号",
      "license_date": "2022-09-21",
      "expire_date": "2028-09-30"
    },
    {
      "name": "ペルソナ",
      "name_kana": "ペルソナ",
      "business_type": "① 飲食店営業",
      "address": "岡山県高梁市川上町地頭１７９１－１",
      "lat": 34.737016,
      "lng": 133.485299,
      "geocoding_level": null,
      "phone": "0866-48-3678",
      "license_no": "岡山県指令備北保第070051号",
      "license_date": "2022-09-21",
      "expire_date": "2028-09-30"
    },
    {
      "name": "セブン－イレブン高梁成羽町店",
      "name_kana": "セブンイレブンタカハシナリワチョウテン",
      "business_type": "① 飲食店営業",
      "address": "岡山県高梁市成羽町下原１１２８－１",
      "lat": 34.781141,
      "lng": 133.538451,
      "geocoding_level": null,
      "phone": "0866-42-5066",
      "license_no": "岡山県指令備北保第340018号",
      "license_date": "2022-05-27",
      "expire_date": "2027-06-30"
    },
    {
      "name": "セブンーイレブン高梁成羽町店",
      "name_kana": "セブンイレブンタカハシナリワチョウテン",
      "business_type": "⑩ コンビニエンスストア",
      "address": "岡山県高梁市成羽町下原１１２８－１",
      "lat": 34.781141,
      "lng": 133.538451,
      "geocoding_level": null,
      "phone": "",
      "license_no": "",
      "license_date": null,
      "expire_date": null
    },
    {
      "name": "セブンーイレブン高梁成羽町東店",
      "name_kana": "セブンーイレブンタカハシナリワヒガシテン",
      "business_type": "① 飲食店営業",
      "address": "岡山県高梁市成羽町下原２５４",
      "lat": 34.782924,
      "lng": 133.549109,
      "geocoding_level": null,
      "phone": "0866-42-4268",
      "license_no": "岡山県指令備北保第340019号",
      "license_date": "2022-05-30",
      "expire_date": "2027-06-30"
    },
    {
      "name": "ポルカ食品館",
      "name_kana": "ポルカショクヒンカン",
      "business_type": "① 飲食店営業",
      "address": "岡山県高梁市中原町１０８４－１",
      "lat": 34.783358,
      "lng": 133.610696,
      "geocoding_level": null,
      "phone": "0866-22-0808",
      "license_no": "岡山県指令備北保第270093号",
      "license_date": "2021-09-08",
      "expire_date": "2027-09-30"
    },
    {
      "name": "ポルカ食品館",
      "name_kana": "ポルカショクヒンカン",
      "business_type": "㉕ そうざい製造業",
      "address": "岡山県高梁市中原町１０８４－１",
      "lat": 34.783358,
      "lng": 133.610696,
      "geocoding_level": null,
      "phone": "0866-22-0808",
      "license_no": "岡山県指令備北保第270091号",
      "license_date": "2021-09-08",
      "expire_date": "2027-09-30"
    },
    {
      "name": "ポルカ食品館",
      "name_kana": "ポルカショクヒンカン",
      "business_type": "① 飲食店営業",
      "address": "岡山県高梁市中原町１０８４－１",
      "lat": 34.783358,
      "lng": 133.610696,
      "geocoding_level": null,
      "phone": "0866-22-0808",
      "license_no": "岡山県指令備北保第270090号",
      "license_date": "2021-09-09",
      "expire_date": "2027-09-30"
    },
    {
      "name": "ポルカ食品館",
      "name_kana": "ポルカショクヒンカン",
      "business_type": "① 飲食店営業",
      "address": "岡山県高梁市中原町１０８４－１",
      "lat": 34.783358,
      "lng": 133.610696,
      "geocoding_level": null,
      "phone": "0866-22-0808",
      "license_no": "岡山県指令備北保第270092号",
      "license_date": "2021-09-09",
      "expire_date": "2027-09-30"
    },
    {
      "name": "すわき後楽中華そば高梁店",
      "name_kana": "スワキコウラクチュウカソバタカハシテン",
      "business_type": "① 飲食店営業",
      "address": "岡山県高梁市中原町１０８４－１",
      "lat": 34.783358,
      "lng": 133.610696,
      "geocoding_level": null,
      "phone": "0866-22-8339",
      "license_no": "岡山県指令備北保第270077号",
      "license_date": "2021-09-08",
      "expire_date": "2027-09-30"
    },
    {
      "name": "キャッスルゴルフガーデン",
      "name_kana": "キャッスルゴルフガーデン",
      "business_type": "① 飲食店営業",
      "address": "岡山県高梁市落合町阿部１８４１－１",
      "lat": 34.776576,
      "lng": 133.585338,
      "geocoding_level": null,
      "phone": "0866-22-2225",
      "license_no": "岡山県指令備北保第150071号",
      "license_date": "2021-09-08",
      "expire_date": "2027-09-30"
    },
    {
      "name": "広間",
      "name_kana": "ヒロマ",
      "business_type": "① 飲食店営業",
      "address": "岡山県高梁市下谷町５０４２",
      "lat": 34.783978,
      "lng": 133.616199,
      "geocoding_level": null,
      "phone": "0866-22-9005",
      "license_no": "岡山県指令備北保第090459号",
      "license_date": "2021-09-08",
      "expire_date": "2027-09-30"
    },
    {
      "name": "ハーティフーズ　夢風船",
      "name_kana": "ハーティフーズ　ユメフウセン",
      "business_type": "① 飲食店営業",
      "address": "岡山県高梁市落合町阿部１７００",
      "lat": 34.777411,
      "lng": 133.58773,
      "geocoding_level": null,
      "phone": "",
      "license_no": "岡山県指令備北保第340031号",
      "license_date": "2022-07-26",
      "expire_date": "2027-09-30"
    },
    {
      "name": "夢風船正面",
      "name_kana": "ユメフウセンショウメン",
      "business_type": "① 飲食店営業",
      "address": "岡山県高梁市落合町阿部１７００",
      "lat": 34.777411,
      "lng": 133.58773,
      "geocoding_level": null,
      "phone": "0866-22-8877",
      "license_no": "岡山県指令備北保第100011号",
      "license_date": "2021-09-28",
      "expire_date": "2027-09-30"
    },
    {
      "name": "藤原商事",
      "name_kana": "フジワラショウジ",
      "business_type": "① 飲食店営業",
      "address": "岡山県高梁市（県内一円）",
      "lat": 34.791037,
      "lng": 133.616852,
      "geocoding_level": null,
      "phone": "0866-22-8877",
      "license_no": "岡山県指令備北保第100012号",
      "license_date": "2021-09-28",
      "expire_date": "2027-09-30"
    },
    {
      "name": "",
      "name_kana": "",
      "business_type": "㉙ 漬物製造業",
      "address": "岡山県高梁市川上町地頭１００７",
      "lat": 34.791037,
      "lng": 133.616852,
      "geocoding_level": null,
      "phone": "0866-48-3735",
      "license_no": "岡山県指令備北保第340036号",
      "license_date": "2022-08-25",
      "expire_date": "2027-09-30"
    },
    {
      "name": "花水木",
      "name_kana": "ハナミズキ",
      "business_type": "① 飲食店営業",
      "address": "岡山県高梁市備中町平川３１－１",
      "lat": 34.797075,
      "lng": 133.397018,
      "geocoding_level": null,
      "phone": "",
      "license_no": "岡山県指令備北保第330075号",
      "license_date": "2022-03-23",
      "expire_date": "2027-12-31"
    },
    {
      "name": "焼肉　佐々奈美",
      "name_kana": "ヤキニク　サザナミ",
      "business_type": "① 飲食店営業",
      "address": "岡山県高梁市段町８４９－１",
      "lat": 34.780779,
      "lng": 133.607689,
      "geocoding_level": null,
      "phone": "0866-22-3373",
      "license_no": "岡山県指令備北保第090495号",
      "license_date": "2021-09-08",
      "expire_date": "2027-09-30"
    },
    {
      "name": "味や家",
      "name_kana": "ミヤケ",
      "business_type": "① 飲食店営業",
      "address": "岡山県高梁市栄町１９０４",
      "lat": 34.79134,
      "lng": 133.615655,
      "geocoding_level": null,
      "phone": "",
      "license_no": "岡山県指令備北保第340052号",
      "license_date": "2022-10-27",
      "expire_date": "2028-09-30"
    },
    {
      "name": "ポルカフードコート",
      "name_kana": "ポルカフードコート",
      "business_type": "① 飲食店営業",
      "address": "岡山県高梁市中原町１０８４－１",
      "lat": 34.783358,
      "lng": 133.610696,
      "geocoding_level": null,
      "phone": "0866-22-3200",
      "license_no": "岡山県指令備北保第270094号",
      "license_date": "2021-09-09",
      "expire_date": "2027-09-30"
    },
    {
      "name": "特定非営利活動法人color",
      "name_kana": "トクテイヒエイリカツドウホウジンカラー",
      "business_type": "① 飲食店営業",
      "address": "岡山県高梁市県内一円",
      "lat": 34.791037,
      "lng": 133.616852,
      "geocoding_level": null,
      "phone": "",
      "license_no": "岡山県指令備北保第340057号",
      "license_date": "2022-11-08",
      "expire_date": "2028-06-30"
    },
    {
      "name": "みずたま・きなり",
      "name_kana": "ミズタマ・キナリ",
      "business_type": "① 飲食店営業",
      "address": "岡山県高梁市和田町２１８３－１",
      "lat": 34.794648,
      "lng": 133.619026,
      "geocoding_level": null,
      "phone": "080-8242-0600",
      "license_no": "岡山県指令備北保第360051号",
      "license_date": "2024-10-24",
      "expire_date": "2030-09-30"
    },