{
  "meta": {
    "updated": 1783568789,
    "sources": [
      {
        "source": "厚生労働省 食品衛生申請等システム（オープンデータ）",
        "license": "公共データ利用規約（第1.0版, PDL1.0）"
      }
    ]
  },
  "data": [
    {
      "name": "カルディコーヒーファーム　三井アウトレットパーク 木更津店",
      "name_kana": "カルディコーヒーファーム　ミツイアウトレットパーク キサラヅテン",
      "business_type": "⑬ その他の食料・飲料販売業",
      "address": "千葉県木更津市金田東3-1-1 三井アウトレットパーク 木更津1F",
      "lat": 35.434582,
      "lng": 139.934927,
      "geocoding_level": null,
      "phone": "0438-40-1350",
      "license_no": "",
      "license_date": null,
      "expire_date": null
    },
    {
      "name": "ダイソー　木更津太田店",
      "name_kana": "ダイソー　キサラヅオオタテン",
      "business_type": "⑬ その他の食料・飲料販売業",
      "address": "千葉県木更津市太田４－１－３３",
      "lat": 35.377994,
      "lng": 139.942279,
      "geocoding_level": null,
      "phone": "",
      "license_no": "",
      "license_date": null,
      "expire_date": null
    },
    {
      "name": "ダイソー　イオンタウン木更津店",
      "name_kana": "ダイソー　イオンタウンキサラヅテン",
      "business_type": "⑬ その他の食料・飲料販売業",
      "address": "千葉県木更津市請西南２－２７－１ イオンタウン木更津店内",
      "lat": 35.3596,
      "lng": 139.944,
      "geocoding_level": null,
      "phone": "",
      "license_no": "",
      "license_date": null,
      "expire_date": null
    },
    {
      "name": "アクトスWill_Gｲｵﾝﾀｳﾝ木更津請西",
      "name_kana": "アクトスウィルジーイオンタウンキサラズジョウザイ",
      "business_type": "⑫ 自動販売機による販売業（コップ式自動販売機（自動洗浄・屋内設置）及び営業許可の対象となる自動販売機を除く）",
      "address": "千葉県木更津市請西南2-27-1 ｲｵﾝﾀｳﾝ木更津請西内",
      "lat": 35.3596,
      "lng": 139.944,
      "geocoding_level": null,
      "phone": "",
      "license_no": "",
      "license_date": null,
      "expire_date": null
    },
    {
      "name": "アミーダアピタ木更津店",
      "name_kana": "アミーダアピタキサラズテン",
      "business_type": "⑫ 自動販売機による販売業（コップ式自動販売機（自動洗浄・屋内設置）及び営業許可の対象となる自動販売機を除く）",
      "address": "千葉県木更津市ほたる野4-2-48 アピタ木更津1階",
      "lat": 35.375868,
      "lng": 139.962807,
      "geocoding_level": null,
      "phone": "",
      "license_no": "",
      "license_date": null,
      "expire_date": null
    },
    {
      "name": "関東日本フード株式会社首都圏第二事業部　木更津営業部",
      "name_kana": "カントウニホンフードカブシキガイシャシュトケンダイニジギョウブキサラヅエイギョウブ",
      "business_type": "⑬ その他の食料・飲料販売業",
      "address": "千葉県木更津市潮見五丁目６番地５",
      "lat": 35.367286,
      "lng": 139.913698,
      "geocoding_level": null,
      "phone": "0438-36-6200",
      "license_no": "",
      "license_date": null,
      "expire_date": null
    },
    {
      "name": "有限会社　中川海苔店　木更津営業所",
      "name_kana": "ユウゲンガイシャナカガワノリテンキサラヅエイギョウショ",
      "business_type": "⑬ その他の食料・飲料販売業",
      "address": "千葉県木更津市請西２－５－２２",
      "lat": 35.374693,
      "lng": 139.941931,
      "geocoding_level": null,
      "phone": "",
      "license_no": "",
      "license_date": null,
      "expire_date": null
    },
    {
      "name": "有限会社　中川海苔店　木更津営業所",
      "name_kana": "ユウゲンガイシャナカガワノリテンキサラヅエイギョウショ",
      "business_type": "㉒ 海藻製造・加工業",
      "address": "千葉県木更津市請西２－５－２２",
      "lat": 35.374693,
      "lng": 139.941931,
      "geocoding_level": null,
      "phone": "",
      "license_no": "",
      "license_date": null,
      "expire_date": null
    },
    {
      "name": "サニーライフ木更津",
      "name_kana": "サニーライフキサラヅ",
      "business_type": "㉖ 集団給食施設",
      "address": "千葉県木更津市請西東５－２２－４",
      "lat": 35.366086,
      "lng": 139.949141,
      "geocoding_level": null,
      "phone": "0438-36-3600",
      "license_no": "",
      "license_date": null,
      "expire_date": null
    },
    {
      "name": "イオンモール木更津",
      "name_kana": "キサラズ",
      "business_type": "⑬ その他の食料・飲料販売業",
      "address": "千葉県木更津市築地1-4",
      "lat": 35.363876,
      "lng": 139.909542,
      "geocoding_level": null,
      "phone": "",
      "license_no": "",
      "license_date": null,
      "expire_date": null
    },
    {
      "name": "イオンモール木更津",
      "name_kana": "キサラズ",
      "business_type": "⑬ その他の食料・飲料販売業",
      "address": "千葉県木更津市築地1-4",
      "lat": 35.363876,
      "lng": 139.909542,
      "geocoding_level": null,
      "phone": "",
      "license_no": "",
      "license_date": null,
      "expire_date": null
    },
    {
      "name": "ジョイフル木更津店",
      "name_kana": "ジョイフルキサラヅテン",
      "business_type": "① 飲食店営業",
      "address": "千葉県木更津市請西南５丁目２６－６",
      "lat": 35.358068,
      "lng": 139.94125,
      "geocoding_level": null,
      "phone": "0438-30-6370",
      "license_no": "20220441",
      "license_date": "2022-10-13",
      "expire_date": "2028-11-30"
    },
    {
      "name": "スターバックスコーヒー海ほたるパーキングエリア店",
      "name_kana": "スターバックスコーヒーウミホタルパーキングエリアテン",
      "business_type": "⑬ その他の食料・飲料販売業",
      "address": "千葉県木更津市中島地先 東京湾横断道路海ほたるパーキングエリア",
      "lat": 35.436367,
      "lng": 139.91875,
      "geocoding_level": null,
      "phone": "0438-40-0530",
      "license_no": "",
      "license_date": null,
      "expire_date": null
    },
    {
      "name": "スターバックスコーヒー木更津店",
      "name_kana": "スターバックスコーヒーキサラヅテン",
      "business_type": "⑬ その他の食料・飲料販売業",
      "address": "千葉県木更津市ほたる野1-5-12",
      "lat": 35.376306,
      "lng": 139.961364,
      "geocoding_level": null,
      "phone": "0438-30-5118",
      "license_no": "",
      "license_date": null,
      "expire_date": null
    },
    {
      "name": "スターバックスコーヒーイオンモール木更津店",
      "name_kana": "スターバックスコーヒーイオンモールキサラヅテン",
      "business_type": "⑬ その他の食料・飲料販売業",
      "address": "千葉県木更津市築地1-4 イオンモール木更津",
      "lat": 35.364017,
      "lng": 139.909561,
      "geocoding_level": null,
      "phone": "0438-30-7951",
      "license_no": "",
      "license_date": null,
      "expire_date": null
    },
    {
      "name": "スターバックスコーヒー　イオンモール木更津店",
      "name_kana": "スターバックスコーヒーイオンモールキサラヅテン",
      "business_type": "① 飲食店営業",
      "address": "千葉県木更津市築地１－４　イオンモール木更津",
      "lat": 35.366117,
      "lng": 139.90846,
      "geocoding_level": null,
      "phone": "0438-30-7951",
      "license_no": "20210433",
      "license_date": "2021-10-14",
      "expire_date": "2028-11-30"
    },
    {
      "name": "スターバックスコーヒーベイシア木更津金田店",
      "name_kana": "スターバックスコーヒーベイシアキサラヅカネダテン",
      "business_type": "① 飲食店営業",
      "address": "千葉県木更津市金田東5-2-1",
      "lat": 35.427937,
      "lng": 139.92981,
      "geocoding_level": null,
      "phone": "0438-38-4572",
      "license_no": "20240175",
      "license_date": "2024-07-11",
      "expire_date": "2030-07-31"
    },
    {
      "name": "スターバックスコーヒーベイシア木更津金田店",
      "name_kana": "スターバックスコーヒーベイシアキサラヅカネダテン",
      "business_type": "⑬ その他の食料・飲料販売業",
      "address": "千葉県木更津市金田東5-2-1",
      "lat": 35.427937,
      "lng": 139.92981,
      "geocoding_level": null,
      "phone": "0438-38-4572",
      "license_no": "",
      "license_date": null,
      "expire_date": null
    },
    {
      "name": "スターバックスコーヒー三井アウトレットパーク木更津店",
      "name_kana": "スターバックスコーヒーミツイアウトレットパークキサラヅテン",
      "business_type": "① 飲食店営業",
      "address": "千葉県木更津市金田東3－1－１ 三井アウトレットパーク木更津　2210区画",
      "lat": 35.434582,
      "lng": 139.934927,
      "geocoding_level": null,
      "phone": "",
      "license_no": "20240284",
      "license_date": "2024-08-29",
      "expire_date": "2030-08-31"
    },
    {
      "name": "スターバックスコーヒー三井アウトレットパーク木更津店",
      "name_kana": "スターバックスコーヒーミツイアウトレットキサラズテン",
      "business_type": "⑬ その他の食料・飲料販売業",
      "address": "千葉県木更津市金田東3－1－１ 三井アウトレットパーク木更津  2210区画",
      "lat": 35.434582,
      "lng": 139.934927,
      "geocoding_level": null,
      "phone": "0438-53-8612",
      "license_no": "",
      "license_date": null,
      "expire_date": null
    },
    {
      "name": "三井アウトレットパーク木更津2号",
      "name_kana": "ミツイアウトレットパークキサラヅニゴウ",
      "business_type": "⑬ その他の食料・飲料販売業",
      "address": "千葉県木更津市金田東三丁目1番1号(未定)",
      "lat": 35.433899,
      "lng": 139.932845,
      "geocoding_level": null,
      "phone": "",
      "license_no": "",
      "license_date": null,
      "expire_date": null
    },
    {
      "name": "スターバックスコーヒー海ほたる　パーキングエリア店",
      "name_kana": "スターバックスコーヒーウミホタル　パーキングエリアテン",
      "business_type": "① 飲食店営業",
      "address": "千葉県木更津市中島地先東京湾横断道路海ほたるパーキングエリア",
      "lat": 35.463797,
      "lng": 139.875323,
      "geocoding_level": null,
      "phone": "0438-40-0530",
      "license_no": "20250186",
      "license_date": "2025-07-18",
      "expire_date": "2031-08-31"
    },
    {
      "name": "ツルハドラッグ桜井店",
      "name_kana": "ツルハドラッグサクライテン",
      "business_type": "⑪ 百貨店、総合スーパー",
      "address": "千葉県木更津市桜井新町4-3-1",
      "lat": 35.363973,
      "lng": 139.920245,
      "geocoding_level": null,
      "phone": "0438-37-7433",
      "license_no": "",
      "license_date": null,
      "expire_date": null
    },
    {
      "name": "ツルハドラッグ木更津高柳店",
      "name_kana": "ツルハドラッグキサラヅタカヤナギテン",
      "business_type": "⑪ 百貨店、総合スーパー",
      "address": "千葉県木更津市高柳1474-1",
      "lat": 35.399705,
      "lng": 139.93862,
      "geocoding_level": null,
      "phone": "0438-97-6703",
      "license_no": "",
      "license_date": null,
      "expire_date": null
    },
    {
      "name": "千葉県ヤクルト販売㈱ヤクルト木更津北センター",
      "name_kana": "チバケンヤクルトハンバイカブシキガイシャヤクルトキサラヅキタセンター",
      "business_type": "⑬ その他の食料・飲料販売業",
      "address": "千葉県木更津市牛袋126",
      "lat": 35.398212,
      "lng": 139.943932,
      "geocoding_level": null,
      "phone": "0438-40-4240",
      "license_no": "",
      "license_date": null,
      "expire_date": null
    },
    {
      "name": "千葉県ヤクルト販売㈱ヤクルト木更津中央センター",
      "name_kana": "チバケンヤクルトハンバイカブシキガイシャヤクルトキサラヅチュオウセンター",
      "business_type": "⑬ その他の食料・飲料販売業",
      "address": "千葉県木更津市桜井新町1-6-3",
      "lat": 35.366949,
      "lng": 139.925131,
      "geocoding_level": null,
      "phone": "0438-53-8985",
      "license_no": "",
      "license_date": null,
      "expire_date": null
    },
    {
      "name": "千葉県ヤクルト販売㈱ヤクルト木更津東センター",
      "name_kana": "チバケンヤクルトハンバイカブシキガイシャヤクルトキサラヅヒガシセンター",
      "business_type": "⑬ その他の食料・飲料販売業",
      "address": "千葉県木更津市ほたる野1-24-10",
      "lat": 35.372745,
      "lng": 139.966154,
      "geocoding_level": null,
      "phone": "0438-98-8167",
      "license_no": "",
      "license_date": null,
      "expire_date": null
    },
    {
      "name": "千葉県ヤクルト販売㈱木更津営業所",
      "name_kana": "チバケンヤクルトハンバイカブシキガイシャキサラヅエイギョウショ",
      "business_type": "③ 乳類販売業",
      "address": "千葉県木更津市牛袋126",
      "lat": 35.398212,
      "lng": 139.943932,
      "geocoding_level": null,
      "phone": "0438-23-3111",
      "license_no": "",
      "license_date": null,
      "expire_date": null
    },
    {
      "name": "千葉県ヤクルト販売㈱木更津営業所",
      "name_kana": "チバケンヤクルトハンバイカブシキガイシャキサラヅエイギョウショ",
      "business_type": "⑬ その他の食料・飲料販売業",
      "address": "千葉県木更津市牛袋126",
      "lat": 35.398212,
      "lng": 139.943932,
      "geocoding_level": null,
      "phone": "0438-23-3111",
      "license_no": "",
      "license_date": null,
      "expire_date": null
    },
    {
      "name": "GAIA GYM-24",
      "name_kana": "ガイアジム",
      "business_type": "⑫ 自動販売機による販売業（コップ式自動販売機（自動洗浄・屋内設置）及び営業許可の対象となる自動販売機を除く）",
      "address": "千葉県木更津市本郷3-5-45-1F",
      "lat": 35.412105,
      "lng": 139.940442,
      "geocoding_level": null,
      "phone": "0438976606",
      "license_no": "",
      "license_date": null,
      "expire_date": null
    },
    {
      "name": "CANDY・A・GO・GO木更津店",
      "name_kana": "キャンディーアゴーゴーキサラヅテン",
      "business_type": "⑬ その他の食料・飲料販売業",
      "address": "千葉県木更津市金田東3丁目1-1 三井ｱｳﾄﾚｯﾄﾊﾟｰｸ木更津店　ﾌｰﾄﾞｺｰﾄ前",
      "lat": 35.434582,
      "lng": 139.934927,
      "geocoding_level": null,
      "phone": "080-7090-9640",
      "license_no": "",
      "license_date": null,
      "expire_date": null
    },
    {
      "name": "アピタ木更津店",
      "name_kana": "アピタキサラヅテン",
      "business_type": "⑪ 菓子製造業",
      "address": "千葉県木更津市ほたる野四丁目２番４８",
      "lat": 35.375868,
      "lng": 139.962807,
      "geocoding_level": null,
      "phone": "0438-30-5311",
      "license_no": "20210021",
      "license_date": "2021-07-21",
      "expire_date": "2026-08-31"
    },
    {
      "name": "アピタ木更津店",
      "name_kana": "アピタキサラヅテン",
      "business_type": "① 飲食店営業",
      "address": "千葉県木更津市ほたる野四丁目２番４８",
      "lat": 35.375868,
      "lng": 139.962807,
      "geocoding_level": null,
      "phone": "0438-30-5311",
      "license_no": "20210404",
      "license_date": "2021-10-12",
      "expire_date": "2028-10-31"
    },
    {
      "name": "アピタ木更津店",
      "name_kana": "アピタキサラヅテン",
      "business_type": "① 飲食店営業",
      "address": "千葉県木更津市ほたる野四丁目２番４８",
      "lat": 35.375868,
      "lng": 139.962807,
      "geocoding_level": null,
      "phone": "0570-009-607",
      "license_no": "20210602",
      "license_date": "2022-01-07",
      "expire_date": "2029-01-31"
    },
    {
      "name": "アピタ木更津店",
      "name_kana": "アピタキサラヅテン",
      "business_type": "⑪ 百貨店、総合スーパー",
      "address": "千葉県木更津市ほたる野四丁目２番４８",
      "lat": 35.375868,
      "lng": 139.962807,
      "geocoding_level": null,
      "phone": "0570-009-607",
      "license_no": "",
      "license_date": null,
      "expire_date": null
    },
    {
      "name": "アピタ木更津店",
      "name_kana": "アピタキサラヅテン",
      "business_type": "⑫ 自動販売機による販売業（コップ式自動販売機（自動洗浄・屋内設置）及び営業許可の対象となる自動販売機を除く）",
      "address": "千葉県木更津市ほたる野四丁目２番４８",
      "lat": 35.375868,
      "lng": 139.962807,
      "geocoding_level": null,
      "phone": "0570-009-607",
      "license_no": "",
      "license_date": null,
      "expire_date": null
    },
    {
      "name": "アピタ木更津店",
      "name_kana": "アピタキサラヅテン",
      "business_type": "③ 食肉販売業",
      "address": "千葉県木更津市ほたる野四丁目2番48",
      "lat": 35.375868,
      "lng": 139.962807,
      "geocoding_level": null,
      "phone": "0570-009-607",
      "license_no": "20240007",
      "license_date": "2024-11-29",
      "expire_date": "2031-12-31"
    },
    {
      "name": "アピタ木更津店",
      "name_kana": "アピタキサラヅテン",
      "business_type": "④ 魚介類販売業",
      "address": "千葉県木更津市ほたる野四丁目2番48",
      "lat": 35.375868,
      "lng": 139.962807,
      "geocoding_level": null,
      "phone": "0570-009-607",
      "license_no": "20240009",
      "license_date": "2024-11-29",
      "expire_date": "2031-12-31"
    },
    {
      "name": "ベイシア木更津金田店",
      "name_kana": "ベイシアキサラヅカネダテン",
      "business_type": "⑪ 百貨店、総合スーパー",
      "address": "千葉県木更津市金田東５丁目２番地１",
      "lat": 35.427937,
      "lng": 139.92981,
      "geocoding_level": null,
      "phone": "0438-80-1112",
      "license_no": "",
      "license_date": null,
      "expire_date": null
    },
    {
      "name": "ベイシアフード木更津金田店",
      "name_kana": "ベイシアフードキサラヅカネダテン",
      "business_type": "① 飲食店営業",
      "address": "千葉県木更津市金田東５丁目２番地１",
      "lat": 35.427937,
      "lng": 139.92981,
      "geocoding_level": null,
      "phone": "0438-80-1112",
      "license_no": "20210702",
      "license_date": "2022-02-17",
      "expire_date": "2028-03-31"
    },
    {
      "name": "ベイシアフード木更津金田店",
      "name_kana": "ベイシアフードキサラヅカネダテン",
      "business_type": "⑪ 菓子製造業",
      "address": "千葉県木更津市金田東５丁目２番地１",
      "lat": 35.427937,
      "lng": 139.92981,
      "geocoding_level": null,
      "phone": "0438-80-1112",
      "license_no": "20210059",
      "license_date": "2022-02-17",
      "expire_date": "2028-03-31"
    },
    {
      "name": "ベイシア木更津金田店",
      "name_kana": "ベイシアキサラヅカネダテン",
      "business_type": "⑪ 菓子製造業",
      "address": "千葉県木更津市金田東５－２－１",
      "lat": 35.429468,
      "lng": 139.929406,
      "geocoding_level": null,
      "phone": "",
      "license_no": "20240016",
      "license_date": "2024-06-07",
      "expire_date": "2030-07-31"
    },
    {
      "name": "シーサイドゴルフ木更津",
      "name_kana": "シーサイドゴルフキサラヅ",
      "business_type": "② 調理機能を有する自動販売機（要許可）",
      "address": "千葉県木更津市久津間２２４９－１",
      "lat": 35.407719,
      "lng": 139.902058,
      "geocoding_level": null,
      "phone": "0438-41-8311",
      "license_no": "20220005",
      "license_date": "2022-10-19",
      "expire_date": "2027-10-31"
    },
    {
      "name": "サンドラッグ木更津畑沢店",
      "name_kana": "サンドラッグキサラヅハタサワテン",
      "business_type": "⑪ 百貨店、総合スーパー",
      "address": "千葉県木更津市畑沢１丁目１１番２３",
      "lat": 35.348862,
      "lng": 139.898415,
      "geocoding_level": null,
      "phone": "0438-80-9980",
      "license_no": "",
      "license_date": null,
      "expire_date": null
    },
    {
      "name": "木更津市健康増進センターいきいき館",
      "name_kana": "キサラヅシケンコウゾウシンイキイキカン",
      "business_type": "⑬ その他の食料・飲料販売業",
      "address": "千葉県木更津市潮浜３－１",
      "lat": 35.36998,
      "lng": 139.911464,
      "geocoding_level": null,
      "phone": "",
      "license_no": "",
      "license_date": null,
      "expire_date": null
    },
    {
      "name": "スマイルマックス木更津",
      "name_kana": "スマイルマックスキサラヅ",
      "business_type": "⑬ その他の食料・飲料販売業",
      "address": "千葉県木更津市桜井新町２－２－３",
      "lat": 35.368786,
      "lng": 139.921433,
      "geocoding_level": null,
      "phone": "",
      "license_no": "",
      "license_date": null,
      "expire_date": null
    },
    {
      "name": "馬来田の太陽",
      "name_kana": "マクタノタイヨウ",
      "business_type": "㉖ 集団給食施設",
      "address": "千葉県木更津市真里谷８８３−１",
      "lat": 35.36853,
      "lng": 140.07285,
      "geocoding_level": null,
      "phone": "0438-53-5172",
      "license_no": "",
      "license_date": null,
      "expire_date": null
    },
    {
      "name": "ヤックスドラッグ木更津清見台店",
      "name_kana": "ヤックスドラッグキサラヅキヨミダイテン",
      "business_type": "① 魚介類販売業（包装済みの魚介類のみの販売）",
      "address": "千葉県木更津市清見台1-17-20",
      "lat": 35.384581,
      "lng": 139.946653,
      "geocoding_level": null,
      "phone": "0438203733",
      "license_no": "",
      "license_date": null,
      "expire_date": null
    },
    {
      "name": "ヤックスドラッグ木更津清見台店",
      "name_kana": "ヤックスドラッグキサラヅキヨミダイテン",
      "business_type": "② 食肉販売業（包装済みの食肉のみの販売）",
      "address": "千葉県木更津市清見台1-17-20",
      "lat": 35.384581,
      "lng": 139.946653,
      "geocoding_level": null,
      "phone": "0438203733",
      "license_no": "",
      "license_date": null,
      "expire_date": null
    },
    {
      "name": "ヤックスドラッグ木更津清見台店",
      "name_kana": "ヤックスドラッグキサラヅキヨミダイテン",
      "business_type": "③ 乳類販売業",
      "address": "千葉県木更津市清見台1-17-20",
      "lat": 35.384581,
      "lng": 139.946653,
      "geocoding_level": null,
      "phone": "0438203733",
      "license_no": "",
      "license_date": null,
      "expire_date": null
    },
    {
      "name": "ヤックスドラッグ木更津文京店",
      "name_kana": "ヤックスドラッグキサラヅブンキョウテン",
      "business_type": "⑪ 百貨店、総合スーパー",
      "address": "千葉県木更津市文京3-347-1",
      "lat": 35.376514,
      "lng": 139.934827,
      "geocoding_level": null,
      "phone": "0438538039",
      "license_no": "",
      "license_date": null,
      "expire_date": null
    },
    {
      "name": "ヤックス移動スーパーらくちん便6号車（木更津清見台店）",
      "name_kana": "ヤックスイドウスーパーラクチンビンロクゴウシャ",
      "business_type": "⑪ 百貨店、総合スーパー",
      "address": "千葉県木更津市清見台1-17-20",
      "lat": 35.384581,
      "lng": 139.946653,
      "geocoding_level": null,
      "phone": "0438203733",
      "license_no": "",
      "license_date": null,
      "expire_date": null
    },
    {
      "name": "ヤックスドラッグ木更津江川店",
      "name_kana": "ヤックスドラッグキサラヅエガワテン",
      "business_type": "⑪ 百貨店、総合スーパー",
      "address": "千葉県木更津市江川544-16",
      "lat": 35.402049,
      "lng": 139.913626,
      "geocoding_level": null,
      "phone": "0438385405",
      "license_no": "",
      "license_date": null,
      "expire_date": null
    },
    {
      "name": "ヤックスドラッグ木更津羽鳥野店",
      "name_kana": "ヤックスドラッグキサラヅハトリノテン",
      "business_type": "⑪ 百貨店、総合スーパー",
      "address": "千葉県木更津市羽鳥野6-21-5",
      "lat": 35.344818,
      "lng": 139.943683,
      "geocoding_level": null,
      "phone": "0438-97-6272",
      "license_no": "",
      "license_date": null,
      "expire_date": null
    },
    {
      "name": "国保直営総合病院　君津中央病院",
      "name_kana": "コクホチョクエイソウゴウビョウイン　キミツチュウオウビョウイン",
      "business_type": "㉖ 集団給食施設",
      "address": "千葉県木更津市桜井1010番地",
      "lat": 35.359425,
      "lng": 139.922554,
      "geocoding_level": null,
      "phone": "0438-36-1071",
      "license_no": "",
      "license_date": null,
      "expire_date": null
    },
    {
      "name": "株式会社大金商店",
      "name_kana": "カブシキカシャダイキンショウテン",
      "business_type": "㉒ 海藻製造・加工業",
      "address": "千葉県木更津市中島3921",
      "lat": 35.432013,
      "lng": 139.911004,
      "geocoding_level": null,
      "phone": "",
      "license_no": "",
      "license_date": null,
      "expire_date": null
    },
    {
      "name": "パスポート木更津店",
      "name_kana": "パスポートキサラヅテン",
      "business_type": "⑪ 百貨店、総合スーパー",
      "address": "千葉県木更津市太田4丁目24-20",
      "lat": 35.376831,
      "lng": 139.941848,
      "geocoding_level": null,
      "phone": "",
      "license_no": "",
      "license_date": null,
      "expire_date": null
    },
    {
      "name": "業務スーパー馬来田店",
      "name_kana": "ギョウムスーパーマクタテン",
      "business_type": "⑪ 百貨店、総合スーパー",
      "address": "千葉県木更津市茅野195-3",
      "lat": 35.361267,
      "lng": 140.058788,
      "geocoding_level": null,
      "phone": "0438421350",
      "license_no": "",
      "license_date": null,
      "expire_date": null
    },
    {
      "name": "海ほたる・北海道物産展",
      "name_kana": "ウミホタル・ホッカイドウブッサンテン",
      "business_type": "⑬ その他の食料・飲料販売業",
      "address": "千葉県木更津市中島地先海ほたる",
      "lat": 35.464607,
      "lng": 139.874094,
      "geocoding_level": null,
      "phone": "",
      "license_no": "",
      "license_date": null,
      "expire_date": null
    },
    {
      "name": "カネ美食品㈱　アピタ木更津店",
      "name_kana": "カネミショクヒン　カブ　アピタキサラヅテン",
      "business_type": "① 飲食店営業",
      "address": "千葉県木更津市ほたる野四丁目2番48　アピタ木更津店内",
      "lat": 35.375868,
      "lng": 139.962807,
      "geocoding_level": null,
      "phone": "0438-97-1135",
      "license_no": "20210376",
      "license_date": "2021-09-09",
      "expire_date": "2029-10-31"
    },
    {
      "name": "カネ美食品㈱　アピタ木更津店",
      "name_kana": "カネミショクヒン　カブ　アピタキサラヅテン",
      "business_type": "⑬ その他の食料・飲料販売業",
      "address": "千葉県木更津市ほたる野四丁目2番48 アピタ木更津店内",
      "lat": 35.375431,
      "lng": 139.964249,
      "geocoding_level": null,
      "phone": "0438-97-1135",
      "license_no": "",
      "license_date": null,
      "expire_date": null
    },
    {
      "name": "三井アウトレット木更津　B１２従業員休憩室",
      "name_kana": "ミツイアウトレットキサラヅビージュウニジュウギョウインキュウケイシツ",
      "business_type": "⑤ コップ式自動販売機（自動洗浄・屋内設置）",
      "address": "千葉県木更津市金田東３丁目１－１",
      "lat": 35.434582,
      "lng": 139.934927,
      "geocoding_level": null,
      "phone": "0438-38-3801",
      "license_no": "",
      "license_date": null,
      "expire_date": null
    },
    {
      "name": "パールショップともえ木更津店",
      "name_kana": "パールショップ",
      "business_type": "⑤ コップ式自動販売機（自動洗浄・屋内設置）",
      "address": "千葉県木更津市中里１丁目１０７３－４",
      "lat": 35.393733,
      "lng": 139.920993,
      "geocoding_level": null,
      "phone": "",
      "license_no": "",
      "license_date": null,
      "expire_date": null
    },
    {
      "name": "パールショップともえ木更津店ＮＯ４",
      "name_kana": "パールショップ",
      "business_type": "⑤ コップ式自動販売機（自動洗浄・屋内設置）",
      "address": "千葉県木更津市中里６００－１",
      "lat": 35.393685,
      "lng": 139.923955,
      "geocoding_level": null,
      "phone": "",
      "license_no": "",
      "license_date": null,
      "expire_date": null
    },
    {
      "name": "（株）ホンダカーズ千葉朝日南店",
      "name_kana": "カブシキガイシャホンダカーズチバアサヒミナミテン",
      "business_type": "⑤ コップ式自動販売機（自動洗浄・屋内設置）",
      "address": "千葉県木更津市朝日３－１０－７",
      "lat": 35.38642,
      "lng": 139.934396,
      "geocoding_level": null,
      "phone": "0438-25-5151",
      "license_no": "",
      "license_date": null,
      "expire_date": null
    },
    {
      "name": "東京湾横断道路サービス（PA事業部）",
      "name_kana": "トウキョウワンオウダンドウロサービス",
      "business_type": "⑤ コップ式自動販売機（自動洗浄・屋内設置）",
      "address": "千葉県木更津市中島地先海ほたる",
      "lat": 35.463676,
      "lng": 139.874925,
      "geocoding_level": null,
      "phone": "0438-41-3234",
      "license_no": "",
      "license_date": null,
      "expire_date": null
    },
    {
      "name": "かずさ水道広域連合企業団",
      "name_kana": "カズサ",
      "business_type": "⑤ コップ式自動販売機（自動洗浄・屋内設置）",
      "address": "千葉県木更津市潮見２丁目８",
      "lat": 35.375032,
      "lng": 139.916539,
      "geocoding_level": null,
      "phone": "",
      "license_no": "",
      "license_date": null,
      "expire_date": null
    },
    {
      "name": "CJ FOODS JAPAN株式会社　千葉工場",
      "name_kana": "シージェイフーズジャパン",
      "business_type": "⑤ コップ式自動販売機（自動洗浄・屋内設置）",
      "address": "千葉県木更津市かずさ鎌足3-1-1",
      "lat": 35.32342,
      "lng": 139.988101,
      "geocoding_level": null,
      "phone": "",
      "license_no": "",
      "license_date": null,
      "expire_date": null
    },
    {
      "name": "かずさのお風呂屋さん",
      "name_kana": "カズサノオフロヤサン",
      "business_type": "⑤ コップ式自動販売機（自動洗浄・屋内設置）",
      "address": "千葉県木更津市清見台南5-1-4",
      "lat": 35.380751,
      "lng": 139.959688,
      "geocoding_level": null,
      "phone": "",
      "license_no": "",
      "license_date": null,
      "expire_date": null
    },
    {
      "name": "大寺浄水場",
      "name_kana": "オオデラ",
      "business_type": "⑤ コップ式自動販売機（自動洗浄・屋内設置）",
      "address": "千葉県木更津市大寺346",
      "lat": 35.395819,
      "lng": 139.973113,
      "geocoding_level": null,
      "phone": "",
      "license_no": "",
      "license_date": null,
      "expire_date": null
    },
    {
      "name": "ドン・キホーテ木更津店",
      "name_kana": "ドン・キホーテキサラヅテン",
      "business_type": "⑪ 百貨店、総合スーパー",
      "address": "千葉県木更津市請西南2-21-2",
      "lat": 35.35902,
      "lng": 139.942697,
      "geocoding_level": null,
      "phone": "0570-001-461",
      "license_no": "",
      "license_date": null,
      "expire_date": null
    },
    {
      "name": "壺みついも",
      "name_kana": "ツボミツイモ",
      "business_type": "㉔ その他の食料品製造・加工業",
      "address": "千葉県木更津市築地1-4 イオンモール木更津　１Fセンターアトリウム",
      "lat": 35.365976,
      "lng": 139.908529,
      "geocoding_level": null,
      "phone": "08068884399",
      "license_no": "",
      "license_date": null,
      "expire_date": null
    },
    {
      "name": "壺みついも",
      "name_kana": "ツボミツイモ",
      "business_type": "㉔ その他の食料品製造・加工業",
      "address": "千葉県木更津市築地1-4 イオンモール木更津　１Fセンターアトリウム",
      "lat": 35.365976,
      "lng": 139.908529,
      "geocoding_level": null,
      "phone": "08068884399",
      "license_no": "",
      "license_date": null,
      "expire_date": null
    },
    {
      "name": "木更津市短期入所施設",
      "name_kana": "キサラヅシタンキニュウショシセツ",
      "business_type": "① 飲食店営業",
      "address": "千葉県木更津市ほたる野４－１２－３",
      "lat": 35.376889,
      "lng": 139.965864,
      "geocoding_level": null,
      "phone": "0438-97-0891",
      "license_no": "20210148",
      "license_date": "2021-06-01",
      "expire_date": "2027-06-30"
    },
    {
      "name": "HONG　NHUNG　QUAN",
      "name_kana": "ホン　ヨォン　クァー",
      "business_type": "① 魚介類販売業（包装済みの魚介類のみの販売）",
      "address": "千葉県木更津市金田東６－２６－５",
      "lat": 35.433712,
      "lng": 139.930923,
      "geocoding_level": null,
      "phone": "",
      "license_no": "",
      "license_date": null,
      "expire_date": null
    },
    {
      "name": "HONG　NHUNG　QUAN",
      "name_kana": "ホン　ヨォン　クァー",
      "business_type": "② 食肉販売業（包装済みの食肉のみの販売）",
      "address": "千葉県木更津市金田東６－２６－５",
      "lat": 35.433712,
      "lng": 139.930923,
      "geocoding_level": null,
      "phone": "",
      "license_no": "",
      "license_date": null,
      "expire_date": null
    },
    {
      "name": "HONG　NHUNG　QUAN",
      "name_kana": "ホン　ヨォン　クァー",
      "business_type": "⑬ その他の食料・飲料販売業",
      "address": "千葉県木更津市金田東６－２６－５",
      "lat": 35.433712,
      "lng": 139.930923,
      "geocoding_level": null,
      "phone": "",
      "license_no": "",
      "license_date": null,
      "expire_date": null
    },
    {
      "name": "８４",
      "name_kana": "ハチジュウヨン",
      "business_type": "① 飲食店営業",
      "address": "千葉県木更津市富士見２－８－２１",
      "lat": 35.380847,
      "lng": 139.92176,
      "geocoding_level": null,
      "phone": "",
      "license_no": "20210151",
      "license_date": "2021-06-04",
      "expire_date": "2027-06-30"
    },
    {
      "name": "焼肉お富さん　和牛とまぐろ",
      "name_kana": "ヤキニクオトミサンワギュウトマグロ",
      "business_type": "① 飲食店営業",
      "address": "千葉県木更津市請西１－１３－９",
      "lat": 35.363113,
      "lng": 139.938291,
      "geocoding_level": null,
      "phone": "",
      "license_no": "20220350",
      "license_date": "2022-10-07",
      "expire_date": "2028-10-31"
    },
    {
      "name": "焼肉お富さん　和牛とまぐろ",
      "name_kana": "ヤキニクオトミサンワギュウトマグロ",
      "business_type": "② 食肉販売業（包装済みの食肉のみの販売）",
      "address": "千葉県木更津市請西１－１３－９",
      "lat": 35.363113,
      "lng": 139.938291,
      "geocoding_level": null,
      "phone": "",
      "license_no": "",
      "license_date": null,
      "expire_date": null
    },
    {
      "name": "焼肉お富さん　和牛とまぐろ",
      "name_kana": "ヤキニクオトミサンワギュウトマグロ",
      "business_type": "⑬ その他の食料・飲料販売業",
      "address": "千葉県木更津市請西１－１３－９",
      "lat": 35.363113,
      "lng": 139.938291,
      "geocoding_level": null,
      "phone": "",
      "license_no": "",
      "license_date": null,
      "expire_date": null
    },
    {
      "name": "燈 -akari-",
      "name_kana": "アカリ",
      "business_type": "① 飲食店営業",
      "address": "千葉県木更津市富士見２－１－１４",
      "lat": 35.381499,
      "lng": 139.921663,
      "geocoding_level": null,
      "phone": "0438-38-5364",
      "license_no": "20250400",
      "license_date": "2025-11-06",
      "expire_date": "2031-11-30"
    },
    {
      "name": "スーパー富分清見台店",
      "name_kana": "スーパートミブンキヨミダイテン",
      "business_type": "③ 食肉販売業",
      "address": "千葉県木更津市清見台南4-2-3",
      "lat": 35.382007,
      "lng": 139.955432,
      "geocoding_level": null,
      "phone": "0438384866",
      "license_no": "20250008",
      "license_date": "2025-11-28",
      "expire_date": "2031-12-31"
    },
    {
      "name": "スーパー富分清見台店",
      "name_kana": "スーパートミブンキヨミダイテン",
      "business_type": "⑪ 百貨店、総合スーパー",
      "address": "千葉県木更津市清見台南4-2-3",
      "lat": 35.382007,
      "lng": 139.955432,
      "geocoding_level": null,
      "phone": "0438384866",
      "license_no": "",
      "license_date": null,
      "expire_date": null
    },
    {
      "name": "スーパー富分清見台店",
      "name_kana": "スーパートミブンキヨミダイテン",
      "business_type": "④ 魚介類販売業",
      "address": "千葉県木更津市清見台南4-2-3",
      "lat": 35.382007,
      "lng": 139.955432,
      "geocoding_level": null,
      "phone": "0438384866",
      "license_no": "20250012",
      "license_date": "2025-11-28",
      "expire_date": "2031-12-31"
    },
    {
      "name": "スーパー富分清見台店",
      "name_kana": "スーパートミブンキヨミダイテン",
      "business_type": "① 飲食店営業",
      "address": "千葉県木更津市清見台南4-2-3",
      "lat": 35.382007,
      "lng": 139.955432,
      "geocoding_level": null,
      "phone": "0438384866",
      "license_no": "20250467",
      "license_date": "2025-11-28",
      "expire_date": "2031-12-31"
    },
    {
      "name": "スーパー富分清見台店",
      "name_kana": "スーパートミブンキヨミダイテン",
      "business_type": "① 飲食店営業",
      "address": "千葉県木更津市清見台南4-2-3",
      "lat": 35.382007,
      "lng": 139.955432,
      "geocoding_level": null,
      "phone": "0438384866",
      "license_no": "20250466",
      "license_date": "2025-11-28",
      "expire_date": "2031-12-31"
    },
    {
      "name": "山内農場",
      "name_kana": "ヤマウチノウジョウ",
      "business_type": "⑬ その他の食料・飲料販売業",
      "address": "千葉県木更津市東中央一丁目１番１３号 ＴＳビル　地下１階",
      "lat": 35.382034,
      "lng": 139.927199,
      "geocoding_level": null,
      "phone": "0438-22-0188",
      "license_no": "",
      "license_date": null,
      "expire_date": null
    },
    {
      "name": "山内農場",
      "name_kana": "ヤマウチノウジョウ",
      "business_type": "① 飲食店営業",
      "address": "千葉県木更津市東中央一丁目1番13号 ＴＳビル　地下1階",
      "lat": 35.382034,
      "lng": 139.927199,
      "geocoding_level": null,
      "phone": "0438-22-0188",
      "license_no": "20250519",
      "license_date": "2026-01-09",
      "expire_date": "2032-02-29"
    },
    {
      "name": "フードスクエアカスミ　木更津朝日店",
      "name_kana": "フードスクエアカスミ　キサラズアサヒテン",
      "business_type": "⑪ 百貨店、総合スーパー",
      "address": "千葉県木更津市朝日3-10-19",
      "lat": 35.385792,
      "lng": 139.936209,
      "geocoding_level": null,
      "phone": "0438202121",
      "license_no": "",
      "license_date": null,
      "expire_date": null
    },
    {
      "name": "株式会社RISING",
      "name_kana": "カブシキガイシャ ライジング",
      "business_type": "㉕ 行商",
      "address": "千葉県木更津市市内一円",
      "lat": 35.381251,
      "lng": 139.924887,
      "geocoding_level": null,
      "phone": "045-548-4366",
      "license_no": "",
      "license_date": null,
      "expire_date": null
    },
    {
      "name": "しゃぶ葉　木更津南店",
      "name_kana": "シャブヨウキサラヅミナミテン",
      "business_type": "① 飲食店営業",
      "address": "千葉県木更津市請西１－１５－２０",
      "lat": 35.373835,
      "lng": 139.9345,
      "geocoding_level": null,
      "phone": "0438-30-1300",
      "license_no": "20210219",
      "license_date": "2021-07-21",
      "expire_date": "2027-08-31"
    },
    {
      "name": "夢庵　木更津東店",
      "name_kana": "ユメアンキサラヅヒガシテン",
      "business_type": "① 飲食店営業",
      "address": "千葉県木更津市ほたる野１丁目１９番地１",
      "lat": 35.373253,
      "lng": 139.960122,
      "geocoding_level": null,
      "phone": "0438-98-5951",
      "license_no": "20210242",
      "license_date": "2021-07-21",
      "expire_date": "2028-08-31"
    },
    {
      "name": "夢庵 木更津東店",
      "name_kana": "ユメアンキサラヅヒガシテン",
      "business_type": "⑬ その他の食料・飲料販売業",
      "address": "千葉県木更津市ほたる野１丁目１９－１",
      "lat": 35.373253,
      "lng": 139.960122,
      "geocoding_level": null,
      "phone": "0438-98-5951",
      "license_no": "",
      "license_date": null,
      "expire_date": null
    },
    {
      "name": "グラッチェガーデンズ　木更津東店",
      "name_kana": "グラッチェガーデンズキサラヅヒガシテン",
      "business_type": "① 飲食店営業",
      "address": "千葉県木更津市ほたる野１丁目１６－１",
      "lat": 35.375723,
      "lng": 139.961313,
      "geocoding_level": null,
      "phone": "0438-97-8580",
      "license_no": "20240084",
      "license_date": "2024-05-10",
      "expire_date": "2031-06-30"
    },
    {
      "name": "グラッチェガーデンズ　木更津東店",
      "name_kana": "グラッチェガーデンズキサラヅヒガシテン",
      "business_type": "⑬ その他の食料・飲料販売業",
      "address": "千葉県木更津市ほたる野１丁目１６－１",
      "lat": 35.375723,
      "lng": 139.961313,
      "geocoding_level": null,
      "phone": "0438-97-8580",
      "license_no": "",
      "license_date": null,
      "expire_date": null
    },
    {
      "name": "しゃぶ葉　木更津南店",
      "name_kana": "シャブヨウキサラヅミナミテン",
      "business_type": "⑬ その他の食料・飲料販売業",
      "address": "千葉県木更津市請西１－１５－２０",
      "lat": 35.373835,
      "lng": 139.9345,
      "geocoding_level": null,
      "phone": "0438-30-1300",
      "license_no": "",
      "license_date": null,
      "expire_date": null
    },
    {
      "name": "ガスト 木更津北店",
      "name_kana": "ガストキサラヅキタテン",
      "business_type": "① 飲食店営業",
      "address": "千葉県木更津市高柳谷原１０５３",
      "lat": 35.409653,
      "lng": 139.944379,
      "geocoding_level": null,
      "phone": "0438-20-1300",
      "license_no": "20250112",
      "license_date": "2025-06-13",
      "expire_date": "2032-07-31"
    },
    {
      "name": "ガスト 木更津北店",
      "name_kana": "ガストキサラヅキタテン",
      "business_type": "⑬ その他の食料・飲料販売業",
      "address": "千葉県木更津市高柳谷原１０５３",
      "lat": 35.409653,
      "lng": 139.944379,
      "geocoding_level": null,
      "phone": "0438-20-1300",
      "license_no": "",
      "license_date": null,
      "expire_date": null
    },
    {
      "name": "ガスト 木更津中央店",
      "name_kana": "ガストキサラヅチュウオウテン",
      "business_type": "⑬ その他の食料・飲料販売業",
      "address": "千葉県木更津市中央３丁目９－６",
      "lat": 35.384048,
      "lng": 139.918258,
      "geocoding_level": null,
      "phone": "0438-20-8057",
      "license_no": "",
      "license_date": null,
      "expire_date": null
    },
    {
      "name": "ステーキガスト 木更津南インター店",
      "name_kana": "ステーキガストキサラヅミナミインターテン",
      "business_type": "① 飲食店営業",
      "address": "千葉県木更津市畑沢１３０３－１",
      "lat": 35.344186,
      "lng": 139.920476,
      "geocoding_level": null,
      "phone": "0438-30-1040",
      "license_no": "20250344",
      "license_date": "2025-10-10",
      "expire_date": "2032-11-30"
    },
    {
      "name": "ステーキガスト 木更津南インター店",
      "name_kana": "ステーキガストキサラヅミナミインターテン",
      "business_type": "⑬ その他の食料・飲料販売業",
      "address": "千葉県木更津市畑沢１３０３－１",
      "lat": 35.344186,
      "lng": 139.920476,
      "geocoding_level": null,
      "phone": "0438-30-1040",
      "license_no": "",
      "license_date": null,
      "expire_date": null
    },
    {
      "name": "バーミヤン 木更津長須賀店",
      "name_kana": "バーミヤンキサラヅナガスカテン",
      "business_type": "① 飲食店営業",
      "address": "千葉県木更津市長須賀２９３",
      "lat": 35.381251,
      "lng": 139.924887,
      "geocoding_level": null,
      "phone": "0438-20-8106",
      "license_no": "20230051",
      "license_date": "2023-04-20",
      "expire_date": "2031-05-31"
    },
    {
      "name": "バーミヤン 木更津長須賀店",
      "name_kana": "バーミヤンキサラヅナガスカテン",
      "business_type": "⑬ その他の食料・飲料販売業",
      "address": "千葉県木更津市長須賀２９３",
      "lat": 35.381251,
      "lng": 139.924887,
      "geocoding_level": null,
      "phone": "0438-20-8106",
      "license_no": "",
      "license_date": null,
      "expire_date": null
    },
    {
      "name": "すし銚子丸　木更津店",
      "name_kana": "スシチョウシマル　キサラヅテン",
      "business_type": "① 飲食店営業",
      "address": "千葉県木更津市太田4-1-11",
      "lat": 35.379432,
      "lng": 139.942673,
      "geocoding_level": null,
      "phone": "0438-20-2040",
      "license_no": "20210539",
      "license_date": "2021-11-26",
      "expire_date": "2028-11-30"
    },
    {
      "name": "すし銚子丸　木更津店",
      "name_kana": "スシチョウシマル　キサラヅテン",
      "business_type": "⑬ その他の食料・飲料販売業",
      "address": "千葉県木更津市太田4-1-11",
      "lat": 35.379432,
      "lng": 139.942673,
      "geocoding_level": null,
      "phone": "0438-20-2040",
      "license_no": "",
      "license_date": null,
      "expire_date": null
    },
    {
      "name": "イオンモール木更津（京都、九州、四国物産展）",
      "name_kana": "イオンモールキサラヅキョウトキュウシュウシコクブッサンテン",
      "business_type": "⑪ 百貨店、総合スーパー",
      "address": "千葉県木更津市築地１丁目４",
      "lat": 35.367149,
      "lng": 139.907898,
      "geocoding_level": null,
      "phone": "0438-30-2620",
      "license_no": "",
      "license_date": null,
      "expire_date": null
    },
    {
      "name": "イオンモール木更津　1Fセンターアトリウム",
      "name_kana": "イオンモールキサラヅ",
      "business_type": "⑬ その他の食料・飲料販売業",
      "address": "千葉県木更津市築地1丁目4",
      "lat": 35.359299,
      "lng": 139.9059,
      "geocoding_level": null,
      "phone": "0438-30-2620",
      "license_no": "",
      "license_date": null,
      "expire_date": null
    },
    {
      "name": "イオンモール木更津　1Fセンターアトリウム",
      "name_kana": "イオンモールキサラヅ",
      "business_type": "⑬ その他の食料・飲料販売業",
      "address": "千葉県木更津市築地1丁目4",
      "lat": 35.359262,
      "lng": 139.905888,
      "geocoding_level": null,
      "phone": "0438-30-2620",
      "license_no": "",
      "license_date": null,
      "expire_date": null
    },
    {
      "name": "イオンモール木更津　1Fノースアトリウム",
      "name_kana": "イオンモールキサラヅ",
      "business_type": "⑬ その他の食料・飲料販売業",
      "address": "千葉県木更津市築地1丁目4",
      "lat": 35.359262,
      "lng": 139.905888,
      "geocoding_level": null,
      "phone": "0438-30-2620",
      "license_no": "",
      "license_date": null,
      "expire_date": null
    },
    {
      "name": "イオンモール木更津　1Fセンターアトリウム",
      "name_kana": "イオンモールキサラヅ",
      "business_type": "⑬ その他の食料・飲料販売業",
      "address": "千葉県木更津市築地1丁目4",
      "lat": 35.359299,
      "lng": 139.9059,
      "geocoding_level": null,
      "phone": "0438-30-2620",
      "license_no": "",
      "license_date": null,
      "expire_date": null
    },
    {
      "name": "イオンモール木更津　1Fセンターアトリウム",
      "name_kana": "イオンモールキサラヅ",
      "business_type": "⑬ その他の食料・飲料販売業",
      "address": "千葉県木更津市築地1丁目4",
      "lat": 35.359299,
      "lng": 139.9059,
      "geocoding_level": null,
      "phone": "0438-30-2620",
      "license_no": "",
      "license_date": null,
      "expire_date": null
    },
    {
      "name": "イオンモール木更津",
      "name_kana": "イオンモールキサラヅ",
      "business_type": "⑬ その他の食料・飲料販売業",
      "address": "千葉県木更津市築地1番4",
      "lat": 35.363876,
      "lng": 139.909542,
      "geocoding_level": null,
      "phone": "0438-30-2620",
      "license_no": "",
      "license_date": null,
      "expire_date": null
    },
    {
      "name": "イオンモール木更津",
      "name_kana": "イオンモールキサラヅ",
      "business_type": "⑬ その他の食料・飲料販売業",
      "address": "千葉県木更津市築地1番4",
      "lat": 35.363876,
      "lng": 139.909542,
      "geocoding_level": null,
      "phone": "0438-30-2620",
      "license_no": "",
      "license_date": null,
      "expire_date": null
    },
    {
      "name": "イオンモール木更津 京都物産展",
      "name_kana": "イオンモールキサラヅ キョウトブッサンテン",
      "business_type": "⑬ その他の食料・飲料販売業",
      "address": "千葉県木更津市築地１丁目４",
      "lat": 35.364405,
      "lng": 139.907501,
      "geocoding_level": null,
      "phone": "",
      "license_no": "",
      "license_date": null,
      "expire_date": null
    },
    {
      "name": "社会福祉法人一粒会　児童養護施設　野の花の家",
      "name_kana": "シャカイフクシホウジンイチリュウカイ　ジドウヨウゴシセツ　ノノハナノイエ",
      "business_type": "㉖ 集団給食施設",
      "address": "千葉県木更津市真里谷１８８０－５",
      "lat": 35.368233,
      "lng": 140.080355,
      "geocoding_level": null,
      "phone": "0438-53-2787",
      "license_no": "",
      "license_date": null,
      "expire_date": null
    },
    {
      "name": "龍宮城スパホテル三日月　風呂丸ＢＡＳＥ",
      "name_kana": "リュウグウジョウスパホテルミカヅキ　フロマルベース",
      "business_type": "① 飲食店営業",
      "address": "千葉県木更津市北浜町１番地",
      "lat": 35.420882,
      "lng": 139.897596,
      "geocoding_level": null,
      "phone": "0438-41-8111",
      "license_no": "2021-246",
      "license_date": "2021-07-15",
      "expire_date": "2027-07-31"
    },
    {
      "name": "三日月亭",
      "name_kana": "ミカヅキテイ",
      "business_type": "① 飲食店営業",
      "address": "千葉県木更津市北浜町１番地　５Ｆ",
      "lat": 35.420882,
      "lng": 139.897596,
      "geocoding_level": null,
      "phone": "0438-41-8111",
      "license_no": "20210251",
      "license_date": "2021-07-21",
      "expire_date": "2028-08-31"
    },
    {
      "name": "クレッセント",
      "name_kana": "クレッセント",
      "business_type": "① 飲食店営業",
      "address": "千葉県木更津市北浜町１番地　５Ｆ",
      "lat": 35.420882,
      "lng": 139.897596,
      "geocoding_level": null,
      "phone": "0438-41-1111",
      "license_no": "20210252",
      "license_date": "2021-07-21",
      "expire_date": "2028-08-31"
    },
    {
      "name": "華月",
      "name_kana": "カゲツ",
      "business_type": "① 飲食店営業",
      "address": "千葉県木更津市北浜町１番地　５Ｆ",
      "lat": 35.420882,
      "lng": 139.897596,
      "geocoding_level": null,
      "phone": "0438-41-8111",
      "license_no": "20210253",
      "license_date": "2021-07-21",
      "expire_date": "2028-08-31"
    },
    {
      "name": "若汐亭",
      "name_kana": "ワカシオテイ",
      "business_type": "① 飲食店営業",
      "address": "千葉県木更津市北浜町１番地　５Ｆ",
      "lat": 35.420882,
      "lng": 139.897596,
      "geocoding_level": null,
      "phone": "0438-41-8111",
      "license_no": "20210250",
      "license_date": "2021-07-21",
      "expire_date": "2028-08-31"
    },
    {
      "name": "カフェクレッセント",
      "name_kana": "カフェクレッセント",
      "business_type": "① 飲食店営業",
      "address": "千葉県木更津市北浜町１番地 龍宮城スパホテル三日月　龍宮亭１Ｆ",
      "lat": 35.420882,
      "lng": 139.897596,
      "geocoding_level": null,
      "phone": "0438-41-8111",
      "license_no": "20210846",
      "license_date": "2022-04-08",
      "expire_date": "2029-04-30"
    },
    {
      "name": "カフェクレッセント",
      "name_kana": "カフェクレッセント",
      "business_type": "⑪ 百貨店、総合スーパー",
      "address": "千葉県木更津市北浜町１番地 龍宮城スパホテル三日月　龍宮亭１Ｆ",
      "lat": 35.420882,
      "lng": 139.897596,
      "geocoding_level": null,
      "phone": "0438-41-8111",
      "license_no": "",
      "license_date": null,
      "expire_date": null
    },
    {
      "name": "富士見亭バーラウンジ　海ほたる",
      "name_kana": "フジミテイバーラウンジ　ウミホタル",
      "business_type": "① 飲食店営業",
      "address": "千葉県木更津市北浜町１番地",
      "lat": 35.420882,
      "lng": 139.897596,
      "geocoding_level": null,
      "phone": "0438418111",
      "license_no": "20220051",
      "license_date": "2022-04-28",
      "expire_date": "2028-05-31"
    },
    {
      "name": "富士見亭ラウンジ　アクア",
      "name_kana": "フジミテイラウンジ　アクア",
      "business_type": "① 飲食店営業",
      "address": "千葉県木更津市北浜町１番地",
      "lat": 35.420882,
      "lng": 139.897596,
      "geocoding_level": null,
      "phone": "0438418111",
      "license_no": "20220052",
      "license_date": "2022-04-28",
      "expire_date": "2028-05-31"
    },
    {
      "name": "富士見亭３階バイキング　さくら",
      "name_kana": "フジミテイサンカイバイキング　サクラ",
      "business_type": "① 飲食店営業",
      "address": "千葉県木更津市北浜町１番地",
      "lat": 35.420882,
      "lng": 139.897596,
      "geocoding_level": null,
      "phone": "0438418111",
      "license_no": "20220053",
      "license_date": "2022-04-28",
      "expire_date": "2028-05-31"
    },
    {
      "name": "富士見亭５階　Ａｌｌ　Ｄａｙ　Ｄｉｎｉｎｇ　凪（ＮＡＧＩ）",
      "name_kana": "フジミテイゴカイオールデイダイニングナギ",
      "business_type": "① 飲食店営業",
      "address": "千葉県木更津市北浜町１番地",
      "lat": 35.420882,
      "lng": 139.897596,
      "geocoding_level": null,
      "phone": "0438418111",
      "license_no": "20220054",
      "license_date": "2022-04-28",
      "expire_date": "2028-05-31"
    },
    {
      "name": "富士見亭１階厨房",
      "name_kana": "フジミテイイッカイチュウボウ",
      "business_type": "① 飲食店営業",
      "address": "千葉県木更津市北浜町１番地",
      "lat": 35.420882,
      "lng": 139.897596,
      "geocoding_level": null,
      "phone": "0438-41-8421",
      "license_no": "20230018",
      "license_date": "2023-04-06",
      "expire_date": "2030-05-31"
    },
    {
      "name": "龍宮城ホテル三日月ライスセンター",
      "name_kana": "リュウグウジョウホテルミカヅキライスセンター",
      "business_type": "① 飲食店営業",
      "address": "千葉県木更津市北浜町１",
      "lat": 35.420882,
      "lng": 139.897596,
      "geocoding_level": null,
      "phone": "",
      "license_no": "20230099",
      "license_date": "2023-05-25",
      "expire_date": "2030-06-30"
    },
    {
      "name": "龍宮城スパ・ホテル三日月　プール売店",
      "name_kana": "リュウグウジョウスパホテルミカヅキプールバイテン",
      "business_type": "① 飲食店営業",
      "address": "千葉県木更津市北浜町１番地",
      "lat": 35.420882,
      "lng": 139.897596,
      "geocoding_level": null,
      "phone": "",
      "license_no": "20240148",
      "license_date": "2024-06-14",
      "expire_date": "2030-07-31"
    },
    {
      "name": "（株）権九",
      "name_kana": "カブシキガイシャ　ゴンク",
      "business_type": "④ 魚介類販売業",
      "address": "千葉県木更津市中央２－４－１７",
      "lat": 35.384033,
      "lng": 139.920932,
      "geocoding_level": null,
      "phone": "",
      "license_no": "20210011",
      "license_date": "2021-06-09",
      "expire_date": "2027-06-30"
    },
    {
      "name": "ドラッグストアマツモトキヨシ清見台東店",
      "name_kana": "ドラッグストアマツモトキヨシキヨミダイヒガシテン",
      "business_type": "⑬ その他の食料・飲料販売業",
      "address": "千葉県木更津市清見台東3-1-3",
      "lat": 35.381832,
      "lng": 139.959842,
      "geocoding_level": null,
      "phone": "0438-30-5233",
      "license_no": "",
      "license_date": null,
      "expire_date": null
    },
    {
      "name": "ドラッグストアマツモトキヨシ木更津店",
      "name_kana": "ドラッグストアマツモトキヨシキサラヅテン",
      "business_type": "③ 乳類販売業",
      "address": "千葉県木更津市木更津3-2-16",
      "lat": 35.381006,
      "lng": 139.936529,
      "geocoding_level": null,
      "phone": "0438-20-8155",
      "license_no": "",
      "license_date": null,
      "expire_date": null
    },
    {
      "name": "ドラッグストアマツモトキヨシ　木更津請西店",
      "name_kana": "ドラッグストアマツモトキヨシ　キサラヅジョウザイテン",
      "business_type": "③ 乳類販売業",
      "address": "千葉県木更津市請西南3-25-6",
      "lat": 35.360831,
      "lng": 139.946487,
      "geocoding_level": null,
      "phone": "0438-30-7021",
      "license_no": "",
      "license_date": null,
      "expire_date": null
    },
    {
      "name": "小規模保育園ココロ",
      "name_kana": "ショウキボホイクエンココロ",
      "business_type": "㉖ 集団給食施設",
      "address": "千葉県木更津市幸町１丁目２番１９号",
      "lat": 35.372937,
      "lng": 139.925827,
      "geocoding_level": null,
      "phone": "0438-55-9985",
      "license_no": "",
      "license_date": null,
      "expire_date": null
    },
    {
      "name": "グッディ・フォーユー六本木",
      "name_kana": "グッディ・フォーユーロッポンギ",
      "business_type": "⑬ その他の食料・飲料販売業",
      "address": "千葉県木更津市築地1-4 イオンモール木更津",
      "lat": 35.364064,
      "lng": 139.907461,
      "geocoding_level": null,
      "phone": "0438302600",
      "license_no": "",
      "license_date": null,
      "expire_date": null
    },
    {
      "name": "イェッピースイーツ",
      "name_kana": "イェッピースイーツ",
      "business_type": "⑬ その他の食料・飲料販売業",
      "address": "千葉県木更津市築地1-4 イオンモール木更津　１階インフォメーション前",
      "lat": 35.364875,
      "lng": 139.909751,
      "geocoding_level": null,
      "phone": "09081661776",
      "license_no": "",
      "license_date": null,
      "expire_date": null
    },
    {
      "name": "焼肉ＤＩＮＩＮＧ大和　木更津請西店",
      "name_kana": "ヤキニクダイニングヤマトキサラヅジョウザイテン",
      "business_type": "① 飲食店営業",
      "address": "千葉県木更津市請西東７－１２－３",
      "lat": 35.361796,
      "lng": 139.946956,
      "geocoding_level": null,
      "phone": "0438-36-0429",
      "license_no": "20210365",
      "license_date": "2021-09-09",
      "expire_date": "2027-10-31"
    },
    {
      "name": "27381売店",
      "name_kana": "ニイナナサンハチイチバイテン",
      "business_type": "③ 乳類販売業",
      "address": "千葉県木更津市東太田3丁目4-1",
      "lat": 35.375982,
      "lng": 139.956276,
      "geocoding_level": null,
      "phone": "",
      "license_no": "",
      "license_date": null,
      "expire_date": null
    },
    {
      "name": "4031事業所",
      "name_kana": "ヨンゼロサンイチジギョウショ",
      "business_type": "① 飲食店営業",
      "address": "千葉県木更津市潮見2-13-1",
      "lat": 35.374351,
      "lng": 139.914823,
      "geocoding_level": null,
      "phone": "",
      "license_no": "20220616",
      "license_date": "2023-02-09",
      "expire_date": "2030-03-31"
    },
    {
      "name": "27382b事業所",
      "name_kana": "ニナナサンハチニビージギョウショ",
      "business_type": "① 飲食店営業",
      "address": "千葉県木更津市築地2",
      "lat": 35.363505,
      "lng": 139.899708,
      "geocoding_level": null,
      "phone": "",
      "license_no": "20220677",
      "license_date": "2023-03-13",
      "expire_date": "2031-04-30"
    },
    {
      "name": "九州ラーメン　友理　本店",
      "name_kana": "キュウシュウラーメンユリホンテン",
      "business_type": "① 飲食店営業",
      "address": "千葉県木更津市港南台４－２－７",
      "lat": 35.347845,
      "lng": 139.910964,
      "geocoding_level": null,
      "phone": "0438-37-3875",
      "license_no": "20210116",
      "license_date": "2021-06-01",
      "expire_date": "2028-06-30"
    },
    {
      "name": "サニーライフ木更津",
      "name_kana": "サニーライフキサラヅ",
      "business_type": "㉖ 集団給食施設",
      "address": "千葉県木更津市請西東５－２２－４",
      "lat": 35.366094,
      "lng": 139.949141,
      "geocoding_level": null,
      "phone": "0438-36-3600",
      "license_no": "",
      "license_date": null,
      "expire_date": null
    },
    {
      "name": "ＫＵＲＫＫＵ　ＦＩＥＬＤＳ　シフォン",
      "name_kana": "クルックフィールズシフォン",
      "business_type": "⑰ 農産保存食料品製造・加工業",
      "address": "千葉県木更津市矢那２５０３",
      "lat": 35.324494,
      "lng": 139.982725,
      "geocoding_level": null,
      "phone": "0438-97-7401",
      "license_no": "",
      "license_date": null,
      "expire_date": null
    },
    {
      "name": "ＫＵＲＫＫＵ　ＦＩＥＬＤＳ　ＤＩＮＩＮＧ",
      "name_kana": "クルックフィールズダイニング",
      "business_type": "① 飲食店営業",
      "address": "千葉県木更津市矢那２５０３",
      "lat": 35.324494,
      "lng": 139.982725,
      "geocoding_level": null,
      "phone": "0438-97-7401",
      "license_no": "20250205",
      "license_date": "2025-07-31",
      "expire_date": "2031-08-31"
    },
    {
      "name": "ＫＵＲＫＫＵ　ＦＩＥＬＤＳ　ＤＩＮＩＮＧ",
      "name_kana": "クルックフィールズダイニング",
      "business_type": "⑰ 農産保存食料品製造・加工業",
      "address": "千葉県木更津市矢那２５０３",
      "lat": 35.325158,
      "lng": 139.982798,
      "geocoding_level": null,
      "phone": "0438-97-7401",
      "license_no": "",
      "license_date": null,
      "expire_date": null
    },
    {
      "name": "KURKKU FIELDS　シャルキュトリー",
      "name_kana": "クルックフィールズシャルキュトリー",
      "business_type": "㉖ 複合型そうざい製造業",
      "address": "千葉県木更津市矢那２５０３",
      "lat": 35.325158,
      "lng": 139.982798,
      "geocoding_level": null,
      "phone": "",
      "license_no": "20210001",
      "license_date": "2021-06-11",
      "expire_date": "2028-06-30"
    },
    {
      "name": "KURKKU FIELDS　シャルキュトリー",
      "name_kana": "クルックフィールズシャルキュトリー",
      "business_type": "① 飲食店営業",
      "address": "千葉県木更津市矢那２５０３",
      "lat": 35.325158,
      "lng": 139.982798,
      "geocoding_level": null,
      "phone": "",
      "license_no": "20210186",
      "license_date": "2021-06-11",
      "expire_date": "2026-06-30"
    },
    {
      "name": "農産物加工場",
      "name_kana": "ノウサンブツカコウジョウ",
      "business_type": "① 飲食店営業",
      "address": "千葉県木更津市矢那２５０３",
      "lat": 35.324494,
      "lng": 139.982725,
      "geocoding_level": null,
      "phone": "0438-97-7401",
      "license_no": "20210464",
      "license_date": "2021-10-28",
      "expire_date": "2028-10-31"
    },
    {
      "name": "農産物加工場",
      "name_kana": "ノウサンブツカコウジョウ",
      "business_type": "㉙ 漬物製造業",
      "address": "千葉県木更津市矢那２５０３",
      "lat": 35.324494,
      "lng": 139.982725,
      "geocoding_level": null,
      "phone": "0438-97-7401",
      "license_no": "20210004",
      "license_date": "2021-10-28",
      "expire_date": "2028-10-31"
    },
    {
      "name": "農産物加工場",
      "name_kana": "ノウサンブツカコウジョウ",
      "business_type": "㉚ 密封包装食品製造業",
      "address": "千葉県木更津市矢那２５０３",
      "lat": 35.324494,
      "lng": 139.982725,
      "geocoding_level": null,
      "phone": "0438-97-7401",
      "license_no": "20210001",
      "license_date": "2021-10-28",
      "expire_date": "2028-10-31"
    },
    {
      "name": "農産物加工場",
      "name_kana": "ノウサンブツカコウジョウ",
      "business_type": "⑱ 調味料製造・加工業",
      "address": "千葉県木更津市矢那２５０３",
      "lat": 35.324494,
      "lng": 139.982725,
      "geocoding_level": null,
      "phone": "0438-97-7401",
      "license_no": "",
      "license_date": null,
      "expire_date": null
    },
    {
      "name": "ＫＵＲＫＫＵ　ＦＩＥＬＤＳ",
      "name_kana": "クルックフィールズ",
      "business_type": "① 飲食店営業",
      "address": "千葉県木更津市矢那２５０３",
      "lat": 35.325158,
      "lng": 139.982798,
      "geocoding_level": null,
      "phone": "0438-97-7401",
      "license_no": "20210567",
      "license_date": "2021-11-29",
      "expire_date": "2026-11-30"
    },
    {
      "name": "農産物加工場",
      "name_kana": "ノウサンブツカコウジョウ",
      "business_type": "㉕ そうざい製造業",
      "address": "千葉県木更津市矢那２５０３",
      "lat": 35.325158,
      "lng": 139.982798,
      "geocoding_level": null,
      "phone": "0438-97-7401",
      "license_no": "20210034",
      "license_date": "2022-03-29",
      "expire_date": "2029-03-31"
    },
    {
      "name": "農産物加工場",
      "name_kana": "ノウサンブツカコウジョウ",
      "business_type": "㉗ 冷凍食品製造業",
      "address": "千葉県木更津市矢那２５０３",
      "lat": 35.325158,
      "lng": 139.982798,
      "geocoding_level": null,
      "phone": "0438-97-7401",
      "license_no": "20210001",
      "license_date": "2022-03-29",
      "expire_date": "2029-03-31"
    },
    {
      "name": "ＫＵＲＫＫＵ　ＦＩＥＬＤＳ　ＣＯＣＯＯＮ",
      "name_kana": "クルックフィールズコクーン",
      "business_type": "① 飲食店営業",
      "address": "千葉県木更津市矢那２５０３番地",
      "lat": 35.325158,
      "lng": 139.982798,
      "geocoding_level": null,
      "phone": "0438-97-7401",
      "license_no": "20220393",
      "license_date": "2022-09-30",
      "expire_date": "2028-09-30"
    },
    {
      "name": "KURKKU FIELDS CHARCUTERIE",
      "name_kana": "クルックフィールズ　シャルキュトリー",
      "business_type": "㉔ その他の食料品製造・加工業",
      "address": "千葉県木更津市矢那2503",
      "lat": 35.325158,
      "lng": 139.982798,
      "geocoding_level": null,
      "phone": "0438-53-7029",
      "license_no": "",
      "license_date": null,
      "expire_date": null
    },
    {
      "name": "ＫＵＲＫＫＵ  ＦＩＥＬＤＳ　シャルキュトリー",
      "name_kana": "クルックフィールズシャルキュトリー",
      "business_type": "① 飲食店営業",
      "address": "千葉県木更津市矢那２５０３",
      "lat": 35.325158,
      "lng": 139.982798,
      "geocoding_level": null,
      "phone": "0438-53-7029",
      "license_no": "20230022",
      "license_date": "2023-04-28",
      "expire_date": "2028-04-30"
    },
    {
      "name": "ＫＵＲＫＫＵ　ＦＩＥＬＤＳ　ＣＡＦＥ",
      "name_kana": "クルックフィールズカフェ",
      "business_type": "① 飲食店営業",
      "address": "千葉県木更津市富士見１丁目１－１",
      "lat": 35.381333,
      "lng": 139.926728,
      "geocoding_level": null,
      "phone": "",
      "license_no": "20230579",
      "license_date": "2024-03-19",
      "expire_date": "2030-03-31"
    },
    {
      "name": "KURKKU FIELDS Lanka",
      "name_kana": "クルックフィールズランカ",
      "business_type": "① 飲食店営業",
      "address": "千葉県木更津市矢那2503",
      "lat": 35.324494,
      "lng": 139.982725,
      "geocoding_level": null,
      "phone": "",
      "license_no": "20250206",
      "license_date": "2025-07-31",
      "expire_date": "2031-08-31"
    },
    {
      "name": "KURKKU FIELDS Lanka",
      "name_kana": "クルックフィールズランカ",
      "business_type": "⑪ 菓子製造業",
      "address": "千葉県木更津市矢那2503",
      "lat": 35.324494,
      "lng": 139.982725,
      "geocoding_level": null,
      "phone": "",
      "license_no": "20250023",
      "license_date": "2025-07-31",
      "expire_date": "2031-08-31"
    },
    {
      "name": "ＫＵＲＫＫＵ　ＦＩＥＬＤＳ　シフォン",
      "name_kana": "クルックフィールズシフォン",
      "business_type": "⑪ 菓子製造業",
      "address": "千葉県木更津市矢那２５０３",
      "lat": 35.324494,
      "lng": 139.982725,
      "geocoding_level": null,
      "phone": "0438-97-7401",
      "license_no": "20250030",
      "license_date": "2025-09-19",
      "expire_date": "2031-10-31"
    },
    {
      "name": "ソーセージ屋台",
      "name_kana": "ソーセージヤタイ",
      "business_type": "① 飲食店営業",
      "address": "千葉県木更津市矢那2503(県内一円)",
      "lat": 35.324494,
      "lng": 139.982725,
      "geocoding_level": null,
      "phone": "",
      "license_no": "20250320",
      "license_date": "2025-09-30",
      "expire_date": "2030-10-31"
    },
    {
      "name": "フライドポテト屋台",
      "name_kana": "フライドポテトヤタイ",
      "business_type": "① 飲食店営業",
      "address": "千葉県木更津市矢那2503(県内一円)",
      "lat": 35.324494,
      "lng": 139.982725,
      "geocoding_level": null,
      "phone": "",
      "license_no": "20250402",
      "license_date": "2025-11-05",
      "expire_date": "2030-11-30"
    },
    {
      "name": "KURKKU FIELDS屋台2",
      "name_kana": "クルックフィールズヤタイツー",
      "business_type": "① 飲食店営業",
      "address": "千葉県木更津市矢那2503(県内一円)",
      "lat": 35.324494,
      "lng": 139.982725,
      "geocoding_level": null,
      "phone": "",
      "license_no": "20250403",
      "license_date": "2025-11-05",
      "expire_date": "2030-11-30"
    },
    {
      "name": "TINY HOUSE VILLAGE",
      "name_kana": "タイニーハウス　ビレッジ",
      "business_type": "① 飲食店営業",
      "address": "千葉県木更津市矢那2503",
      "lat": 35.324494,
      "lng": 139.982725,
      "geocoding_level": null,
      "phone": "",
      "license_no": "20250374",
      "license_date": "2025-10-24",
      "expire_date": "2031-11-30"
    },
    {
      "name": "オーガニック　ブリッジ",
      "name_kana": "オーガニック　ブリッジ",
      "business_type": "⑨ 食肉処理業",
      "address": "千葉県木更津市矢那字向台木1528-217",
      "lat": 35.355733,
      "lng": 139.964842,
      "geocoding_level": null,
      "phone": "",
      "license_no": "20260001",
      "license_date": "2026-04-10",
      "expire_date": "2033-05-31"
    },
    {
      "name": "魚菜酒肴　開花屋",
      "name_kana": "ギョサイシュコウ　カイカヤ",
      "business_type": "① 飲食店営業",
      "address": "千葉県木更津市東中央2-2-16",
      "lat": 35.381388,
      "lng": 139.929813,
      "geocoding_level": null,
      "phone": "0438-25-2519",
      "license_no": "20210263",
      "license_date": "2021-07-21",
      "expire_date": "2028-08-31"
    },
    {
      "name": "魚菜酒肴　開花屋",
      "name_kana": "ギョサイシュコウ　カイカヤ",
      "business_type": "④ 魚介類販売業",
      "address": "千葉県木更津市東中央2-11-22",
      "lat": 35.381579,
      "lng": 139.930182,
      "geocoding_level": null,
      "phone": "",
      "license_no": "20210019",
      "license_date": "2021-08-20",
      "expire_date": "2027-08-31"
    },
    {
      "name": "魚菜酒肴　開花屋",
      "name_kana": "ギョサイシュコウ　カイカヤ",
      "business_type": "㉕ そうざい製造業",
      "address": "千葉県木更津市東中央2-11-22",
      "lat": 35.381579,
      "lng": 139.930182,
      "geocoding_level": null,
      "phone": "",
      "license_no": "20210014",
      "license_date": "2021-08-20",
      "expire_date": "2027-08-31"
    },
    {
      "name": "ヤマト醬店",
      "name_kana": "ヤマトショウテン",
      "business_type": "① 飲食店営業",
      "address": "千葉県木更津市長須賀929-2",
      "lat": 35.386627,
      "lng": 139.929218,
      "geocoding_level": null,
      "phone": "0438421839",
      "license_no": "20210444",
      "license_date": "2021-10-14",
      "expire_date": "2026-11-30"
    },
    {
      "name": "なかなか",
      "name_kana": "ナカナカ",
      "business_type": "① 飲食店営業",
      "address": "千葉県木更津市文京5-11-21",
      "lat": 35.373421,
      "lng": 139.929701,
      "geocoding_level": null,
      "phone": "0438-25-1414",
      "license_no": "20220276",
      "license_date": "2022-07-28",
      "expire_date": "2029-08-31"
    },
    {
      "name": "どでかっちゃん",
      "name_kana": "ドデカッチャン",
      "business_type": "① 飲食店営業",
      "address": "千葉県木更津市木更津3-1-1",
      "lat": 35.381362,
      "lng": 139.934119,
      "geocoding_level": null,
      "phone": "0438233705",
      "license_no": "20240386",
      "license_date": "2024-10-31",
      "expire_date": "2031-11-30"
    },
    {
      "name": "房総魚男",
      "name_kana": "ボウソウフィッシュマン",
      "business_type": "① 飲食店営業",
      "address": "千葉県木更津市大和1-3-2 沖津ビル1F",
      "lat": 35.380688,
      "lng": 139.927612,
      "geocoding_level": null,
      "phone": "0438-38-4460",
      "license_no": "20250582",
      "license_date": "2026-02-27",
      "expire_date": "2032-03-31"
    },
    {
      "name": "オランダ家　木更津東太田店",
      "name_kana": "オランダヤ　キサラヅヒガシオオタテン",
      "business_type": "⑬ その他の食料・飲料販売業",
      "address": "千葉県木更津市東太田2-17-3",
      "lat": 35.375993,
      "lng": 139.951476,
      "geocoding_level": null,
      "phone": "0438305430",
      "license_no": "",
      "license_date": null,
      "expire_date": null
    },
    {
      "name": "くら寿司　木更津金田店",
      "name_kana": "クラズシ　キサラヅカネダテン",
      "business_type": "① 飲食店営業",
      "address": "千葉県木更津市金田東3-1-3",
      "lat": 35.432731,
      "lng": 139.935782,
      "geocoding_level": null,
      "phone": "0438-40-1710",
      "license_no": "20240421",
      "license_date": "2024-11-22",
      "expire_date": "2030-12-31"
    },
    {
      "name": "舟吉田",
      "name_kana": "フネヨシダ",
      "business_type": "㉔ その他の食料品製造・加工業",
      "address": "千葉県木更津市真舟3-2-1",
      "lat": 35.357442,
      "lng": 139.938473,
      "geocoding_level": null,
      "phone": "0438-37-3155",
      "license_no": "",
      "license_date": null,
      "expire_date": null
    },
    {
      "name": "元祖からあげ本舗だるま　木更津新宿店",
      "name_kana": "ガンソカラアゲホンポダルマ　キサラヅシンジュクテン",
      "business_type": "① 飲食店営業",
      "address": "千葉県木更津市新宿1-5",
      "lat": 35.386558,
      "lng": 139.922934,
      "geocoding_level": null,
      "phone": "",
      "license_no": "20210284",
      "license_date": "2021-08-06",
      "expire_date": "2027-08-31"
    },
    {
      "name": "Ｔｈｅ　Ｊｕｉｃｅ",
      "name_kana": "ザジュース",
      "business_type": "① 飲食店営業",
      "address": "千葉県木更津市新宿１－４",
      "lat": 35.386593,
      "lng": 139.922991,
      "geocoding_level": null,
      "phone": "0438-53-7830",
      "license_no": "20210417",
      "license_date": "2021-10-12",
      "expire_date": "2028-10-31"
    },
    {
      "name": "岩根こども園",
      "name_kana": "イワネコドモエン",
      "business_type": "㉖ 集団給食施設",
      "address": "千葉県木更津市高柳３丁目９番１３号",
      "lat": 35.413674,
      "lng": 139.943478,
      "geocoding_level": null,
      "phone": "0438-41-1049",
      "license_no": "",
      "license_date": null,
      "expire_date": null
    },
    {
      "name": "久津間保育園",
      "name_kana": "クヅマホイクエン",
      "business_type": "㉖ 集団給食施設",
      "address": "千葉県木更津市久津間１０８４",
      "lat": 35.410008,
      "lng": 139.922454,
      "geocoding_level": null,
      "phone": "0438-41-4405",
      "license_no": "",
      "license_date": null,
      "expire_date": null
    },
    {
      "name": "宗泉堂",
      "name_kana": "ソウセンドウ",
      "business_type": "⑪ 菓子製造業",
      "address": "千葉県木更津市新宿10番8号",
      "lat": 35.386946,
      "lng": 139.921303,
      "geocoding_level": null,
      "phone": "",
      "license_no": "20210012",
      "license_date": "2021-06-01",
      "expire_date": "2027-06-30"
    },
    {
      "name": "菓匠将満",
      "name_kana": "カショウマサミツ",
      "business_type": "⑬ その他の食料・飲料販売業",
      "address": "千葉県木更津市築地1丁目4 イオンモール木更津",
      "lat": 35.363252,
      "lng": 139.908002,
      "geocoding_level": null,
      "phone": "",
      "license_no": "",
      "license_date": null,
      "expire_date": null
    },
    {
      "name": "炭焼　串心",
      "name_kana": "スミヤキクシゴコロ",
      "business_type": "① 飲食店営業",
      "address": "千葉県木更津市清見台２－２－１４",
      "lat": 35.385721,
      "lng": 139.942412,
      "geocoding_level": null,
      "phone": "",
      "license_no": "20210139",
      "license_date": "2021-06-01",
      "expire_date": "2026-06-30"
    },
    {
      "name": "のぞみワークショップ",
      "name_kana": "ノゾミワークショップ",
      "business_type": "① 飲食店営業",
      "address": "千葉県木更津市真里谷２４２２",
      "lat": 35.354743,
      "lng": 140.075732,
      "geocoding_level": null,
      "phone": "0438-53-7697",
      "license_no": "20210144",
      "license_date": "2021-06-01",
      "expire_date": "2028-06-30"
    },
    {
      "name": "ビリヤードカフェ　スプラッシュ",
      "name_kana": "ビリヤードカフェスプラッシュ",
      "business_type": "① 飲食店営業",
      "address": "千葉県木更津市東中央２－１０－１７ 三東ビル３F",
      "lat": 35.381761,
      "lng": 139.929327,
      "geocoding_level": null,
      "phone": "",
      "license_no": "20210145",
      "license_date": "2021-06-01",
      "expire_date": "2027-06-30"
    },
    {
      "name": "いなげや木更津請西店",
      "name_kana": "イナゲヤキサラズジョウザイテン",
      "business_type": "⑪ 百貨店、総合スーパー",
      "address": "千葉県木更津市請西2-9-1",
      "lat": 35.37476,
      "lng": 139.945337,
      "geocoding_level": null,
      "phone": "",
      "license_no": "",
      "license_date": null,
      "expire_date": null
    },
    {
      "name": "いなげや木更津請西店",
      "name_kana": "イナゲヤキサラズジョウザイテン",
      "business_type": "① 飲食店営業",
      "address": "千葉県木更津市請西２－９－１",
      "lat": 35.37476,
      "lng": 139.945337,
      "geocoding_level": null,
      "phone": "0438-37-9110",
      "license_no": "20210607",
      "license_date": "2021-12-20",
      "expire_date": "2027-01-31"
    },
    {
      "name": "いなげや木更津請西店　寿司",
      "name_kana": "イナゲヤキサラズジョウザイテン　スシ",
      "business_type": "① 飲食店営業",
      "address": "千葉県木更津市請西２－９－１",
      "lat": 35.37476,
      "lng": 139.945337,
      "geocoding_level": null,
      "phone": "0438-37-9110",
      "license_no": "20220460",
      "license_date": "2022-10-20",
      "expire_date": "2029-11-30"
    },
    {
      "name": "いなげや木更津請西店",
      "name_kana": "イナゲヤキサラヅジョウザイテン",
      "business_type": "⑪ 菓子製造業",
      "address": "千葉県木更津市請西２－９－１",
      "lat": 35.37476,
      "lng": 139.945337,
      "geocoding_level": null,
      "phone": "0438-37-9110",
      "license_no": "20240039",
      "license_date": "2024-11-15",
      "expire_date": "2031-12-31"
    },
    {
      "name": "いなげや木更津請西店",
      "name_kana": "イナゲヤキサラヅジョウザイテン",
      "business_type": "④ 魚介類販売業",
      "address": "千葉県木更津市請西2-9-1",
      "lat": 35.37476,
      "lng": 139.945337,
      "geocoding_level": null,
      "phone": "0438-37-9110",
      "license_no": "20250001",
      "license_date": "2025-04-11",
      "expire_date": "2032-05-31"
    },
    {
      "name": "株式会社ティーファームジャパン綱島園事業部",
      "name_kana": "カブシキガイシャティーファームジャパンツナシマエンジギョウブ",
      "business_type": "⑬ その他の食料・飲料販売業",
      "address": "千葉県木更津市潮浜1-17-12",
      "lat": 35.377644,
      "lng": 139.910704,
      "geocoding_level": null,
      "phone": "0438-37-1121",
      "license_no": "",
      "license_date": null,
      "expire_date": null
    },
    {
      "name": "魚豊",
      "name_kana": "ウオトヨ",
      "business_type": "④ 魚介類販売業",
      "address": "千葉県木更津市清見台２－５－１１",
      "lat": 35.38392,
      "lng": 139.947305,
      "geocoding_level": null,
      "phone": "0438-25-5422",
      "license_no": "20210010",
      "license_date": "2021-06-01",
      "expire_date": "2027-06-30"
    },
    {
      "name": "ドラッグセイムス木更津店",
      "name_kana": "ドラッグセイムスキサラズテン",
      "business_type": "⑬ その他の食料・飲料販売業",
      "address": "千葉県木更津市文京5-12-19",
      "lat": 35.373498,
      "lng": 139.928528,
      "geocoding_level": null,
      "phone": "0438201021",
      "license_no": "",
      "license_date": null,
      "expire_date": null
    },
    {
      "name": "ドラッグセイムス木更津太田店",
      "name_kana": "ドラッグセイムスキサラヅオオタテン",
      "business_type": "⑬ その他の食料・飲料販売業",
      "address": "千葉県木更津市太田4-15-11",
      "lat": 35.376564,
      "lng": 139.945429,
      "geocoding_level": null,
      "phone": "0438203881",
      "license_no": "",
      "license_date": null,
      "expire_date": null
    },
    {
      "name": "ドラッグセイムス木更津太田1丁目店",
      "name_kana": "ドラッグセイムスキサラヅオオタイッチョウメテン",
      "business_type": "⑬ その他の食料・飲料販売業",
      "address": "千葉県木更津市太田1-3-10",
      "lat": 35.385309,
      "lng": 139.939819,
      "geocoding_level": null,
      "phone": "0438405715",
      "license_no": "",
      "license_date": null,
      "expire_date": null
    },
    {
      "name": "ドラッグセイムス木更津岩根店",
      "name_kana": "ドラッグセイムスキサラヅイワネテン",
      "business_type": "⑬ その他の食料・飲料販売業",
      "address": "千葉県木更津市長須賀1777-1",
      "lat": 35.396896,
      "lng": 139.938566,
      "geocoding_level": null,
      "phone": "0438201226",
      "license_no": "",
      "license_date": null,
      "expire_date": null
    },
    {
      "name": "ドラッグセイムス木更津畑沢店",
      "name_kana": "ドラッグセイムスキサラヅハタザワテン",
      "business_type": "⑬ その他の食料・飲料販売業",
      "address": "千葉県木更津市畑沢南2-36-12",
      "lat": 35.340592,
      "lng": 139.90582,
      "geocoding_level": null,
      "phone": "",
      "license_no": "",
      "license_date": null,
      "expire_date": null
    },
    {
      "name": "ドラッグセイムス木更津請西南店",
      "name_kana": "ドラッグセイムスキサラヅジョウザイミナミテン",
      "business_type": "⑬ その他の食料・飲料販売業",
      "address": "千葉県木更津市請西南3-24-1",
      "lat": 35.359618,
      "lng": 139.94466,
      "geocoding_level": null,
      "phone": "0438307681",
      "license_no": "",
      "license_date": null,
      "expire_date": null
    },
    {
      "name": "ドラッグセイムス木更津新田店",
      "name_kana": "ドラッグセイムスキサラズニッタ",
      "business_type": "⑬ その他の食料・飲料販売業",
      "address": "千葉県木更津市新田3-1-7",
      "lat": 35.37848,
      "lng": 139.918058,
      "geocoding_level": null,
      "phone": "0438405580",
      "license_no": "",
      "license_date": null,
      "expire_date": null
    },
    {
      "name": "海鮮浜焼き　和新",
      "name_kana": "カイセンハマヤキワシン",
      "business_type": "① 飲食店営業",
      "address": "千葉県木更津市畔戸１４１６",
      "lat": 35.423834,
      "lng": 139.900965,
      "geocoding_level": null,
      "phone": "0438-41-7002",
      "license_no": "20210203",
      "license_date": "2021-06-18",
      "expire_date": "2027-06-30"
    },
    {
      "name": "パブ　ソワ",
      "name_kana": "パブソワ",
      "business_type": "① 飲食店営業",
      "address": "千葉県木更津市大和２－１６－１３",
      "lat": 35.379168,
      "lng": 139.930102,
      "geocoding_level": null,
      "phone": "0438-25-7688",
      "license_no": "20210121",
      "license_date": "2021-06-01",
      "expire_date": "2027-06-30"
    },
    {
      "name": "スナック　リヴァージュ",
      "name_kana": "スナックリヴァージュ",
      "business_type": "① 飲食店営業",
      "address": "千葉県木更津市富士見２－５－２ 伸和ビル２F",
      "lat": 35.380544,
      "lng": 139.920221,
      "geocoding_level": null,
      "phone": "0438-25-7161",
      "license_no": "20210134",
      "license_date": "2021-06-01",
      "expire_date": "2027-06-30"
    },
    {
      "name": "日南市じとっこ組合木更津東口店",
      "name_kana": "ニチナンシジトッコクミアイキサラヅヒガシグチテン",
      "business_type": "① 飲食店営業",
      "address": "千葉県木更津市大和１丁目１番５号 第二スズニビル１階",
      "lat": 35.380658,
      "lng": 139.927139,
      "geocoding_level": null,
      "phone": "0438-38-3844",
      "license_no": "20210147",
      "license_date": "2021-06-01",
      "expire_date": "2028-06-30"
    },
    {
      "name": "有限会社　伊藤川魚店",
      "name_kana": "ユウゲンガイシャイトウカワウオテン",
      "business_type": "⑯ 水産製品製造業",
      "address": "千葉県木更津市貝渕１－９－１",
      "lat": 35.375837,
      "lng": 139.922134,
      "geocoding_level": null,
      "phone": "0438-22-2062",
      "license_no": "20210001",
      "license_date": "2021-06-01",
      "expire_date": "2027-06-30"
    },
    {
      "name": "ルピシアボンマルシェ　三井アウトレットパーク木更津店",
      "name_kana": "ルピシアボンマルシェ　ミツイアウトレットパークキサラヅテン",
      "business_type": "⑬ その他の食料・飲料販売業",
      "address": "千葉県木更津市金田東3丁目1番1 三井アウトレットパーク木更津",
      "lat": 35.434582,
      "lng": 139.934927,
      "geocoding_level": null,
      "phone": "0438401655",
      "license_no": "",
      "license_date": null,
      "expire_date": null
    },
    {
      "name": "うた屋",
      "name_kana": "ウタヤ",
      "business_type": "① 飲食店営業",
      "address": "千葉県木更津市東太田２－１６－４",
      "lat": 35.37575,
      "lng": 139.953093,
      "geocoding_level": null,
      "phone": "0438-30-5030",
      "license_no": "20210132",
      "license_date": "2021-06-01",
      "expire_date": "2026-06-30"
    },
    {
      "name": "ゴディバ三井アウトレットパーク木更津店",
      "name_kana": "ゴディバミツイアウトレットパークキサラズテン",
      "business_type": "⑬ その他の食料・飲料販売業",
      "address": "千葉県木更津市金田東3－1－1 三井アウトレットパーク木更津 1F 区画番号6130",
      "lat": 35.433899,
      "lng": 139.932845,
      "geocoding_level": null,
      "phone": "0438422066",
      "license_no": "",
      "license_date": null,
      "expire_date": null
    },
    {
      "name": "ゴディバ　三井アウトレットパーク木更津",
      "name_kana": "ゴディバミツイアウトレットパークキサラヅ",
      "business_type": "① 飲食店営業",
      "address": "千葉県木更津市金田東３丁目１番地１",
      "lat": 35.434582,
      "lng": 139.934927,
      "geocoding_level": null,
      "phone": "0438-42-2066",
      "license_no": "20230062",
      "license_date": "2023-04-27",
      "expire_date": "2029-05-31"
    },
    {
      "name": "とみ食堂",
      "name_kana": "トミショクドウ",
      "business_type": "① 飲食店営業",
      "address": "千葉県木更津市椿５０９－５",
      "lat": 35.390668,
      "lng": 139.989857,
      "geocoding_level": null,
      "phone": "",
      "license_no": "20210141",
      "license_date": "2021-06-01",
      "expire_date": "2026-06-01"
    },
    {
      "name": "伝丸　木更津太田店",
      "name_kana": "デンマル　キサラヅオオタテン",
      "business_type": "① 飲食店営業",
      "address": "千葉県木更津市東太田3-3-13",
      "lat": 35.375648,
      "lng": 139.954787,
      "geocoding_level": null,
      "phone": "",
      "license_no": "20240520",
      "license_date": "2025-01-17",
      "expire_date": "2031-02-28"
    },
    {
      "name": "デニーズ木更津北店",
      "name_kana": "デニーズキサラヅキタテン",
      "business_type": "① 飲食店営業",
      "address": "千葉県木更津市朝日３－５－１５",
      "lat": 35.386463,
      "lng": 139.939263,
      "geocoding_level": null,
      "phone": "080-3458-7905",
      "license_no": "20210154",
      "license_date": "2021-07-01",
      "expire_date": "2029-07-31"
    },
    {
      "name": "デニーズ木更津北店",
      "name_kana": "デニーズキサラヅキタテン",
      "business_type": "⑬ その他の食料・飲料販売業",
      "address": "千葉県木更津市朝日３－５－１５",
      "lat": 35.386463,
      "lng": 139.939263,
      "geocoding_level": null,
      "phone": "080-3458-7905",
      "license_no": "",
      "license_date": null,
      "expire_date": null
    },
    {
      "name": "木更津ど冷えもん自販機",
      "name_kana": "キサラズドヒエモンジハンキ",
      "business_type": "⑫ 自動販売機による販売業（コップ式自動販売機（自動洗浄・屋内設置）及び営業許可の対象となる自動販売機を除く）",
      "address": "千葉県木更津市請西東7－12 吟家木更津店店頭",
      "lat": 35.36305,
      "lng": 139.947584,
      "geocoding_level": null,
      "phone": "0433105332",
      "license_no": "",
      "license_date": null,
      "expire_date": null
    },
    {
      "name": "イオンスタイル木更津　デリカ",
      "name_kana": "イオンスタイルキサラヅ　デリカ",
      "business_type": "① 飲食店営業",
      "address": "千葉県木更津市築地1-4",
      "lat": 35.364017,
      "lng": 139.909561,
      "geocoding_level": null,
      "phone": "0438-38-8600",
      "license_no": "20210501",
      "license_date": "2021-10-25",
      "expire_date": "2028-11-30"
    },
    {
      "name": "イオンスタイル木更津",
      "name_kana": "イオンスタイルキサラヅ",
      "business_type": "⑪ 百貨店、総合スーパー",
      "address": "千葉県木更津市築地1-4",
      "lat": 35.364875,
      "lng": 139.909751,
      "geocoding_level": null,
      "phone": "0438-38-8600",
      "license_no": "",
      "license_date": null,
      "expire_date": null
    },
    {
      "name": "イオンスタイル木更津　水産",
      "name_kana": "イオンスタイルキサラヅ　スイサン",
      "business_type": "④ 魚介類販売業",
      "address": "千葉県木更津市築地1-4",
      "lat": 35.364064,
      "lng": 139.907461,
      "geocoding_level": null,
      "phone": "0438-38-8600",
      "license_no": "20210022",
      "license_date": "2021-10-27",
      "expire_date": "2028-11-30"
    },
    {
      "name": "イオンスタイル木更津　畜産",
      "name_kana": "イオンスタイルキサラヅ　チクサン",
      "business_type": "③ 食肉販売業",
      "address": "千葉県木更津市築地1-4",
      "lat": 35.364875,
      "lng": 139.909751,
      "geocoding_level": null,
      "phone": "0438-38-8600",
      "license_no": "20210012",
      "license_date": "2021-10-27",
      "expire_date": "2028-11-30"
    },
    {
      "name": "イオンスタイル木更津　カンテボーレ",
      "name_kana": "イオンスタイルキサラヅ　カンテボーレ",
      "business_type": "⑪ 菓子製造業",
      "address": "千葉県木更津市築地1-4",
      "lat": 35.364875,
      "lng": 139.909751,
      "geocoding_level": null,
      "phone": "0438-38-8600",
      "license_no": "20210038",
      "license_date": "2021-10-27",
      "expire_date": "2028-11-30"
    },
    {
      "name": "イオンスタイル木更津　米飯",
      "name_kana": "イオンスタイルキサラヅ　ベイハン",
      "business_type": "① 飲食店営業",
      "address": "千葉県木更津市築地1-4",
      "lat": 35.364017,
      "lng": 139.909561,
      "geocoding_level": null,
      "phone": "0438-38-8600",
      "license_no": "20210503",
      "license_date": "2021-10-27",
      "expire_date": "2028-11-30"
    },
    {
      "name": "イオンスタイル木更津　寿司",
      "name_kana": "イオンスタイルキサラヅ　スシ",
      "business_type": "① 飲食店営業",
      "address": "千葉県木更津市築地1-4",
      "lat": 35.364017,
      "lng": 139.909561,
      "geocoding_level": null,
      "phone": "0438-38-8600",
      "license_no": "20210498",
      "license_date": "2021-10-27",
      "expire_date": "2028-11-30"
    },
    {
      "name": "イオンスタイル木更津　焼鳥",
      "name_kana": "イオンスタイルキサラヅ　ヤキトリ",
      "business_type": "① 飲食店営業",
      "address": "千葉県木更津市築地1-4",
      "lat": 35.364017,
      "lng": 139.909561,
      "geocoding_level": null,
      "phone": "0438-38-8600",
      "license_no": "20210502",
      "license_date": "2021-10-27",
      "expire_date": "2028-11-30"
    },
    {
      "name": "イオンスタイル木更津　焼き魚屋さん",
      "name_kana": "イオンスタイルキサラヅ　ヤキザカナヤサン",
      "business_type": "① 飲食店営業",
      "address": "千葉県木更津市築地1-4",
      "lat": 35.364875,
      "lng": 139.909751,
      "geocoding_level": null,
      "phone": "0438-38-8600",
      "license_no": "20210500",
      "license_date": "2021-10-27",
      "expire_date": "2028-11-30"
    },
    {
      "name": "イオンスタイル木更津　試食準備室",
      "name_kana": "イオンスタイルキサラヅ　シショクジュンビシツ",
      "business_type": "① 飲食店営業",
      "address": "千葉県木更津市築地1-4",
      "lat": 35.364875,
      "lng": 139.909751,
      "geocoding_level": null,
      "phone": "0438-38-8600",
      "license_no": "20210499",
      "license_date": "2021-10-27",
      "expire_date": "2028-11-30"
    },
    {
      "name": "イオンスタイル木更津　カンテボーレ",
      "name_kana": "イオンスタイルキサラヅ　カンテボーレ",
      "business_type": "① 飲食店営業",
      "address": "千葉県木更津市築地1-4",
      "lat": 35.364875,
      "lng": 139.909751,
      "geocoding_level": null,
      "phone": "0438-38-8600",
      "license_no": "20230105",
      "license_date": "2023-06-16",
      "expire_date": "2029-06-30"
    },
    {
      "name": "アフアフ",
      "name_kana": "アフアフ",
      "business_type": "① 飲食店営業",
      "address": "千葉県木更津市新田3-4-34（県内一円）",
      "lat": 35.377972,
      "lng": 139.916813,
      "geocoding_level": null,
      "phone": "",
      "license_no": "20210322",
      "license_date": "2021-08-05",
      "expire_date": "2026-08-31"
    },
    {
      "name": "ブラジル屋",
      "name_kana": "ブラジルヤ",
      "business_type": "① 飲食店営業",
      "address": "千葉県木更津市文京3丁目1-10",
      "lat": 35.376987,
      "lng": 139.934257,
      "geocoding_level": null,
      "phone": "0438225433",
      "license_no": "20210622",
      "license_date": "2022-01-13",
      "expire_date": "2028-02-29"
    },
    {
      "name": "房の駅",
      "name_kana": "フサノエキ",
      "business_type": "② 食肉販売業（包装済みの食肉のみの販売）",
      "address": "千葉県木更津市中島地先海ほたる",
      "lat": 35.46454,
      "lng": 139.874086,
      "geocoding_level": null,
      "phone": "0438-40-1311",
      "license_no": "",
      "license_date": null,
      "expire_date": null
    },
    {
      "name": "房の駅",
      "name_kana": "フサノエキ",
      "business_type": "③ 乳類販売業",
      "address": "千葉県木更津市中島地先海ほたる",
      "lat": 35.46454,
      "lng": 139.874086,
      "geocoding_level": null,
      "phone": "0438-40-1311",
      "license_no": "",
      "license_date": null,
      "expire_date": null
    },
    {
      "name": "房の駅",
      "name_kana": "フサノエキ",
      "business_type": "⑥ 弁当販売業",
      "address": "千葉県木更津市中島地先海ほたる",
      "lat": 35.46454,
      "lng": 139.874086,
      "geocoding_level": null,
      "phone": "0438-40-1311",
      "license_no": "",
      "license_date": null,
      "expire_date": null
    },
    {
      "name": "房の駅",
      "name_kana": "フサノエキ",
      "business_type": "⑦ 野菜果物販売業",
      "address": "千葉県木更津市中島地先海ほたる",
      "lat": 35.46454,
      "lng": 139.874086,
      "geocoding_level": null,
      "phone": "0438-40-1311",
      "license_no": "",
      "license_date": null,
      "expire_date": null
    },
    {
      "name": "房の駅",
      "name_kana": "フサノエキ",
      "business_type": "⑧ 米穀類販売業",
      "address": "千葉県木更津市中島地先海ほたる",
      "lat": 35.46454,
      "lng": 139.874086,
      "geocoding_level": null,
      "phone": "0438-40-1311",
      "license_no": "",
      "license_date": null,
      "expire_date": null
    },
    {
      "name": "房の駅",
      "name_kana": "フサノエキ",
      "business_type": "⑬ その他の食料・飲料販売業",
      "address": "千葉県木更津市中島地先海ほたる",
      "lat": 35.46454,
      "lng": 139.874086,
      "geocoding_level": null,
      "phone": "0438-40-1311",
      "license_no": "",
      "license_date": null,
      "expire_date": null
    },
    {
      "name": "トミーズプリン工房",
      "name_kana": "トミーズプリンコウボウ",
      "business_type": "⑬ その他の食料・飲料販売業",
      "address": "千葉県木更津市金田東3-1-1 三井アウトレットパーク木更津　イベントブース内",
      "lat": 35.434582,
      "lng": 139.934927,
      "geocoding_level": null,
      "phone": "",
      "license_no": "",
      "license_date": null,
      "expire_date": null
    },
    {
      "name": "ロイヤル　マリンコート",
      "name_kana": "ロイヤル　マリンコート",
      "business_type": "③ 乳類販売業",
      "address": "千葉県木更津市中島地先海ほたるPA５F",
      "lat": 35.46454,
      "lng": 139.874086,
      "geocoding_level": null,
      "phone": "0438-41-5841",
      "license_no": "",
      "license_date": null,
      "expire_date": null
    },
    {
      "name": "明治屋アウトレット（三井アウトレットパーク木更津）",
      "name_kana": "メイジヤアウトレット　ミツイアウトレットパークキサラズ",
      "business_type": "③ 乳類販売業",
      "address": "千葉県木更津市金田東3丁目1-1",
      "lat": 35.434582,
      "lng": 139.934927,
      "geocoding_level": null,
      "phone": "0438386100",
      "license_no": "",
      "license_date": null,
      "expire_date": null
    },
    {
      "name": "パティスリー・サダハル・アオキ・パリ",
      "name_kana": "パティスリー・サダハル・アオキ・パリ",
      "business_type": "① 飲食店営業",
      "address": "千葉県木更津市金田東3-1-1 三井アウトレットパーク木更津1F",
      "lat": 35.434582,
      "lng": 139.934927,
      "geocoding_level": null,
      "phone": "",
      "license_no": "20210233",
      "license_date": "2021-07-09",
      "expire_date": "2027-07-31"
    },
    {
      "name": "特別養護老人ホームさつき園",
      "name_kana": "トクベツヨウゴロウジンホームサツキエン",
      "business_type": "㉖ 集団給食施設",
      "address": "千葉県木更津市長須賀1219",
      "lat": 35.398478,
      "lng": 139.934207,
      "geocoding_level": null,
      "phone": "0438-23-2555",
      "license_no": "",
      "license_date": null,
      "expire_date": null
    },
    {
      "name": "魚河岸ととや７７",
      "name_kana": "ウオガシトトヤナナジュウナナ",
      "business_type": "⑯ 水産製品製造業",
      "address": "千葉県木更津市東中央２丁目１１−１ a",
      "lat": 35.381591,
      "lng": 139.929942,
      "geocoding_level": null,
      "phone": "0438224488",
      "license_no": "20210002",
      "license_date": "2021-07-16",
      "expire_date": "2027-07-31"
    },
    {
      "name": "魚や　７７",
      "name_kana": "トトヤ　ナナジュウナナ",
      "business_type": "④ 魚介類販売業",
      "address": "千葉県木更津市東中央２－１１－１",
      "lat": 35.381591,
      "lng": 139.929942,
      "geocoding_level": null,
      "phone": "",
      "license_no": "20220002",
      "license_date": "2022-08-25",
      "expire_date": "2028-09-30"
    },
    {
      "name": "ひがしぐち・まるしぇ",
      "name_kana": "ヒガシグチマルシェ",
      "business_type": "① 飲食店営業",
      "address": "千葉県木更津市東中央２－１１－１　Ｊ",
      "lat": 35.381658,
      "lng": 139.930587,
      "geocoding_level": null,
      "phone": "0438-25-7733",
      "license_no": "20230452",
      "license_date": "2023-11-24",
      "expire_date": "2028-12-31"
    },
    {
      "name": "四季味宴席たく",
      "name_kana": "シキミエンセキタク",
      "business_type": "① 飲食店営業",
      "address": "千葉県木更津市東中央２−１１−１",
      "lat": 35.381605,
      "lng": 139.929905,
      "geocoding_level": null,
      "phone": "0438-22-4488",
      "license_no": "20240289",
      "license_date": "2024-08-30",
      "expire_date": "2030-09-30"
    },
    {
      "name": "菓匠　将満",
      "name_kana": "カショウ　マサミツ",
      "business_type": "⑬ その他の食料・飲料販売業",
      "address": "千葉県木更津市築地1丁目4 イオンモール木更津　1F催事場",
      "lat": 35.364405,
      "lng": 139.907501,
      "geocoding_level": null,
      "phone": "0438302600",
      "license_no": "",
      "license_date": null,
      "expire_date": null
    },
    {
      "name": "菓匠　将満",
      "name_kana": "カショウ　マサミツ",
      "business_type": "⑬ その他の食料・飲料販売業",
      "address": "千葉県木更津市金田東3-1-1 三井アウトレットパーク木更津　ステージ裏イベントスペース",
      "lat": 35.434582,
      "lng": 139.934927,
      "geocoding_level": null,
      "phone": "0438386100",
      "license_no": "",
      "license_date": null,
      "expire_date": null
    },
    {
      "name": "菓匠　将満",
      "name_kana": "カショウ　マサミツ",
      "business_type": "⑬ その他の食料・飲料販売業",
      "address": "千葉県木更津市金田東3-1-1 三井アウトレットパーク木更津　ステージ裏イベントスペース",
      "lat": 35.434582,
      "lng": 139.934927,
      "geocoding_level": null,
      "phone": "0438386100",
      "license_no": "",
      "license_date": null,
      "expire_date": null
    },
    {
      "name": "ホルモン広場",
      "name_kana": "ホルモンヒロバ",
      "business_type": "① 飲食店営業",
      "address": "千葉県木更津市清見台１－３－２０",
      "lat": 35.385862,
      "lng": 139.942877,
      "geocoding_level": null,
      "phone": "",
      "license_no": "20210176",
      "license_date": "2021-07-01",
      "expire_date": "2026-07-31"
    },
    {
      "name": "イオンモール木更津",
      "name_kana": "イオンモールキサラヅ",
      "business_type": "⑬ その他の食料・飲料販売業",
      "address": "千葉県木更津市築地1番4",
      "lat": 35.358435,
      "lng": 139.902743,
      "geocoding_level": null,
      "phone": "",
      "license_no": "",
      "license_date": null,
      "expire_date": null
    },
    {
      "name": "イオンモール木更津",
      "name_kana": "イオンモールキサラヅ",
      "business_type": "⑬ その他の食料・飲料販売業",
      "address": "千葉県木更津市築地1番4",
      "lat": 35.364875,
      "lng": 139.909751,
      "geocoding_level": null,
      "phone": "",
      "license_no": "",
      "license_date": null,
      "expire_date": null
    },
    {
      "name": "特別養護老人ホーム　中郷記念館",
      "name_kana": "トクベツヨウゴロウジンホーム　ナカゴキネンカン",
      "business_type": "③ 乳類販売業",
      "address": "千葉県木更津市井尻９５１",
      "lat": 35.40535,
      "lng": 139.975058,
      "geocoding_level": null,
      "phone": "0438-97-2721",
      "license_no": "",
      "license_date": null,
      "expire_date": null
    },
    {
      "name": "エムズ",
      "name_kana": "エムズ",
      "business_type": "③ 乳類販売業",
      "address": "千葉県木更津市太田１－４－６",
      "lat": 35.383928,
      "lng": 139.938725,
      "geocoding_level": null,
      "phone": "0438-25-2262",
      "license_no": "",
      "license_date": null,
      "expire_date": null
    },
    {
      "name": "森田医院",
      "name_kana": "モリタイイン",
      "business_type": "③ 乳類販売業",
      "address": "千葉県木更津市大久保１－８－７",
      "lat": 35.343498,
      "lng": 139.931685,
      "geocoding_level": null,
      "phone": "0438-37-3684",
      "license_no": "",
      "license_date": null,
      "expire_date": null
    },
    {
      "name": "日鉄ビジネスサービス東日本株式会社",
      "name_kana": "ニッテツビジネスサービスヒガシニホンカブシキカイシャ",
      "business_type": "③ 乳類販売業",
      "address": "千葉県木更津市築地１－１ 君津製鐵所ビジネスセンター２０２号室",
      "lat": 35.357807,
      "lng": 139.901861,
      "geocoding_level": null,
      "phone": "0438-40-5500",
      "license_no": "",
      "license_date": null,
      "expire_date": null
    },
    {
      "name": "KY 医療法人互生会アクアリハビリテーション病院",
      "name_kana": "ケイワイ　イリョウホウジンゴセイカイアクアリハビリテーションビョウイン",
      "business_type": "③ 乳類販売業",
      "address": "千葉県木更津市矢那４４９０－５",
      "lat": 35.365097,
      "lng": 139.953139,
      "geocoding_level": null,
      "phone": "",
      "license_no": "",
      "license_date": null,
      "expire_date": null
    },
    {
      "name": "ホテル　アロマ",
      "name_kana": "ホテルアロマ",
      "business_type": "① 飲食店営業",
      "address": "千葉県木更津市請西１－２－３",
      "lat": 35.370705,
      "lng": 139.939253,
      "geocoding_level": null,
      "phone": "0438-38-0401",
      "license_no": "20210157",
      "license_date": "2021-07-01",
      "expire_date": "2027-07-31"
    },
    {
      "name": "小規模保育園こころのつぼみ",
      "name_kana": "ショウキボホイクエンココロノツボミ",
      "business_type": "㉖ 集団給食施設",
      "address": "千葉県木更津市瓜倉",
      "lat": 35.427788,
      "lng": 139.917469,
      "geocoding_level": null,
      "phone": "",
      "license_no": "",
      "license_date": null,
      "expire_date": null
    },
    {
      "name": "割烹　松立",
      "name_kana": "カッポウマツタテ",
      "business_type": "① 飲食店営業",
      "address": "千葉県木更津市富士見２－５－４８",
      "lat": 35.380383,
      "lng": 139.919661,
      "geocoding_level": null,
      "phone": "",
      "license_no": "20210161",
      "license_date": "2021-07-01",
      "expire_date": "2027-07-31"
    },
    {
      "name": "としまや弁当　新宿店",
      "name_kana": "トシマヤベントウシンジュクテン",
      "business_type": "① 飲食店営業",
      "address": "千葉県木更津市新宿７－２",
      "lat": 35.386848,
      "lng": 139.917019,
      "geocoding_level": null,
      "phone": "0438-25-7520",
      "license_no": "20230294",
      "license_date": "2023-09-07",
      "expire_date": "2029-10-31"
    },
    {
      "name": "としまや弁当　新宿店",
      "name_kana": "トシマヤベントウシンジュクテン",
      "business_type": "③ 乳類販売業",
      "address": "千葉県木更津市新宿７－２",
      "lat": 35.386848,
      "lng": 139.917019,
      "geocoding_level": null,
      "phone": "0438-25-7520",
      "license_no": "",
      "license_date": null,
      "expire_date": null
    },
    {
      "name": "としまや弁当　馬来田店",
      "name_kana": "トシマヤベントウマクタテン",
      "business_type": "① 飲食店営業",
      "address": "千葉県木更津市茅野１６５－１",
      "lat": 35.361175,
      "lng": 140.057557,
      "geocoding_level": null,
      "phone": "0438-53-4715",
      "license_no": "20230348",
      "license_date": "2023-10-06",
      "expire_date": "2029-11-30"
    },
    {
      "name": "川清",
      "name_kana": "カワセイ",
      "business_type": "① 飲食店営業",
      "address": "千葉県木更津市清見台東１－２－１６",
      "lat": 35.383643,
      "lng": 139.950298,
      "geocoding_level": null,
      "phone": "0438-98-4570",
      "license_no": "20210182",
      "license_date": "2021-07-01",
      "expire_date": "2026-07-31"
    },
    {
      "name": "キッチン　グリーン　グラス",
      "name_kana": "キッチングリーングラス",
      "business_type": "① 飲食店営業",
      "address": "千葉県木更津市畑沢南１－５－８　１０５号室",
      "lat": 35.345156,
      "lng": 139.899476,
      "geocoding_level": null,
      "phone": "",
      "license_no": "20210198",
      "license_date": "2021-07-01",
      "expire_date": "2027-07-31"
    },
    {
      "name": "有限会社　かつしげ",
      "name_kana": "カツシゲ",
      "business_type": "① 飲食店営業",
      "address": "千葉県木更津市中央３－１５－７",
      "lat": 35.385053,
      "lng": 139.91833,
      "geocoding_level": null,
      "phone": "0438-23-7255",
      "license_no": "20210206",
      "license_date": "2021-07-01",
      "expire_date": "2027-07-31"
    },
    {
      "name": "クイーン",
      "name_kana": "クイーン",
      "business_type": "① 飲食店営業",
      "address": "千葉県木更津市大和２－１３－２ ソシアルシックスビル２Ｆ－Ａ号",
      "lat": 35.379003,
      "lng": 139.929641,
      "geocoding_level": null,
      "phone": "0439258900",
      "license_no": "20210222",
      "license_date": "2021-07-09",
      "expire_date": "2027-07-31"
    },
    {
      "name": "カインズ木更津金田店",
      "name_kana": "カインズキサラヅカネタテン",
      "business_type": "⑧ 米穀類販売業",
      "address": "千葉県木更津市金田東三丁目１番３",
      "lat": 35.432762,
      "lng": 139.935969,
      "geocoding_level": null,
      "phone": "0438-40-1555",
      "license_no": "",
      "license_date": null,
      "expire_date": null
    },
    {
      "name": "木更津市立鎌足小学校",
      "name_kana": "キサラヅシリツカマタリショウガッコウ",
      "business_type": "① 飲食店営業",
      "address": "千葉県木更津市矢那６０９",
      "lat": 35.352753,
      "lng": 139.975188,
      "geocoding_level": null,
      "phone": "",
      "license_no": "20220696",
      "license_date": "2023-03-24",
      "expire_date": "2030-03-31"
    },
    {
      "name": "IDEBOK　Sweets　Cafe",
      "name_kana": "イデボクスイーツカフェ",
      "business_type": "③ 乳類販売業",
      "address": "千葉県木更津市中島地先海ほたるPA４階",
      "lat": 35.463797,
      "lng": 139.875323,
      "geocoding_level": null,
      "phone": "0438400566",
      "license_no": "",
      "license_date": null,
      "expire_date": null
    },
    {
      "name": "IDEBOK　Sweets　Cafe",
      "name_kana": "イデボクスイーツカフェ",
      "business_type": "⑬ その他の食料・飲料販売業",
      "address": "千葉県木更津市中島地先海ほたるPA４階",
      "lat": 35.463797,
      "lng": 139.875323,
      "geocoding_level": null,
      "phone": "0438400566",
      "license_no": "",
      "license_date": null,
      "expire_date": null
    },
    {
      "name": "ＩＤＥＢＯＫ　Ｓｗｅｅｔｓ　Ｃａｆｅ",
      "name_kana": "イデボクスイーツカフェ",
      "business_type": "① 飲食店営業",
      "address": "千葉県木更津市中島地先海ほたるＰＡ内",
      "lat": 35.463797,
      "lng": 139.875323,
      "geocoding_level": null,
      "phone": "0438-40-0566",
      "license_no": "20220556",
      "license_date": "2022-12-22",
      "expire_date": "2028-01-31"
    },
    {
      "name": "ファミリーマート木更津駅東口店",
      "name_kana": "ファミリーマートキサラヅエキヒガシグチテン",
      "business_type": "① 飲食店営業",
      "address": "千葉県木更津市東中央１－２－４ 第１木更津ビル１F",
      "lat": 35.381847,
      "lng": 139.927499,
      "geocoding_level": null,
      "phone": "0438-22-2010",
      "license_no": "20210267",
      "license_date": "2021-07-21",
      "expire_date": "2026-08-31"
    },
    {
      "name": "ファミリーマート　木更津駅東口店",
      "name_kana": "ファミリーマートキサラヅエキヒガシグチテン",
      "business_type": "⑩ コンビニエンスストア",
      "address": "千葉県木更津市東中央１－２－４ 第１木更津ビル１Ｆ",
      "lat": 35.381843,
      "lng": 139.927579,
      "geocoding_level": null,
      "phone": "0438-22-2010",
      "license_no": "",
      "license_date": null,
      "expire_date": null
    },
    {
      "name": "ファミリーマート　木更津久津間店",
      "name_kana": "ファミリーマートキサラヅクヅマテン",
      "business_type": "⑩ コンビニエンスストア",
      "address": "千葉県木更津市久津間９８０番１",
      "lat": 35.415707,
      "lng": 139.919431,
      "geocoding_level": null,
      "phone": "0438-41-7085",
      "license_no": "",
      "license_date": null,
      "expire_date": null
    },
    {
      "name": "ファミリーマート木更津駅前店",
      "name_kana": "ファミリーマートキサラヅエキマエテン",
      "business_type": "① 飲食店営業",
      "address": "千葉県木更津市大和１丁目１番地３",
      "lat": 35.381081,
      "lng": 139.927159,
      "geocoding_level": null,
      "phone": "",
      "license_no": "20250256",
      "license_date": "2025-09-08",
      "expire_date": "2031-09-30"
    },
    {
      "name": "ファミリーマート木更津駅前店",
      "name_kana": "ファミリーマートキサラヅエキマエテン",
      "business_type": "⑩ コンビニエンスストア",
      "address": "千葉県木更津市大和一丁目1番地3",
      "lat": 35.381081,
      "lng": 139.927159,
      "geocoding_level": null,
      "phone": "0438-20-2070",
      "license_no": "",
      "license_date": null,
      "expire_date": null
    },
    {
      "name": "高級「生」食パン専門店　乃が美はなれ市原ちはら台店",
      "name_kana": "コウキュウナマショクパンセンモンテン　ノガミハナレイチハラチハラダイテン",
      "business_type": "⑬ その他の食料・飲料販売業",
      "address": "千葉県木更津市金田東5-2-1 ベイシア木更津金田店",
      "lat": 35.427934,
      "lng": 139.929802,
      "geocoding_level": null,
      "phone": "0438801112",
      "license_no": "",
      "license_date": null,
      "expire_date": null
    },
    {
      "name": "King",
      "name_kana": "キング",
      "business_type": "⑥ 弁当販売業",
      "address": "千葉県木更津市請西2-10-16 池田マンション103",
      "lat": 35.374637,
      "lng": 139.946139,
      "geocoding_level": null,
      "phone": "07031564904",
      "license_no": "",
      "license_date": null,
      "expire_date": null
    },
    {
      "name": "King",
      "name_kana": "キング",
      "business_type": "⑥ 弁当販売業",
      "address": "千葉県木更津市請西2-10-16 池田マンション103",
      "lat": 35.374637,
      "lng": 139.946139,
      "geocoding_level": null,
      "phone": "07031564904",
      "license_no": "",
      "license_date": null,
      "expire_date": null
    },
    {
      "name": "イオンタウン木更津朝日",
      "name_kana": "イオンタウンキサラヅアサヒ",
      "business_type": "㉘ 露店、仮設店舗等における飲食の提供のうち、営業とみなされないもの",
      "address": "千葉県木更津市朝日3-10-19",
      "lat": 35.384739,
      "lng": 139.936009,
      "geocoding_level": null,
      "phone": "0438239213",
      "license_no": "",
      "license_date": null,
      "expire_date": null
    },
    {
      "name": "マックスバリュ　木更津太田店　水産惣菜",
      "name_kana": "マックスバリュキサラヅオオタテンスイサンソウザイ",
      "business_type": "① 飲食店営業",
      "address": "千葉県木更津市太田４－１８",
      "lat": 35.376282,
      "lng": 139.944219,
      "geocoding_level": null,
      "phone": "0438-22-7811",
      "license_no": "20210467",
      "license_date": "2021-10-20",
      "expire_date": "2028-10-31"
    },
    {
      "name": "マックスバリュ　木更津太田店　水産寿司",
      "name_kana": "マックスバリュキサラヅオオタテンスイサンスシ",
      "business_type": "① 飲食店営業",
      "address": "千葉県木更津市太田４－１８",
      "lat": 35.376282,
      "lng": 139.944219,
      "geocoding_level": null,
      "phone": "0438-22-7811",
      "license_no": "20210468",
      "license_date": "2021-10-20",
      "expire_date": "2028-10-31"
    },
    {
      "name": "マックスバリュ　木更津太田店",
      "name_kana": "マックスバリュキサラヅオオタテン",
      "business_type": "⑪ 百貨店、総合スーパー",
      "address": "千葉県木更津市太田４－１８",
      "lat": 35.376282,
      "lng": 139.944219,
      "geocoding_level": null,
      "phone": "0438-22-7811",
      "license_no": "",
      "license_date": null,
      "expire_date": null
    },
    {
      "name": "マックスバリュ木更津請西店",
      "name_kana": "マックスバリュキサラヅジョウザイテン",
      "business_type": "⑪ 百貨店、総合スーパー",
      "address": "千葉県木更津市請西南2丁目27番1号",
      "lat": 35.3596,
      "lng": 139.944,
      "geocoding_level": null,
      "phone": "0438-30-6500",
      "license_no": "",
      "license_date": null,
      "expire_date": null
    },