{
  "meta": {
    "updated": 1783568789,
    "sources": [
      {
        "source": "厚生労働省 食品衛生申請等システム（オープンデータ）",
        "license": "公共データ利用規約（第1.0版, PDL1.0）"
      }
    ]
  },
  "data": [
    {
      "name": "ダイソー　ダイエー田辺ショッピングセンター店",
      "name_kana": "ダイソー　ダイエータナベショッピングセンターテン",
      "business_type": "⑬ その他の食料・飲料販売業",
      "address": "和歌山県田辺市宝来町２４番２６号 ダイエー田辺ショッピングセンター店２階",
      "lat": 33.734743,
      "lng": 135.388199,
      "geocoding_level": null,
      "phone": "",
      "license_no": "",
      "license_date": null,
      "expire_date": null
    },
    {
      "name": "ダイソー　オークワ田辺店",
      "name_kana": "ダイソー　オークワタナベテン",
      "business_type": "⑬ その他の食料・飲料販売業",
      "address": "和歌山県田辺市稲成町新江原３１６５ パビリオンシティ田辺Ｃ館１階",
      "lat": 33.744616,
      "lng": 135.375398,
      "geocoding_level": null,
      "phone": "",
      "license_no": "",
      "license_date": null,
      "expire_date": null
    },
    {
      "name": "ホームストックコーナン本宮店",
      "name_kana": "ホームストックコーナンホングウテン",
      "business_type": "⑪ 百貨店、総合スーパー",
      "address": "和歌山県田辺市本宮町本宮280番地5",
      "lat": 33.837109,
      "lng": 135.774648,
      "geocoding_level": null,
      "phone": "0735-42-8201",
      "license_no": "",
      "license_date": null,
      "expire_date": null
    },
    {
      "name": "コーナン田辺店",
      "name_kana": "コーナンタナベテン",
      "business_type": "⑪ 百貨店、総合スーパー",
      "address": "和歌山県田辺市下万呂748",
      "lat": 33.740539,
      "lng": 135.395693,
      "geocoding_level": null,
      "phone": "",
      "license_no": "",
      "license_date": null,
      "expire_date": null
    },
    {
      "name": "Aコープ　DELISIS　INARI店",
      "name_kana": "エーコープデリシャスイナリテン",
      "business_type": "⑫ 自動販売機による販売業（コップ式自動販売機（自動洗浄・屋内設置）及び営業許可の対象となる自動販売機を除く）",
      "address": "和歌山県田辺市稲成町3194",
      "lat": 33.743268,
      "lng": 135.376493,
      "geocoding_level": null,
      "phone": "",
      "license_no": "",
      "license_date": null,
      "expire_date": null
    },
    {
      "name": "Aコープ　COOK GARDEN店",
      "name_kana": "エーコープ　クックガーデンテン",
      "business_type": "⑫ 自動販売機による販売業（コップ式自動販売機（自動洗浄・屋内設置）及び営業許可の対象となる自動販売機を除く）",
      "address": "和歌山県田辺市下万呂573",
      "lat": 33.740084,
      "lng": 135.391542,
      "geocoding_level": null,
      "phone": "",
      "license_no": "",
      "license_date": null,
      "expire_date": null
    },
    {
      "name": "パルコ21ゴルフセンター場内②",
      "name_kana": "パルコニュウイチゴルフセンタージョウナイニ",
      "business_type": "② 調理機能を有する自動販売機（要許可）",
      "address": "和歌山県田辺市下三栖1472",
      "lat": 33.730029,
      "lng": 135.419121,
      "geocoding_level": null,
      "phone": "",
      "license_no": "7-25-1-02-125",
      "license_date": "2025-07-03",
      "expire_date": "2030-07-31"
    },
    {
      "name": "スーパードラッグキリン下万呂西店",
      "name_kana": "スーパードラッグキリンシモマロニシテン",
      "business_type": "⑪ 百貨店、総合スーパー",
      "address": "和歌山県田辺市下万呂560-1",
      "lat": 33.740333,
      "lng": 135.390781,
      "geocoding_level": null,
      "phone": "0739-33-2220",
      "license_no": "",
      "license_date": null,
      "expire_date": null
    },
    {
      "name": "スーパードラッグキリン万呂店",
      "name_kana": "スーパードラッグキリンマロテン",
      "business_type": "⑪ 百貨店、総合スーパー",
      "address": "和歌山県田辺市下万呂裏代４１８",
      "lat": 33.738967,
      "lng": 135.395473,
      "geocoding_level": null,
      "phone": "0739-81-3366",
      "license_no": "",
      "license_date": null,
      "expire_date": null
    },
    {
      "name": "スーパードラッグキリン田辺東山店",
      "name_kana": "スーパードラッグキリンタナベヒガシヤマテン",
      "business_type": "⑪ 百貨店、総合スーパー",
      "address": "和歌山県田辺市東山2丁目27-17",
      "lat": 33.723013,
      "lng": 135.395241,
      "geocoding_level": null,
      "phone": "0739-34-2770",
      "license_no": "",
      "license_date": null,
      "expire_date": null
    },
    {
      "name": "株式会社たがみ",
      "name_kana": "カブシキガイシャタガミ",
      "business_type": "⑧ 米穀類販売業",
      "address": "和歌山県田辺市湊5-9",
      "lat": 33.734,
      "lng": 135.382303,
      "geocoding_level": null,
      "phone": "",
      "license_no": "",
      "license_date": null,
      "expire_date": null
    },
    {
      "name": "カレーのれんが屋",
      "name_kana": "カレーノレンガヤ",
      "business_type": "① 飲食店営業",
      "address": "和歌山県田辺市湊5-9",
      "lat": 33.734,
      "lng": 135.382303,
      "geocoding_level": null,
      "phone": "0739-22-0106",
      "license_no": "7-22-1-01-545",
      "license_date": "2023-02-22",
      "expire_date": "2028-04-30"
    },
    {
      "name": "株式会社たがみ",
      "name_kana": "カブシキガイシャタガミ",
      "business_type": "① 飲食店営業",
      "address": "和歌山県田辺市湊5-9",
      "lat": 33.73402,
      "lng": 135.382331,
      "geocoding_level": null,
      "phone": "0739-22-0106",
      "license_no": "7-25-1-01-226",
      "license_date": "2025-09-18",
      "expire_date": "2031-10-31"
    },
    {
      "name": "障害福祉サービス事業所F-style工房",
      "name_kana": "ショウガイフクシサービスジギョウショエフスタイルコウボウ",
      "business_type": "⑰ 農産保存食料品製造・加工業",
      "address": "和歌山県田辺市下万呂472-4",
      "lat": 33.739466,
      "lng": 135.392993,
      "geocoding_level": null,
      "phone": "0739-81-0567",
      "license_no": "",
      "license_date": null,
      "expire_date": null
    },
    {
      "name": "ガスト　紀伊田辺店",
      "name_kana": "ガストキイタナベテン",
      "business_type": "① 飲食店営業",
      "address": "和歌山県田辺市目良４３－２３",
      "lat": 33.736433,
      "lng": 135.358423,
      "geocoding_level": null,
      "phone": "0739-81-0355",
      "license_no": "7-24-1-01-544",
      "license_date": "2025-03-27",
      "expire_date": "2031-04-30"
    },
    {
      "name": "ガスト　紀伊田辺店",
      "name_kana": "ガストキイタナベテン",
      "business_type": "⑬ その他の食料・飲料販売業",
      "address": "和歌山県田辺市目良４３－２３",
      "lat": 33.7364,
      "lng": 135.358416,
      "geocoding_level": null,
      "phone": "0739-81-0355",
      "license_no": "",
      "license_date": null,
      "expire_date": null
    },
    {
      "name": "森谷商店",
      "name_kana": "モリヤショウテン",
      "business_type": "⑬ その他の食料・飲料販売業",
      "address": "和歌山県田辺市上芳養3908",
      "lat": 33.80309,
      "lng": 135.393039,
      "geocoding_level": null,
      "phone": "0739-37-0143",
      "license_no": "",
      "license_date": null,
      "expire_date": null
    },
    {
      "name": "タナベスポーツプラザ",
      "name_kana": "タナベスポーツプラザ",
      "business_type": "⑫ 自動販売機による販売業（コップ式自動販売機（自動洗浄・屋内設置）及び営業許可の対象となる自動販売機を除く）",
      "address": "和歌山県田辺市宝来町26-23",
      "lat": 33.735254,
      "lng": 135.38886,
      "geocoding_level": null,
      "phone": "0739-25-3188",
      "license_no": "",
      "license_date": null,
      "expire_date": null
    },
    {
      "name": "木の国屋",
      "name_kana": "キノクニヤ",
      "business_type": "㉕ 行商",
      "address": "和歌山県田辺市上秋津716-9",
      "lat": 33.75622,
      "lng": 135.399092,
      "geocoding_level": null,
      "phone": "",
      "license_no": "",
      "license_date": null,
      "expire_date": null
    },
    {
      "name": "あんくるジョヴィ龍神店",
      "name_kana": "アンクルジョヴィリュウジンテン",
      "business_type": "⑪ 百貨店、総合スーパー",
      "address": "和歌山県田辺市龍神村柳瀬896",
      "lat": 33.867988,
      "lng": 135.463933,
      "geocoding_level": null,
      "phone": "0739-78-8188",
      "license_no": "",
      "license_date": null,
      "expire_date": null
    },
    {
      "name": "Dinning　ILOHA",
      "name_kana": "ダイニングイロハ",
      "business_type": "㉔ その他の食料品製造・加工業",
      "address": "和歌山県田辺市湊6-16",
      "lat": 33.733851,
      "lng": 135.381899,
      "geocoding_level": null,
      "phone": "",
      "license_no": "",
      "license_date": null,
      "expire_date": null
    },
    {
      "name": "干博食品",
      "name_kana": "ホシヒロショクヒン",
      "business_type": "㉔ その他の食料品製造・加工業",
      "address": "和歌山県田辺市栄町32",
      "lat": 33.733583,
      "lng": 135.37879,
      "geocoding_level": null,
      "phone": "",
      "license_no": "",
      "license_date": null,
      "expire_date": null
    },
    {
      "name": "Pine",
      "name_kana": "パイン",
      "business_type": "⑯ コーヒー製造・加工業（飲料の製造を除く。）",
      "address": "和歌山県田辺市目良13-24",
      "lat": 33.732328,
      "lng": 135.354287,
      "geocoding_level": null,
      "phone": "",
      "license_no": "",
      "license_date": null,
      "expire_date": null
    },
    {
      "name": "M’s（エムズ）",
      "name_kana": "エムズ",
      "business_type": "① 飲食店営業",
      "address": "和歌山県田辺市湊2-13-202 和伸ビル2F",
      "lat": 33.733514,
      "lng": 135.382928,
      "geocoding_level": null,
      "phone": "",
      "license_no": "7-21-1-01-078",
      "license_date": "2021-06-23",
      "expire_date": "2027-07-31"
    },
    {
      "name": "Mana",
      "name_kana": "マナ",
      "business_type": "① 飲食店営業",
      "address": "和歌山県田辺市湊10-17 愛華ビル2Ｆ203号",
      "lat": 33.733611,
      "lng": 135.381468,
      "geocoding_level": null,
      "phone": "0739-24-6863",
      "license_no": "7-21-1-01-080",
      "license_date": "2021-06-23",
      "expire_date": "2027-07-31"
    },
    {
      "name": "蓮",
      "name_kana": "レン",
      "business_type": "① 飲食店営業",
      "address": "和歌山県田辺市湊12-32",
      "lat": 33.732863,
      "lng": 135.382266,
      "geocoding_level": null,
      "phone": "",
      "license_no": "7-21-1-01-079",
      "license_date": "2021-06-23",
      "expire_date": "2027-07-31"
    },
    {
      "name": "竹内米店",
      "name_kana": "タケウチコメテン",
      "business_type": "⑧ 米穀類販売業",
      "address": "和歌山県田辺市下万呂411-5",
      "lat": 33.737966,
      "lng": 135.394986,
      "geocoding_level": null,
      "phone": "",
      "license_no": "",
      "license_date": null,
      "expire_date": null
    },
    {
      "name": "太田青果",
      "name_kana": "オオタセイカ",
      "business_type": "⑦ 野菜果物販売業",
      "address": "和歌山県田辺市湊6-3",
      "lat": 33.733407,
      "lng": 135.382378,
      "geocoding_level": null,
      "phone": "0739-24-5176",
      "license_no": "",
      "license_date": null,
      "expire_date": null
    },
    {
      "name": "株式会社　梅屋",
      "name_kana": "カブシキガイシャ　ウメヤ",
      "business_type": "⑭ 清涼飲料水製造業",
      "address": "和歌山県田辺市文里1-12-14",
      "lat": 33.71588,
      "lng": 135.390623,
      "geocoding_level": null,
      "phone": "0739-22-4785",
      "license_no": "7-21-1-14-059",
      "license_date": "2021-06-09",
      "expire_date": "2027-07-31"
    },
    {
      "name": "株式会社梅屋",
      "name_kana": "カブシキガイシャ　ウメヤ",
      "business_type": "⑦ 野菜果物販売業",
      "address": "和歌山県田辺市文里1-12-14",
      "lat": 33.71588,
      "lng": 135.390623,
      "geocoding_level": null,
      "phone": "",
      "license_no": "",
      "license_date": null,
      "expire_date": null
    },
    {
      "name": "株式会社梅屋",
      "name_kana": "カブシキガイシャウメヤ",
      "business_type": "㉑ 酒類製造業",
      "address": "和歌山県田辺市文里1-12-14",
      "lat": 33.71588,
      "lng": 135.390623,
      "geocoding_level": null,
      "phone": "0739-22-4785",
      "license_no": "7-22-1-21-281",
      "license_date": "2022-09-27",
      "expire_date": "2028-10-31"
    },
    {
      "name": "株式会社梅屋",
      "name_kana": "カブシキガイシャウメヤ",
      "business_type": "㉙ 漬物製造業",
      "address": "和歌山県田辺市文里1-12-14",
      "lat": 33.71588,
      "lng": 135.390623,
      "geocoding_level": null,
      "phone": "0739-22-4785",
      "license_no": "7-22-1-29-281",
      "license_date": "2022-09-27",
      "expire_date": "2028-10-31"
    },
    {
      "name": "とろり天使のわらびもち/カムサ37　パビリオンシティ田辺店",
      "name_kana": "トロリテンシノワラビモチ　カムササンナナ　パビリオンシティタナベテン",
      "business_type": "① 飲食店営業",
      "address": "和歌山県田辺市稲成町3165 パビリオンシティC館",
      "lat": 33.744977,
      "lng": 135.375729,
      "geocoding_level": null,
      "phone": "0643973190",
      "license_no": "7-21-1-01-665",
      "license_date": "2022-03-18",
      "expire_date": "2028-04-30"
    },
    {
      "name": "有限会社　調布梅屋　和歌山工場",
      "name_kana": "ユウゲンガイシャ　チョウフウメヤ　ワカヤマコウジョウ",
      "business_type": "㉙ 漬物製造業",
      "address": "和歌山県田辺市下三栖1483-16",
      "lat": 33.730215,
      "lng": 135.421083,
      "geocoding_level": null,
      "phone": "0739-26-6665",
      "license_no": "7-21-1-29-068",
      "license_date": "2021-06-21",
      "expire_date": "2027-07-31"
    },
    {
      "name": "KOKAGE",
      "name_kana": "コカゲ",
      "business_type": "① 飲食店営業",
      "address": "和歌山県田辺市上万呂65-11",
      "lat": 33.734645,
      "lng": 135.405468,
      "geocoding_level": null,
      "phone": "",
      "license_no": "7-21-1-01-066",
      "license_date": "2021-06-17",
      "expire_date": "2027-07-31"
    },
    {
      "name": "株式会社樹かげ",
      "name_kana": "カブシキガイシャコカゲ",
      "business_type": "⑪ 菓子製造業",
      "address": "和歌山県田辺市上万呂65-11",
      "lat": 33.734645,
      "lng": 135.405468,
      "geocoding_level": null,
      "phone": "",
      "license_no": "7-25-1-11-189",
      "license_date": "2025-09-10",
      "expire_date": "2031-10-31"
    },
    {
      "name": "株式会社樹かげ",
      "name_kana": "カブシキガイシャコカゲ",
      "business_type": "① 飲食店営業",
      "address": "和歌山県田辺市上万呂65-11",
      "lat": 33.734645,
      "lng": 135.405468,
      "geocoding_level": null,
      "phone": "0739-25-6389",
      "license_no": "7-25-1-01-188",
      "license_date": "2025-09-10",
      "expire_date": "2031-10-31"
    },
    {
      "name": "みちうえ農園",
      "name_kana": "ミチウエノウエン",
      "business_type": "㉙ 漬物製造業",
      "address": "和歌山県田辺市上芳養330-1",
      "lat": 33.795703,
      "lng": 135.362262,
      "geocoding_level": null,
      "phone": "",
      "license_no": "7-21-1-29-065",
      "license_date": "2021-06-17",
      "expire_date": "2027-07-31"
    },
    {
      "name": "福田",
      "name_kana": "フクダ",
      "business_type": "⑰ 農産保存食料品製造・加工業",
      "address": "和歌山県田辺市新庄町3033-7",
      "lat": 33.716746,
      "lng": 135.407451,
      "geocoding_level": null,
      "phone": "",
      "license_no": "",
      "license_date": null,
      "expire_date": null
    },
    {
      "name": "福田",
      "name_kana": "フクダ",
      "business_type": "⑱ 調味料製造・加工業",
      "address": "和歌山県田辺市新庄町3033-7",
      "lat": 33.716746,
      "lng": 135.407451,
      "geocoding_level": null,
      "phone": "",
      "license_no": "",
      "license_date": null,
      "expire_date": null
    },
    {
      "name": "福田",
      "name_kana": "フクダ",
      "business_type": "㉒ 海藻製造・加工業",
      "address": "和歌山県田辺市新庄町3033-7",
      "lat": 33.716746,
      "lng": 135.407451,
      "geocoding_level": null,
      "phone": "",
      "license_no": "",
      "license_date": null,
      "expire_date": null
    },
    {
      "name": "福田",
      "name_kana": "フクダ",
      "business_type": "㉙ 漬物製造業",
      "address": "和歌山県田辺市新庄町3033-7",
      "lat": 33.716746,
      "lng": 135.407451,
      "geocoding_level": null,
      "phone": "",
      "license_no": "7-24-1-29-196",
      "license_date": "2024-06-26",
      "expire_date": "2030-07-31"
    },
    {
      "name": "有限会社　仙宝",
      "name_kana": "ユウゲンガイシャ　センポウ",
      "business_type": "㉙ 漬物製造業",
      "address": "和歌山県田辺市芳養町999",
      "lat": 33.748103,
      "lng": 135.349535,
      "geocoding_level": null,
      "phone": "0739-24-9798",
      "license_no": "7-21-1-29-069",
      "license_date": "2021-06-21",
      "expire_date": "2027-07-31"
    },
    {
      "name": "まつみ製菓",
      "name_kana": "マツミセイカ",
      "business_type": "⑪ 菓子製造業",
      "address": "和歌山県田辺市高雄2-30-25",
      "lat": 33.737993,
      "lng": 135.380555,
      "geocoding_level": null,
      "phone": "0739-22-3498",
      "license_no": "7-21-1-11-074",
      "license_date": "2021-06-22",
      "expire_date": "2027-07-31"
    },
    {
      "name": "観音山フルーツパーラー南紀田辺店",
      "name_kana": "カンノンヤマフルーツパーラーナンキタナベテン",
      "business_type": "⑪ 菓子製造業",
      "address": "和歌山県田辺市稲成町270-1 産直市場よってっていなり本館2階",
      "lat": 33.742838,
      "lng": 135.374617,
      "geocoding_level": null,
      "phone": "0739-33-7730",
      "license_no": "7-21-1-11-083",
      "license_date": "2021-06-22",
      "expire_date": "2027-07-31"
    },
    {
      "name": "観音山フルーツガーデン",
      "name_kana": "カンオンヤマフルーツガーデン",
      "business_type": "① 飲食店営業",
      "address": "和歌山県田辺市鮎川597-6",
      "lat": 33.729711,
      "lng": 135.484675,
      "geocoding_level": null,
      "phone": "0736-74-3331",
      "license_no": "7-24-1-01-524",
      "license_date": "2025-03-17",
      "expire_date": "2031-04-30"
    },
    {
      "name": "まるせん蒲鉾店",
      "name_kana": "マルセンカマボコテン",
      "business_type": "⑯ 水産製品製造業",
      "address": "和歌山県田辺市稲成町421-1",
      "lat": 33.739118,
      "lng": 135.378529,
      "geocoding_level": null,
      "phone": "0739-22-5624",
      "license_no": "7-21-1-16-072",
      "license_date": "2021-06-22",
      "expire_date": "2027-07-31"
    },
    {
      "name": "ライフショップ石川",
      "name_kana": "ライフショップイシカワ",
      "business_type": "④ 魚介類販売業",
      "address": "和歌山県田辺市長野1315-16",
      "lat": 33.767323,
      "lng": 135.443792,
      "geocoding_level": null,
      "phone": "0739-34-0300",
      "license_no": "7-21-1-04-75",
      "license_date": "2021-06-22",
      "expire_date": "2027-07-31"
    },
    {
      "name": "ライフショップ石川",
      "name_kana": "ライフショップイシカワ",
      "business_type": "② 食肉販売業（包装済みの食肉のみの販売）",
      "address": "和歌山県田辺市長野1315-16",
      "lat": 33.767323,
      "lng": 135.443792,
      "geocoding_level": null,
      "phone": "0739-34-0300",
      "license_no": "",
      "license_date": null,
      "expire_date": null
    },
    {
      "name": "マリブ",
      "name_kana": "マリブ",
      "business_type": "① 飲食店営業",
      "address": "和歌山県田辺市新庄町3027",
      "lat": 33.702192,
      "lng": 135.392993,
      "geocoding_level": null,
      "phone": "0739-26-0367",
      "license_no": "7-21-1-01-165",
      "license_date": "2021-07-21",
      "expire_date": "2027-07-31"
    },
    {
      "name": "米儀かまぼこ店",
      "name_kana": "コメギカマボコテン",
      "business_type": "⑯ 水産製品製造業",
      "address": "和歌山県田辺市上屋敷1-3-14",
      "lat": 33.73128,
      "lng": 135.376617,
      "geocoding_level": null,
      "phone": "22-7912",
      "license_no": "7-21-1-16-210",
      "license_date": "2021-07-30",
      "expire_date": "2027-07-31"
    },
    {
      "name": "谷亀製菓",
      "name_kana": "タニカメセイカ",
      "business_type": "⑪ 菓子製造業",
      "address": "和歌山県田辺市上屋敷3丁目1-1",
      "lat": 33.73132,
      "lng": 135.374636,
      "geocoding_level": null,
      "phone": "0739-22-1079",
      "license_no": "7-21-1-11-166",
      "license_date": "2021-07-21",
      "expire_date": "2027-07-31"
    },
    {
      "name": "有限会社くさか鮮魚",
      "name_kana": "ユウゲンガイシャクサカセンギョ",
      "business_type": "④ 魚介類販売業",
      "address": "和歌山県田辺市中屋敷町113-2",
      "lat": 33.72862,
      "lng": 135.378858,
      "geocoding_level": null,
      "phone": "0739-22-3723",
      "license_no": "7-21-1-04-197",
      "license_date": "2021-07-21",
      "expire_date": "2027-07-31"
    },
    {
      "name": "川嶋堂",
      "name_kana": "カワシマドウ",
      "business_type": "⑪ 菓子製造業",
      "address": "和歌山県田辺市上の山17-9",
      "lat": 33.739474,
      "lng": 135.36631,
      "geocoding_level": null,
      "phone": "0739-22-8170",
      "license_no": "7-21-1-11-159",
      "license_date": "2021-07-21",
      "expire_date": "2027-07-31"
    },
    {
      "name": "たこ八",
      "name_kana": "タコハチ",
      "business_type": "① 飲食店営業",
      "address": "和歌山県田辺市上の山2-15-43",
      "lat": 33.735262,
      "lng": 135.361546,
      "geocoding_level": null,
      "phone": "0739-24-5084",
      "license_no": "7-21-1-01-093",
      "license_date": "2021-06-29",
      "expire_date": "2027-07-31"
    },
    {
      "name": "富美堂",
      "name_kana": "フミドウ",
      "business_type": "⑪ 菓子製造業",
      "address": "和歌山県田辺市北新町56",
      "lat": 33.734254,
      "lng": 135.379402,
      "geocoding_level": null,
      "phone": "0739-22-1119",
      "license_no": "7-21-1-11-088",
      "license_date": "2021-06-29",
      "expire_date": "2027-07-31"
    },
    {
      "name": "やまもと商店",
      "name_kana": "ヤマモトショウテン",
      "business_type": "① 飲食店営業",
      "address": "和歌山県田辺市あけぼの52-17",
      "lat": 33.727493,
      "lng": 135.39516,
      "geocoding_level": null,
      "phone": "0739-22-6811",
      "license_no": "7-21-1-01-106",
      "license_date": "2021-07-02",
      "expire_date": "2027-07-31"
    },
    {
      "name": "亜瑠絵巣",
      "name_kana": "アリエス",
      "business_type": "① 飲食店営業",
      "address": "和歌山県田辺市龍神村西137-1",
      "lat": 33.894249,
      "lng": 135.487779,
      "geocoding_level": null,
      "phone": "0739-78-0050",
      "license_no": "7-21-1-01-116",
      "license_date": "2021-07-07",
      "expire_date": "2027-07-31"
    },
    {
      "name": "味処　丸政",
      "name_kana": "アジドコロ　マルマサ",
      "business_type": "① 飲食店営業",
      "address": "和歌山県田辺市中万呂92",
      "lat": 33.736763,
      "lng": 135.400745,
      "geocoding_level": null,
      "phone": "0739-22-3568",
      "license_no": "7-21-1-01-158",
      "license_date": "2021-07-21",
      "expire_date": "2027-07-31"
    },
    {
      "name": "味処　丸正",
      "name_kana": "アジドコロ　マルマサ",
      "business_type": "⑱ 調味料製造・加工業",
      "address": "和歌山県田辺市中万呂92",
      "lat": 33.736763,
      "lng": 135.400745,
      "geocoding_level": null,
      "phone": "0739-22-3568",
      "license_no": "",
      "license_date": null,
      "expire_date": null
    },
    {
      "name": "Vショップ下三栖店",
      "name_kana": "ブイショップシモミステン",
      "business_type": "① 飲食店営業",
      "address": "和歌山県田辺市下三栖1352-1",
      "lat": 33.734441,
      "lng": 135.419617,
      "geocoding_level": null,
      "phone": "0739-33-0711",
      "license_no": "7-21-1-01-151",
      "license_date": "2021-07-19",
      "expire_date": "2027-07-31"
    },
    {
      "name": "Vショップ下三栖店",
      "name_kana": "ブイショップシモミステン",
      "business_type": "③ 食肉販売業",
      "address": "和歌山県田辺市下三栖1352-1",
      "lat": 33.734441,
      "lng": 135.419617,
      "geocoding_level": null,
      "phone": "0739-33-0711",
      "license_no": "7-21-1-03-151",
      "license_date": "2021-07-19",
      "expire_date": "2027-07-31"
    },
    {
      "name": "Vショップ下三栖店",
      "name_kana": "ブイショップシモミステン",
      "business_type": "④ 魚介類販売業",
      "address": "和歌山県田辺市下三栖1352-1",
      "lat": 33.734441,
      "lng": 135.419617,
      "geocoding_level": null,
      "phone": "0739-33-0711",
      "license_no": "7-21-1-04-151",
      "license_date": "2021-07-19",
      "expire_date": "2027-07-31"
    },
    {
      "name": "Vショップ下三栖店",
      "name_kana": "ブイショップシモミステン",
      "business_type": "㉙ 漬物製造業",
      "address": "和歌山県田辺市下三栖1352-1",
      "lat": 33.734441,
      "lng": 135.419617,
      "geocoding_level": null,
      "phone": "0739-33-0711",
      "license_no": "7-24-1-29-013",
      "license_date": "2024-04-08",
      "expire_date": "2030-04-30"
    },
    {
      "name": "Vショップ八幡店",
      "name_kana": "ブイショップハチマンテン",
      "business_type": "㉙ 漬物製造業",
      "address": "和歌山県田辺市高雄2丁目8番16号",
      "lat": 33.736167,
      "lng": 135.382523,
      "geocoding_level": null,
      "phone": "0739-24-5756",
      "license_no": "7-24-1-29-012",
      "license_date": "2024-04-08",
      "expire_date": "2030-04-30"
    },
    {
      "name": "かしの木ルーブル",
      "name_kana": "カシノキルーブル",
      "business_type": "① 飲食店営業",
      "address": "和歌山県田辺市中万呂133-80",
      "lat": 33.736083,
      "lng": 135.400561,
      "geocoding_level": null,
      "phone": "0739-26-1128",
      "license_no": "7-21-1-01-185",
      "license_date": "2021-07-21",
      "expire_date": "2027-07-31"
    },
    {
      "name": "かしの木ルーブル",
      "name_kana": "カシノキルーブル",
      "business_type": "⑪ 菓子製造業",
      "address": "和歌山県田辺市中万呂133-80",
      "lat": 33.736083,
      "lng": 135.400561,
      "geocoding_level": null,
      "phone": "0739-26-1128",
      "license_no": "7-21-1-11-185",
      "license_date": "2021-07-21",
      "expire_date": "2027-07-31"
    },
    {
      "name": "株式会社カネヒロ水産",
      "name_kana": "カブシキガイシャカネヒロスイサン",
      "business_type": "④ 魚介類販売業",
      "address": "和歌山県田辺市文里2-37-60",
      "lat": 33.719421,
      "lng": 135.383515,
      "geocoding_level": null,
      "phone": "0739-25-0050",
      "license_no": "7-21-1-04-140",
      "license_date": "2021-07-13",
      "expire_date": "2027-07-31"
    },
    {
      "name": "株式会社カネヒロ水産",
      "name_kana": "カブシキガイシャカネヒロスイサン",
      "business_type": "⑯ 水産製品製造業",
      "address": "和歌山県田辺市磯間24-41",
      "lat": 33.719746,
      "lng": 135.383074,
      "geocoding_level": null,
      "phone": "",
      "license_no": "7-24-1-16-428",
      "license_date": "2024-12-23",
      "expire_date": "2032-01-31"
    },
    {
      "name": "味処　みや路",
      "name_kana": "ヤマダサトシ",
      "business_type": "① 飲食店営業",
      "address": "和歌山県田辺市湊24-9",
      "lat": 33.73118,
      "lng": 135.38234,
      "geocoding_level": null,
      "phone": "0739-26-3827",
      "license_no": "7-21-1-01-076",
      "license_date": "2021-06-23",
      "expire_date": "2027-07-31"
    },
    {
      "name": "稲垣商店",
      "name_kana": "イナガキショウテン",
      "business_type": "② 食肉販売業（包装済みの食肉のみの販売）",
      "address": "和歌山県田辺市神子浜2-7-5",
      "lat": 33.722878,
      "lng": 135.38649,
      "geocoding_level": null,
      "phone": "0739-22-2498",
      "license_no": "",
      "license_date": null,
      "expire_date": null
    },
    {
      "name": "稲垣商店",
      "name_kana": "イナガキショウテン",
      "business_type": "③ 乳類販売業",
      "address": "和歌山県田辺市神子浜2-7-5",
      "lat": 33.722878,
      "lng": 135.38649,
      "geocoding_level": null,
      "phone": "0739-22-2498",
      "license_no": "",
      "license_date": null,
      "expire_date": null
    },
    {
      "name": "稲垣商店",
      "name_kana": "イナガキショウテン",
      "business_type": "⑦ 野菜果物販売業",
      "address": "和歌山県田辺市神子浜2-7-5",
      "lat": 33.722878,
      "lng": 135.38649,
      "geocoding_level": null,
      "phone": "0739-22-2498",
      "license_no": "",
      "license_date": null,
      "expire_date": null
    },
    {
      "name": "イナガキ商店",
      "name_kana": "イナガキショウテン",
      "business_type": "① 飲食店営業",
      "address": "和歌山県田辺市神子浜2-7-5",
      "lat": 33.722878,
      "lng": 135.38649,
      "geocoding_level": null,
      "phone": "0739-22-2498",
      "license_no": "7-23-1-01-527",
      "license_date": "2024-03-11",
      "expire_date": "2030-04-30"
    },
    {
      "name": "イナガキ商店",
      "name_kana": "イナガキショウテン",
      "business_type": "㉙ 漬物製造業",
      "address": "和歌山県田辺市神子浜2-7-5",
      "lat": 33.722878,
      "lng": 135.38649,
      "geocoding_level": null,
      "phone": "0739-22-2498",
      "license_no": "7-23-1-29-526",
      "license_date": "2024-03-11",
      "expire_date": "2030-04-30"
    },
    {
      "name": "有限会社鮨康",
      "name_kana": "ユウゲンカイシャスシコウ",
      "business_type": "① 飲食店営業",
      "address": "和歌山県田辺市高雄1-1-12",
      "lat": 33.734993,
      "lng": 135.381235,
      "geocoding_level": null,
      "phone": "0739-24-5981",
      "license_no": "7-21-1-01-086",
      "license_date": "2021-06-29",
      "expire_date": "2027-07-31"
    },
    {
      "name": "藤川米穀燃料",
      "name_kana": "フジカワベイコクネンリョウ",
      "business_type": "⑧ 米穀類販売業",
      "address": "和歌山県田辺市文里1-7-1",
      "lat": 33.717548,
      "lng": 135.391707,
      "geocoding_level": null,
      "phone": "",
      "license_no": "",
      "license_date": null,
      "expire_date": null
    },
    {
      "name": "喫茶アイリス",
      "name_kana": "キッサアイリス",
      "business_type": "① 飲食店営業",
      "address": "和歌山県田辺市上屋敷3-11-11",
      "lat": 33.730187,
      "lng": 135.374379,
      "geocoding_level": null,
      "phone": "0739-22-8539",
      "license_no": "7-21-1-01-087",
      "license_date": "2021-06-29",
      "expire_date": "2027-07-31"
    },
    {
      "name": "山中商店冷菓部",
      "name_kana": "ヤマナカショウテンレイカブ",
      "business_type": "③ 乳類販売業",
      "address": "和歌山県田辺市上の山1-15-25",
      "lat": 33.738045,
      "lng": 135.367283,
      "geocoding_level": null,
      "phone": "0739-24-7777",
      "license_no": "",
      "license_date": null,
      "expire_date": null
    },
    {
      "name": "山中商店冷菓部",
      "name_kana": "ヤマナカショウテンレイカブ",
      "business_type": "④ 氷雪販売業",
      "address": "和歌山県田辺市上の山1-15-25",
      "lat": 33.738045,
      "lng": 135.367283,
      "geocoding_level": null,
      "phone": "0739-24-7777",
      "license_no": "",
      "license_date": null,
      "expire_date": null
    },
    {
      "name": "山中商店冷菓部",
      "name_kana": "ヤマナカショウテンレイカブ",
      "business_type": "⑬ その他の食料・飲料販売業",
      "address": "和歌山県田辺市上の山1-15-25",
      "lat": 33.738045,
      "lng": 135.367283,
      "geocoding_level": null,
      "phone": "0739-24-7777",
      "license_no": "",
      "license_date": null,
      "expire_date": null
    },
    {
      "name": "フレッシュハウス新万店",
      "name_kana": "フレアッシュハウスシンマンテン",
      "business_type": "㉕ そうざい製造業",
      "address": "和歌山県田辺市新万25-10",
      "lat": 33.73358,
      "lng": 135.399257,
      "geocoding_level": null,
      "phone": "0739-24-3095",
      "license_no": "7-23-1-25-354",
      "license_date": "2023-11-14",
      "expire_date": "2030-01-31"
    },
    {
      "name": "フレッシュハウス新万店",
      "name_kana": "フレアッシュハウスシンマンテン",
      "business_type": "⑪ 百貨店、総合スーパー",
      "address": "和歌山県田辺市新万25-10",
      "lat": 33.73358,
      "lng": 135.399257,
      "geocoding_level": null,
      "phone": "0739-24-3095",
      "license_no": "",
      "license_date": null,
      "expire_date": null
    },
    {
      "name": "ほか弁　もり亭",
      "name_kana": "ホカベン　モリテイ",
      "business_type": "① 飲食店営業",
      "address": "和歌山県田辺市神島台2915-124",
      "lat": 33.705877,
      "lng": 135.404512,
      "geocoding_level": null,
      "phone": "0739-24-0386",
      "license_no": "7-21-1-01-094",
      "license_date": "2021-06-30",
      "expire_date": "2027-07-31"
    },
    {
      "name": "Porter Bonheur",
      "name_kana": "ポルテ　ボヌール",
      "business_type": "⑦ 野菜果物販売業",
      "address": "和歌山県田辺市下屋敷町56-1",
      "lat": 33.730301,
      "lng": 135.380026,
      "geocoding_level": null,
      "phone": "",
      "license_no": "",
      "license_date": null,
      "expire_date": null
    },
    {
      "name": "紀の国食品　秋津川工場",
      "name_kana": "キノクニショクヒンアキヅガワコウジョウ",
      "business_type": "㉑ 酒類製造業",
      "address": "和歌山県田辺市秋津川519",
      "lat": 33.817321,
      "lng": 135.421565,
      "geocoding_level": null,
      "phone": "0739-45-8100",
      "license_no": "7-23-1-21-514",
      "license_date": "2024-03-04",
      "expire_date": "2030-04-30"
    },
    {
      "name": "旅人の宿 蒼空げすとはうす",
      "name_kana": "タビビトノヤド　アオゾラゲストハウス",
      "business_type": "① 飲食店営業",
      "address": "和歌山県田辺市本宮町本宮1526-1",
      "lat": 33.834637,
      "lng": 135.770664,
      "geocoding_level": null,
      "phone": "0735-42-0800",
      "license_no": "7-21-1-01-102",
      "license_date": "2021-07-02",
      "expire_date": "2027-07-31"
    },
    {
      "name": "ペンション　あしたの森",
      "name_kana": "ペンション　アシタノモリ",
      "business_type": "① 飲食店営業",
      "address": "和歌山県田辺市本宮町川湯1440-2",
      "lat": 33.812845,
      "lng": 135.774316,
      "geocoding_level": null,
      "phone": "0735-43-0001",
      "license_no": "7-21-1-01-101",
      "license_date": "2021-07-07",
      "expire_date": "2027-07-31"
    },
    {
      "name": "くまのこ食堂",
      "name_kana": "クマノコショクドウ",
      "business_type": "⑪ 菓子製造業",
      "address": "和歌山県田辺市本宮町本宮452-1",
      "lat": 33.834476,
      "lng": 135.772347,
      "geocoding_level": null,
      "phone": "0735-30-0878",
      "license_no": "7-21-1-11-097",
      "license_date": "2021-07-01",
      "expire_date": "2027-07-31"
    },
    {
      "name": "くまのこ食堂",
      "name_kana": "クマノコショクドウ",
      "business_type": "⑫ アイスクリーム類製造業",
      "address": "和歌山県田辺市本宮町本宮452-1",
      "lat": 33.834476,
      "lng": 135.772347,
      "geocoding_level": null,
      "phone": "0735-30-0878",
      "license_no": "7-21-1-12-097",
      "license_date": "2021-07-01",
      "expire_date": "2027-07-31"
    },
    {
      "name": "民宿　湯の谷荘",
      "name_kana": "ミンシュク　ユノタニソウ",
      "business_type": "① 飲食店営業",
      "address": "和歌山県田辺市本宮町湯峯168-1",
      "lat": 33.83037,
      "lng": 135.758028,
      "geocoding_level": null,
      "phone": "0735-42-1620",
      "license_no": "7-21-1-01-099",
      "license_date": "2021-07-02",
      "expire_date": "2027-07-31"
    },
    {
      "name": "有限会社熊野鼓動",
      "name_kana": "ユウゲンカイシャクマノコドウ",
      "business_type": "⑪ 菓子製造業",
      "address": "和歌山県田辺市本宮町本宮1301-2",
      "lat": 33.841727,
      "lng": 135.768204,
      "geocoding_level": null,
      "phone": "0735-42-8310",
      "license_no": "7-21-1-11-100",
      "license_date": "2021-07-02",
      "expire_date": "2027-07-31"
    },
    {
      "name": "有限会社熊野鼓動",
      "name_kana": "ユウゲンカイシャクマノコドウ",
      "business_type": "⑭ 清涼飲料水製造業",
      "address": "和歌山県田辺市本宮町本宮1301-2",
      "lat": 33.841727,
      "lng": 135.768204,
      "geocoding_level": null,
      "phone": "0735-42-8310",
      "license_no": "7-21-1-14-100",
      "license_date": "2021-07-02",
      "expire_date": "2027-07-31"
    },
    {
      "name": "有限会社熊野鼓動",
      "name_kana": "ユウゲンカイシャクマノコドウ",
      "business_type": "㉙ 漬物製造業",
      "address": "和歌山県田辺市本宮町本宮1301-2",
      "lat": 33.842001,
      "lng": 135.768079,
      "geocoding_level": null,
      "phone": "0735-42-8310",
      "license_no": "7-21-1-29-133",
      "license_date": "2021-07-07",
      "expire_date": "2027-07-31"
    },
    {
      "name": "有限会社　熊野鼓動",
      "name_kana": "ユウゲンガイシャ　クマノコドウ",
      "business_type": "㉔ その他の食料品製造・加工業",
      "address": "和歌山県田辺市本宮町本宮1301-2",
      "lat": 33.841727,
      "lng": 135.768204,
      "geocoding_level": null,
      "phone": "0735428310",
      "license_no": "",
      "license_date": null,
      "expire_date": null
    },
    {
      "name": "八咫庵",
      "name_kana": "ヤタアン",
      "business_type": "① 飲食店営業",
      "address": "和歌山県田辺市本宮町本宮108-1",
      "lat": 33.838844,
      "lng": 135.775185,
      "geocoding_level": null,
      "phone": "0735428310",
      "license_no": "7-22-1-01-102",
      "license_date": "2022-05-27",
      "expire_date": "2028-07-31"
    },
    {
      "name": "八咫庵",
      "name_kana": "ヤタアン",
      "business_type": "⑬ その他の食料・飲料販売業",
      "address": "和歌山県田辺市本宮町本宮108-1",
      "lat": 33.838844,
      "lng": 135.775185,
      "geocoding_level": null,
      "phone": "0735428310",
      "license_no": "",
      "license_date": null,
      "expire_date": null
    },
    {
      "name": "業務スーパー田辺店",
      "name_kana": "ギョウムスーパータナベテン",
      "business_type": "⑪ 百貨店、総合スーパー",
      "address": "和歌山県田辺市下万呂465-12",
      "lat": 33.738801,
      "lng": 135.394371,
      "geocoding_level": null,
      "phone": "",
      "license_no": "",
      "license_date": null,
      "expire_date": null
    },
    {
      "name": "紀伊の森",
      "name_kana": "キイノモリ",
      "business_type": "⑭ 添加物製造・加工業（法第13 条第１項の規定により規格が定められた添加物の製造を除く。）",
      "address": "和歌山県田辺市芳養町3698",
      "lat": 33.781159,
      "lng": 135.367309,
      "geocoding_level": null,
      "phone": "",
      "license_no": "",
      "license_date": null,
      "expire_date": null
    },
    {
      "name": "紀伊の森",
      "name_kana": "キイノモリ",
      "business_type": "⑰ 農産保存食料品製造・加工業",
      "address": "和歌山県田辺市芳養町3698",
      "lat": 33.781159,
      "lng": 135.367309,
      "geocoding_level": null,
      "phone": "",
      "license_no": "",
      "license_date": null,
      "expire_date": null
    },
    {
      "name": "喫茶カトレア",
      "name_kana": "キッサカトレア",
      "business_type": "① 飲食店営業",
      "address": "和歌山県田辺市湊12-41",
      "lat": 33.733318,
      "lng": 135.382487,
      "geocoding_level": null,
      "phone": "0739-22-1668",
      "license_no": "7-21-1-01-124",
      "license_date": "2021-07-07",
      "expire_date": "2027-07-31"
    },
    {
      "name": "和びすけ",
      "name_kana": "ワビスケ",
      "business_type": "① 飲食店営業",
      "address": "和歌山県田辺市高雄2-12-14",
      "lat": 33.736509,
      "lng": 135.383812,
      "geocoding_level": null,
      "phone": "",
      "license_no": "7-21-1-01-126",
      "license_date": "2021-07-07",
      "expire_date": "2027-07-31"
    },
    {
      "name": "火のようじん",
      "name_kana": "ヒノヨウジン",
      "business_type": "① 飲食店営業",
      "address": "和歌山県田辺市高雄1-1-40",
      "lat": 33.734943,
      "lng": 135.381654,
      "geocoding_level": null,
      "phone": "0739-25-5821",
      "license_no": "7-21-1-01-125",
      "license_date": "2021-07-07",
      "expire_date": "2027-07-31"
    },
    {
      "name": "RAGUMAN",
      "name_kana": "ラグマン",
      "business_type": "① 飲食店営業",
      "address": "和歌山県田辺市たきない町9-1",
      "lat": 33.704437,
      "lng": 135.399597,
      "geocoding_level": null,
      "phone": "0739-25-2373",
      "license_no": "7-21-1-01-127",
      "license_date": "2021-07-07",
      "expire_date": "2027-07-31"
    },
    {
      "name": "浜田通郎",
      "name_kana": "ハマダミチオ",
      "business_type": "⑦ 野菜果物販売業",
      "address": "和歌山県田辺市新庄町428",
      "lat": 33.722529,
      "lng": 135.402031,
      "geocoding_level": null,
      "phone": "",
      "license_no": "",
      "license_date": null,
      "expire_date": null
    },
    {
      "name": "浜田通郎",
      "name_kana": "ハマダミチオ",
      "business_type": "㉔ その他の食料品製造・加工業",
      "address": "和歌山県田辺市新庄町428",
      "lat": 33.722529,
      "lng": 135.402031,
      "geocoding_level": null,
      "phone": "",
      "license_no": "",
      "license_date": null,
      "expire_date": null
    },
    {
      "name": "有限会社松島園",
      "name_kana": "ユウゲンガイシャ　マツシマエン",
      "business_type": "① 飲食店営業",
      "address": "和歌山県田辺市湊45-3",
      "lat": 33.731591,
      "lng": 135.385175,
      "geocoding_level": null,
      "phone": "0739-24-1618",
      "license_no": "7-21-1-01-129",
      "license_date": "2021-07-05",
      "expire_date": "2027-07-31"
    },
    {
      "name": "喫茶　おおとうがわ",
      "name_kana": "キッサ　オオトウガワ",
      "business_type": "① 飲食店営業",
      "address": "和歌山県田辺市本宮町川湯1452",
      "lat": 33.812927,
      "lng": 135.775011,
      "geocoding_level": null,
      "phone": "0735-42-0007",
      "license_no": "7-21-1-01-144",
      "license_date": "2021-07-13",
      "expire_date": "2027-07-31"
    },
    {
      "name": "冨士屋",
      "name_kana": "フジヤ",
      "business_type": "① 飲食店営業",
      "address": "和歌山県田辺市本宮町川湯1452",
      "lat": 33.812927,
      "lng": 135.775011,
      "geocoding_level": null,
      "phone": "0735420007",
      "license_no": "7-22-1-01-321",
      "license_date": "2022-10-18",
      "expire_date": "2028-10-31"
    },
    {
      "name": "秋津野からたちグループ",
      "name_kana": "アキツノカラタチグループ",
      "business_type": "㉕ そうざい製造業",
      "address": "和歌山県田辺市上秋津2238",
      "lat": 33.753338,
      "lng": 135.408447,
      "geocoding_level": null,
      "phone": "0739-35-0358",
      "license_no": "7-21-1-25-146",
      "license_date": "2021-07-13",
      "expire_date": "2027-07-31"
    },
    {
      "name": "秋津野からたちグループ",
      "name_kana": "アキツノカラタチグループ",
      "business_type": "㉔ その他の食料品製造・加工業",
      "address": "和歌山県田辺市上秋津2238",
      "lat": 33.753359,
      "lng": 135.408499,
      "geocoding_level": null,
      "phone": "0735-35-0438",
      "license_no": "",
      "license_date": null,
      "expire_date": null
    },
    {
      "name": "有限会社龍神自然食品センター",
      "name_kana": "ユウゲンカイシャリュウジンシゼンショクヒンセンター",
      "business_type": "⑭ 清涼飲料水製造業",
      "address": "和歌山県田辺市龍神村西236",
      "lat": 33.899555,
      "lng": 135.481597,
      "geocoding_level": null,
      "phone": "0739-78-2060",
      "license_no": "7-21-1-14-194",
      "license_date": "2021-07-21",
      "expire_date": "2027-07-31"
    },
    {
      "name": "有限会社龍神自然食品センター",
      "name_kana": "ユウゲンガイシャリュウジンシゼンショクヒンセンター",
      "business_type": "㉑ 酒類製造業",
      "address": "和歌山県田辺市龍神村西236",
      "lat": 33.895171,
      "lng": 135.487354,
      "geocoding_level": null,
      "phone": "0739-78-2060",
      "license_no": "7-24-1-21-191",
      "license_date": "2024-06-24",
      "expire_date": "2030-07-31"
    },
    {
      "name": "有限会社龍神自然食品センター",
      "name_kana": "ユウゲンガイシャリュウジンシゼンショクヒンセンター",
      "business_type": "⑦ 野菜果物販売業",
      "address": "和歌山県田辺市龍神村西236",
      "lat": 33.899555,
      "lng": 135.481597,
      "geocoding_level": null,
      "phone": "0739-78-2060",
      "license_no": "",
      "license_date": null,
      "expire_date": null
    },
    {
      "name": "有限会社龍神自然食品センター万呂工場",
      "name_kana": "ユウゲンガイシャリュウジンシゼンショクヒンマロコウバ",
      "business_type": "㉕ そうざい製造業",
      "address": "和歌山県田辺市中万呂421-1",
      "lat": 33.739409,
      "lng": 135.407249,
      "geocoding_level": null,
      "phone": "",
      "license_no": "7-22-1-25-014",
      "license_date": "2022-04-13",
      "expire_date": "2028-04-30"
    },
    {
      "name": "きよ味's BAR",
      "name_kana": "キヨミズバー",
      "business_type": "① 飲食店営業",
      "address": "和歌山県田辺市龍神村西140-1",
      "lat": 33.895528,
      "lng": 135.487325,
      "geocoding_level": null,
      "phone": "",
      "license_no": "7-22-1-01-070",
      "license_date": "2022-04-28",
      "expire_date": "2028-04-30"
    },
    {
      "name": "有限会社龍神自然食品センター",
      "name_kana": "ユウゲンガイシャリュウジンシゼンショクヒンセンター",
      "business_type": "㉙ 漬物製造業",
      "address": "和歌山県田辺市龍神村西230",
      "lat": 33.897551,
      "lng": 135.486769,
      "geocoding_level": null,
      "phone": "0739-78-2060",
      "license_no": "7-23-1-29-362",
      "license_date": "2023-11-21",
      "expire_date": "2030-01-31"
    },
    {
      "name": "ナチュラルキッチン",
      "name_kana": "ナチュラルキッチン",
      "business_type": "① 飲食店営業",
      "address": "和歌山県田辺市龍神村西140-1 0739-78-2060",
      "lat": 33.895528,
      "lng": 135.487325,
      "geocoding_level": null,
      "phone": "",
      "license_no": "7-25-1-01-353",
      "license_date": "2025-12-09",
      "expire_date": "2032-01-31"
    },
    {
      "name": "有限会社龍神自然食品センター",
      "name_kana": "ユウゲンカイリュウジンシゼンショクヒンセンター",
      "business_type": "⑭ 清涼飲料水製造業",
      "address": "和歌山県田辺市龍神村西２３０",
      "lat": 33.897548,
      "lng": 135.486751,
      "geocoding_level": null,
      "phone": "0739-76-2060",
      "license_no": "7-25-1-14-350",
      "license_date": "2025-12-26",
      "expire_date": "2032-01-31"
    },
    {
      "name": "有限会社龍神自然食品センター",
      "name_kana": "ユウゲンカイリュウジンシゼンショクヒンセンター",
      "business_type": "㉚ 密封包装食品製造業",
      "address": "和歌山県田辺市龍神村西２３０",
      "lat": 33.897548,
      "lng": 135.486751,
      "geocoding_level": null,
      "phone": "0739-76-2060",
      "license_no": "7-25-1-30-349",
      "license_date": "2025-12-26",
      "expire_date": "2032-01-31"
    },
    {
      "name": "衣笠",
      "name_kana": "キヌガサ",
      "business_type": "① 飲食店営業",
      "address": "和歌山県田辺市上秋津2004-3",
      "lat": 33.755839,
      "lng": 135.404714,
      "geocoding_level": null,
      "phone": "0739-35-0441",
      "license_no": "7-21-1-01-183",
      "license_date": "2021-07-21",
      "expire_date": "2027-07-31"
    },
    {
      "name": "ライフデリ田辺店",
      "name_kana": "ライフデリタナベテン",
      "business_type": "③ 乳類販売業",
      "address": "和歌山県田辺市湊32-9",
      "lat": 33.731004,
      "lng": 135.384874,
      "geocoding_level": null,
      "phone": "0739-34-2999",
      "license_no": "",
      "license_date": null,
      "expire_date": null
    },
    {
      "name": "松根紀美子",
      "name_kana": "マツネキミコ",
      "business_type": "⑰ 農産保存食料品製造・加工業",
      "address": "和歌山県田辺市中辺路町栗栖川214-1",
      "lat": 33.789798,
      "lng": 135.515498,
      "geocoding_level": null,
      "phone": "0739-64-0026",
      "license_no": "",
      "license_date": null,
      "expire_date": null
    },
    {
      "name": "株式会社モリカワ",
      "name_kana": "カブシキカイシャモリカワ",
      "business_type": "① 魚介類販売業（包装済みの魚介類のみの販売）",
      "address": "和歌山県田辺市城山台2-10",
      "lat": 33.726677,
      "lng": 135.424653,
      "geocoding_level": null,
      "phone": "0739-22-0923",
      "license_no": "",
      "license_date": null,
      "expire_date": null
    },
    {
      "name": "株式会社モリカワ",
      "name_kana": "カブシキカイシャモリカワ",
      "business_type": "② 食肉販売業（包装済みの食肉のみの販売）",
      "address": "和歌山県田辺市城山台2-10",
      "lat": 33.726677,
      "lng": 135.424653,
      "geocoding_level": null,
      "phone": "0739-22-0923",
      "license_no": "",
      "license_date": null,
      "expire_date": null
    },
    {
      "name": "株式会社モリカワ",
      "name_kana": "カブシキカイシャモリカワ",
      "business_type": "⑬ その他の食料・飲料販売業",
      "address": "和歌山県田辺市城山台2-10",
      "lat": 33.726677,
      "lng": 135.424653,
      "geocoding_level": null,
      "phone": "0739-22-0923",
      "license_no": "",
      "license_date": null,
      "expire_date": null
    },
    {
      "name": "株式会社モリカワ",
      "name_kana": "カブシキカイシャモリカワ",
      "business_type": "⑯ コーヒー製造・加工業（飲料の製造を除く。）",
      "address": "和歌山県田辺市城山台2-10",
      "lat": 33.726677,
      "lng": 135.424653,
      "geocoding_level": null,
      "phone": "0739-22-0923",
      "license_no": "",
      "license_date": null,
      "expire_date": null
    },
    {
      "name": "株式会社モリカワ",
      "name_kana": "カブシキカイシャモリカワ",
      "business_type": "㉑ 製茶業",
      "address": "和歌山県田辺市城山台2-10",
      "lat": 33.726677,
      "lng": 135.424653,
      "geocoding_level": null,
      "phone": "0739-22-0923",
      "license_no": "",
      "license_date": null,
      "expire_date": null
    },
    {
      "name": "茶葉とコーヒー豆もりかわ",
      "name_kana": "チャバトコーヒーマメモリカワ",
      "business_type": "⑯ コーヒー製造・加工業（飲料の製造を除く。）",
      "address": "和歌山県田辺市南新町168",
      "lat": 33.732279,
      "lng": 135.379385,
      "geocoding_level": null,
      "phone": "0739-22-0923",
      "license_no": "",
      "license_date": null,
      "expire_date": null
    },
    {
      "name": "茶葉とコーヒー豆もりかわ",
      "name_kana": "チャバトコーヒーマメモリカワ",
      "business_type": "㉔ その他の食料品製造・加工業",
      "address": "和歌山県田辺市南新町168",
      "lat": 33.732279,
      "lng": 135.379385,
      "geocoding_level": null,
      "phone": "0739-22-0923",
      "license_no": "",
      "license_date": null,
      "expire_date": null
    },
    {
      "name": "常　中原商店",
      "name_kana": "カネツネ　ナカハラショウテン",
      "business_type": "⑦ 野菜果物販売業",
      "address": "和歌山県田辺市高雄2-28-22",
      "lat": 33.737496,
      "lng": 135.379888,
      "geocoding_level": null,
      "phone": "",
      "license_no": "",
      "license_date": null,
      "expire_date": null
    },
    {
      "name": "常　中原商店",
      "name_kana": "カネツネ　ナカハラショウテン",
      "business_type": "㉔ その他の食料品製造・加工業",
      "address": "和歌山県田辺市高雄2-28-22",
      "lat": 33.737496,
      "lng": 135.379888,
      "geocoding_level": null,
      "phone": "",
      "license_no": "",
      "license_date": null,
      "expire_date": null
    },
    {
      "name": "田辺川湯キャンプ場",
      "name_kana": "タナベカワユキャンプジョウ",
      "business_type": "④ 氷雪販売業",
      "address": "和歌山県田辺市本宮町川湯1288",
      "lat": 33.815877,
      "lng": 135.779383,
      "geocoding_level": null,
      "phone": "0735-42-1168",
      "license_no": "",
      "license_date": null,
      "expire_date": null
    },
    {
      "name": "田辺川湯キャンプ場",
      "name_kana": "タナベカワユキャンプジョウ",
      "business_type": "⑦ 野菜果物販売業",
      "address": "和歌山県田辺市本宮町川湯1288",
      "lat": 33.815877,
      "lng": 135.779383,
      "geocoding_level": null,
      "phone": "0735-42-1168",
      "license_no": "",
      "license_date": null,
      "expire_date": null
    },
    {
      "name": "田辺川湯キャンプ場",
      "name_kana": "タナベカワユキャンプジョウ",
      "business_type": "⑬ その他の食料・飲料販売業",
      "address": "和歌山県田辺市本宮町川湯1288",
      "lat": 33.815877,
      "lng": 135.779383,
      "geocoding_level": null,
      "phone": "0735-42-1168",
      "license_no": "",
      "license_date": null,
      "expire_date": null
    },
    {
      "name": "田辺中央青果株式会社",
      "name_kana": "タナベチュウオウセイカカブシキガイシャ",
      "business_type": "⑦ 野菜果物販売業",
      "address": "和歌山県田辺市稲成町277-1",
      "lat": 33.74259,
      "lng": 135.376396,
      "geocoding_level": null,
      "phone": "0739-22-2340",
      "license_no": "",
      "license_date": null,
      "expire_date": null
    },
    {
      "name": "有限会社　湊米穀",
      "name_kana": "ユウゲンガイシャ　ミナトベイコク",
      "business_type": "⑳ 精穀・製粉業",
      "address": "和歌山県田辺市湊9-22",
      "lat": 33.733793,
      "lng": 135.381311,
      "geocoding_level": null,
      "phone": "0739-22-0969",
      "license_no": "",
      "license_date": null,
      "expire_date": null
    },
    {
      "name": "株式会社松晃梅",
      "name_kana": "カブシキカイシャショウコウバイ",
      "business_type": "⑦ 野菜果物販売業",
      "address": "和歌山県田辺市中三栖1429-1",
      "lat": 33.748731,
      "lng": 135.436968,
      "geocoding_level": null,
      "phone": "0739-34-0689",
      "license_no": "",
      "license_date": null,
      "expire_date": null
    },
    {
      "name": "株式会社松晃梅",
      "name_kana": "カブシキガイシャショウコウバイ",
      "business_type": "㉙ 漬物製造業",
      "address": "和歌山県田辺市中三栖1429-1",
      "lat": 33.748731,
      "lng": 135.436968,
      "geocoding_level": null,
      "phone": "0739-34-0689",
      "license_no": "7-23-1-29-256",
      "license_date": "2023-08-30",
      "expire_date": "2029-10-31"
    },
    {
      "name": "Tidas",
      "name_kana": "ティーダス",
      "business_type": "① 飲食店営業",
      "address": "和歌山県田辺市湊14-23",
      "lat": 33.732873,
      "lng": 135.383084,
      "geocoding_level": null,
      "phone": "",
      "license_no": "7-21-1-01-145",
      "license_date": "2021-07-13",
      "expire_date": "2027-07-31"
    },
    {
      "name": "LARME",
      "name_kana": "ラルム",
      "business_type": "① 飲食店営業",
      "address": "和歌山県田辺市湊12-35　202号",
      "lat": 33.732921,
      "lng": 135.382184,
      "geocoding_level": null,
      "phone": "",
      "license_no": "7-25-1-01-556",
      "license_date": "2026-04-17",
      "expire_date": "2032-04-30"
    },
    {
      "name": "岩見　岑子",
      "name_kana": "イワミ　ミネコ",
      "business_type": "㉑ 製茶業",
      "address": "和歌山県田辺市中辺路町高原1034",
      "lat": 33.795124,
      "lng": 135.531167,
      "geocoding_level": null,
      "phone": "0739-64-0024",
      "license_no": "",
      "license_date": null,
      "expire_date": null
    },
    {
      "name": "杉若青果",
      "name_kana": "スギワカセイカ",
      "business_type": "⑦ 野菜果物販売業",
      "address": "和歌山県田辺市上秋津753",
      "lat": 33.755706,
      "lng": 135.400194,
      "geocoding_level": null,
      "phone": "0739-35-0018",
      "license_no": "",
      "license_date": null,
      "expire_date": null
    },
    {
      "name": "株式会社岡畑農園",
      "name_kana": "カブシキガイシャオカハタノウエン",
      "business_type": "㉙ 漬物製造業",
      "address": "和歌山県田辺市上芳養1809",
      "lat": 33.813513,
      "lng": 135.377217,
      "geocoding_level": null,
      "phone": "0739-37-0111",
      "license_no": "7-21-1-29-148",
      "license_date": "2021-07-13",
      "expire_date": "2027-07-31"
    },
    {
      "name": "味処きさく",
      "name_kana": "アジドコロキサク",
      "business_type": "① 飲食店営業",
      "address": "和歌山県田辺市湊1188",
      "lat": 33.732113,
      "lng": 135.38335,
      "geocoding_level": null,
      "phone": "0739-26-7673",
      "license_no": "7-25-1-01-378",
      "license_date": "2025-12-26",
      "expire_date": "2032-01-31"
    },
    {
      "name": "やきとり　よっしー",
      "name_kana": "ヤキトリ　ヨッシー",
      "business_type": "① 飲食店営業",
      "address": "和歌山県田辺市中辺路町近露1161",
      "lat": 33.813135,
      "lng": 135.608059,
      "geocoding_level": null,
      "phone": "",
      "license_no": "7-21-1-25-147",
      "license_date": "2021-07-13",
      "expire_date": "2027-07-31"
    },
    {
      "name": "やきとりよっしー",
      "name_kana": "ヤキトリヨッシー",
      "business_type": "㉕ そうざい製造業",
      "address": "和歌山県田辺市中辺路町近露1161",
      "lat": 33.813135,
      "lng": 135.608059,
      "geocoding_level": null,
      "phone": "",
      "license_no": "7-23-1-25-249",
      "license_date": "2023-08-23",
      "expire_date": "2029-10-31"
    },
    {
      "name": "やきとりよっしー",
      "name_kana": "ヤキトリヨッシー",
      "business_type": "① 飲食店営業",
      "address": "和歌山県田辺市中辺路町近露1161",
      "lat": 33.813135,
      "lng": 135.608059,
      "geocoding_level": null,
      "phone": "",
      "license_no": "7-23-1-01-250",
      "license_date": "2023-08-23",
      "expire_date": "2028-10-31"
    },
    {
      "name": "餃子の王将 紀伊田辺店",
      "name_kana": "ギョウザノオウショウ　キイタナベテン",
      "business_type": "⑬ その他の食料・飲料販売業",
      "address": "和歌山県田辺市下万呂字久保田581-1",
      "lat": 33.739919,
      "lng": 135.392817,
      "geocoding_level": null,
      "phone": "0739-24-1770",
      "license_no": "",
      "license_date": null,
      "expire_date": null
    },
    {
      "name": "ふたかわ超学校",
      "name_kana": "フタカワチョウガッコウ",
      "business_type": "① 飲食店営業",
      "address": "和歌山県田辺市中辺路町川合1451",
      "lat": 33.807329,
      "lng": 135.52284,
      "geocoding_level": null,
      "phone": "",
      "license_no": "7-21-1-01-157",
      "license_date": "2021-07-16",
      "expire_date": "2026-07-31"
    },
    {
      "name": "ローソン田辺海岸通店",
      "name_kana": "ローソンタナベカイガンドウリテン",
      "business_type": "① 飲食店営業",
      "address": "和歌山県田辺市上屋敷2丁目16−16",
      "lat": 33.728184,
      "lng": 135.37661,
      "geocoding_level": null,
      "phone": "",
      "license_no": "7-22-1-01-538",
      "license_date": "2023-02-14",
      "expire_date": "2029-04-30"
    },
    {
      "name": "ローソン田辺海岸通店",
      "name_kana": "ローソンタナベカイガンドウリテン",
      "business_type": "⑩ コンビニエンスストア",
      "address": "和歌山県田辺市上屋敷2丁目16−16",
      "lat": 33.728184,
      "lng": 135.37661,
      "geocoding_level": null,
      "phone": "",
      "license_no": "",
      "license_date": null,
      "expire_date": null
    },
    {
      "name": "山彦商店",
      "name_kana": "ヤマヒコショウテン",
      "business_type": "⑦ 野菜果物販売業",
      "address": "和歌山県田辺市湊22-10",
      "lat": 33.730961,
      "lng": 135.38088,
      "geocoding_level": null,
      "phone": "",
      "license_no": "",
      "license_date": null,
      "expire_date": null
    },
    {
      "name": "Vショップ紺屋町店",
      "name_kana": "ブイショップコンヤマチテン",
      "business_type": "⑪ 百貨店、総合スーパー",
      "address": "和歌山県田辺市紺屋町114",
      "lat": 33.734353,
      "lng": 135.375444,
      "geocoding_level": null,
      "phone": "",
      "license_no": "",
      "license_date": null,
      "expire_date": null
    },
    {
      "name": "Vショップ紺屋町店",
      "name_kana": "ブイショップコンヤマチテン",
      "business_type": "㉔ その他の食料品製造・加工業",
      "address": "和歌山県田辺市紺屋町114",
      "lat": 33.734353,
      "lng": 135.375444,
      "geocoding_level": null,
      "phone": "",
      "license_no": "",
      "license_date": null,
      "expire_date": null
    },
    {
      "name": "Vショップ上秋津店",
      "name_kana": "ブイショップカミアキヅテン",
      "business_type": "⑪ 百貨店、総合スーパー",
      "address": "和歌山県田辺市上秋津2088-1",
      "lat": 33.75493,
      "lng": 135.403372,
      "geocoding_level": null,
      "phone": "0739-35-0505",
      "license_no": "",
      "license_date": null,
      "expire_date": null
    },
    {
      "name": "Ｖショップ上秋津店",
      "name_kana": "ブイショップカミアキヅテン",
      "business_type": "③ 食肉販売業",
      "address": "和歌山県田辺市上秋津2088-1",
      "lat": 33.75493,
      "lng": 135.403372,
      "geocoding_level": null,
      "phone": "0739-26-6100",
      "license_no": "7-22-1-03-080",
      "license_date": "2022-04-28",
      "expire_date": "2028-04-30"
    },
    {
      "name": "Vショップ紺屋町店",
      "name_kana": "ブイショップコンヤマチテン",
      "business_type": "① 飲食店営業",
      "address": "和歌山県田辺市紺屋町114",
      "lat": 33.734353,
      "lng": 135.375444,
      "geocoding_level": null,
      "phone": "0739-22-1059",
      "license_no": "7-22-1-01-149",
      "license_date": "2022-07-08",
      "expire_date": "2028-07-31"
    },
    {
      "name": "Vショップ　上秋津店",
      "name_kana": "ブイショップ　カミアキヅテン",
      "business_type": "① 飲食店営業",
      "address": "和歌山県田辺市上秋津2088-1",
      "lat": 33.75493,
      "lng": 135.403372,
      "geocoding_level": null,
      "phone": "0739-35-0505",
      "license_no": "7-22-1-01-390",
      "license_date": "2022-10-27",
      "expire_date": "2028-10-31"
    },
    {
      "name": "Vショップ紺屋町店",
      "name_kana": "ブイショップコンヤマチテン",
      "business_type": "④ 魚介類販売業",
      "address": "和歌山県田辺市紺屋町114",
      "lat": 33.734353,
      "lng": 135.375444,
      "geocoding_level": null,
      "phone": "0739-22-1059",
      "license_no": "7-22-1-04-400",
      "license_date": "2022-10-31",
      "expire_date": "2028-10-31"
    },
    {
      "name": "Vショップ紺屋町店",
      "name_kana": "ブイショップコンヤマチテン",
      "business_type": "㉙ 漬物製造業",
      "address": "和歌山県田辺市紺屋町114",
      "lat": 33.734353,
      "lng": 135.375444,
      "geocoding_level": null,
      "phone": "0739-22-1059",
      "license_no": "7-24-1-29-011",
      "license_date": "2024-04-08",
      "expire_date": "2030-04-30"
    },
    {
      "name": "オレンジショップたのうえ",
      "name_kana": "オレンジショップタノウエ",
      "business_type": "⑪ 百貨店、総合スーパー",
      "address": "和歌山県田辺市鮎川2575-7",
      "lat": 33.730047,
      "lng": 135.488803,
      "geocoding_level": null,
      "phone": "0739-48-0051",
      "license_no": "",
      "license_date": null,
      "expire_date": null
    },
    {
      "name": "ショールーム　色（カラー）",
      "name_kana": "ショールームカラー",
      "business_type": "① 飲食店営業",
      "address": "和歌山県田辺市宝来町7-41 山手ビル1F",
      "lat": 33.732706,
      "lng": 135.38638,
      "geocoding_level": null,
      "phone": "0739-25-5375",
      "license_no": "7-21-1-01-160",
      "license_date": "2021-07-21",
      "expire_date": "2027-07-31"
    },
    {
      "name": "きむら",
      "name_kana": "キムラ",
      "business_type": "㉙ 漬物製造業",
      "address": "和歌山県田辺市鮎川2729",
      "lat": 33.727651,
      "lng": 135.488855,
      "geocoding_level": null,
      "phone": "0739-49-0201",
      "license_no": "7-21-1-29-196",
      "license_date": "2021-07-21",
      "expire_date": "2027-07-31"
    },
    {
      "name": "Lupinus",
      "name_kana": "ルピナス",
      "business_type": "① 飲食店営業",
      "address": "和歌山県田辺市湊11-1",
      "lat": 33.733331,
      "lng": 135.382185,
      "geocoding_level": null,
      "phone": "",
      "license_no": "7-21-1-01-177",
      "license_date": "2021-07-21",
      "expire_date": "2027-07-31"
    },
    {
      "name": "全日食チェーン　ライフ江川店",
      "name_kana": "ゼンニッショクチェーン　ライフエガワテン",
      "business_type": "⑪ 百貨店、総合スーパー",
      "address": "和歌山県田辺市江川7-1",
      "lat": 33.733,
      "lng": 135.36989,
      "geocoding_level": null,
      "phone": "",
      "license_no": "",
      "license_date": null,
      "expire_date": null
    },
    {
      "name": "有限会社ライフ",
      "name_kana": "ユウゲンガイシャライフ",
      "business_type": "① 飲食店営業",
      "address": "和歌山県田辺市江川7-1",
      "lat": 33.732993,
      "lng": 135.369907,
      "geocoding_level": null,
      "phone": "",
      "license_no": "7-25-1-01-292",
      "license_date": "2025-10-31",
      "expire_date": "2031-10-31"
    },
    {
      "name": "有限会社ライフ",
      "name_kana": "ユウゲンガイシャライフ",
      "business_type": "④ 魚介類販売業",
      "address": "和歌山県田辺市江川7-1",
      "lat": 33.732993,
      "lng": 135.369907,
      "geocoding_level": null,
      "phone": "",
      "license_no": "7-25-1-04-293",
      "license_date": "2025-10-31",
      "expire_date": "2031-10-31"
    },
    {
      "name": "大野商店",
      "name_kana": "オオノショウテン",
      "business_type": "㉔ その他の食料品製造・加工業",
      "address": "和歌山県田辺市中辺路町熊野川261",
      "lat": 33.80614,
      "lng": 135.488564,
      "geocoding_level": null,
      "phone": "0739-64-1078",
      "license_no": "",
      "license_date": null,
      "expire_date": null
    },
    {
      "name": "",
      "name_kana": "",
      "business_type": "㉔ その他の食料品製造・加工業",
      "address": "和歌山県田辺市稲成町731-1",
      "lat": 33.747992,
      "lng": 135.374737,
      "geocoding_level": null,
      "phone": "",
      "license_no": "",
      "license_date": null,
      "expire_date": null
    },
    {
      "name": "ダーリン",
      "name_kana": "ダーリン",
      "business_type": "① 飲食店営業",
      "address": "和歌山県田辺市高雄1-1-37",
      "lat": 33.73482,
      "lng": 135.381768,
      "geocoding_level": null,
      "phone": "",
      "license_no": "7-21-1-01-184",
      "license_date": "2021-07-21",
      "expire_date": "2027-07-31"
    },
    {
      "name": "すっぴん",
      "name_kana": "スッピン",
      "business_type": "① 飲食店営業",
      "address": "和歌山県田辺市高雄1－1－37",
      "lat": 33.73482,
      "lng": 135.381768,
      "geocoding_level": null,
      "phone": "0739240016",
      "license_no": "7-22-1-01-329",
      "license_date": "2022-10-19",
      "expire_date": "2028-10-31"
    },
    {
      "name": "串と鍋　炭人",
      "name_kana": "クシトナベ　スミンチュ",
      "business_type": "③ 食肉販売業",
      "address": "和歌山県田辺市湊14-1",
      "lat": 33.73269,
      "lng": 135.383573,
      "geocoding_level": null,
      "phone": "0739-20-1086",
      "license_no": "7-23-1-03-328",
      "license_date": "2023-10-27",
      "expire_date": "2029-10-31"
    },
    {
      "name": "らぁめん子弁慶",
      "name_kana": "ラァメンコベンケイ",
      "business_type": "① 飲食店営業",
      "address": "和歌山県田辺市湊2-5 SKビル1F",
      "lat": 33.733006,
      "lng": 135.383561,
      "geocoding_level": null,
      "phone": "0739-24-1616",
      "license_no": "7-21-1-01-195",
      "license_date": "2021-07-21",
      "expire_date": "2027-07-31"
    },
    {
      "name": "BERTH",
      "name_kana": "バース",
      "business_type": "① 飲食店営業",
      "address": "和歌山県田辺市湊2-12 十河ビル2階",
      "lat": 33.733493,
      "lng": 135.383111,
      "geocoding_level": null,
      "phone": "",
      "license_no": "7-21-1-01-192",
      "license_date": "2021-07-21",
      "expire_date": "2027-07-31"
    },
    {
      "name": "BAR GRID",
      "name_kana": "バー　グリッド",
      "business_type": "① 飲食店営業",
      "address": "和歌山県田辺市湊12-35",
      "lat": 33.732921,
      "lng": 135.382184,
      "geocoding_level": null,
      "phone": "",
      "license_no": "7-21-1-01-191",
      "license_date": "2021-07-21",
      "expire_date": "2027-07-31"
    },
    {
      "name": "me...",
      "name_kana": "ミー",
      "business_type": "① 飲食店営業",
      "address": "和歌山県田辺市湊12-32 堀ビル１F３号",
      "lat": 33.732875,
      "lng": 135.382268,
      "geocoding_level": null,
      "phone": "",
      "license_no": "7-25-1-01-203",
      "license_date": "2025-09-12",
      "expire_date": "2031-10-31"
    },
    {
      "name": "BASE",
      "name_kana": "バーゼ",
      "business_type": "⑱ 調味料製造・加工業",
      "address": "和歌山県田辺市下万呂463-3",
      "lat": 33.739724,
      "lng": 135.393196,
      "geocoding_level": null,
      "phone": "",
      "license_no": "",
      "license_date": null,
      "expire_date": null
    },
    {
      "name": "山菜屋",
      "name_kana": "サンサイヤ",
      "business_type": "㉑ 製茶業",
      "address": "和歌山県田辺市中辺路町野中287-5",
      "lat": 33.829917,
      "lng": 135.639914,
      "geocoding_level": null,
      "phone": "",
      "license_no": "",
      "license_date": null,
      "expire_date": null
    },
    {
      "name": "産直市場よってって　いなり本館",
      "name_kana": "サンチョクイチバヨッテッテ　イナリホンカン",
      "business_type": "① 飲食店営業",
      "address": "和歌山県田辺市稲成町270-1 よってっていなり本館　2階",
      "lat": 33.742838,
      "lng": 135.374617,
      "geocoding_level": null,
      "phone": "0739-25-4741",
      "license_no": "7-25-1-01-170",
      "license_date": "2025-08-05",
      "expire_date": "2031-10-31"
    },
    {
      "name": "産直市場よってって　いなり本館",
      "name_kana": "サンチョクイチバヨッテッテ　イナリホンカン",
      "business_type": "⑪ 百貨店、総合スーパー",
      "address": "和歌山県田辺市稲成町270-1",
      "lat": 33.74282,
      "lng": 135.374646,
      "geocoding_level": null,
      "phone": "0739-25-4741",
      "license_no": "",
      "license_date": null,
      "expire_date": null
    },
    {
      "name": "産直市場よってって　いなり本館（1階）",
      "name_kana": "サンチョクイチバ　ヨッテッテ　イナリホンカン　イチカイ",
      "business_type": "① 飲食店営業",
      "address": "和歌山県田辺市稲成町270-1",
      "lat": 33.74282,
      "lng": 135.374646,
      "geocoding_level": null,
      "phone": "0739-25-4741",
      "license_no": "7-21-1-01-329",
      "license_date": "2021-10-04",
      "expire_date": "2027-10-31"
    },
    {
      "name": "産直市場よってって　いなり本館（２階）",
      "name_kana": "サンチョクイチバ　ヨッテッテ　イナリホンカン　ニカイ",
      "business_type": "⑪ 菓子製造業",
      "address": "和歌山県田辺市稲成町270-1",
      "lat": 33.742838,
      "lng": 135.374617,
      "geocoding_level": null,
      "phone": "0739-25-4741",
      "license_no": "7-26-1-11-039",
      "license_date": "2026-04-21",
      "expire_date": "2032-04-30"
    },
    {
      "name": "中田食品株式会社　本社工場",
      "name_kana": "ナカタショクヒンカブシキガイシャ　ホンシャコウジョウ",
      "business_type": "㉙ 漬物製造業",
      "address": "和歌山県田辺市下三栖1475",
      "lat": 33.727207,
      "lng": 135.421621,
      "geocoding_level": null,
      "phone": "0739222486",
      "license_no": "7-21-1-29-253",
      "license_date": "2021-08-26",
      "expire_date": "2027-10-31"
    },
    {
      "name": "中田食品株式会社　本社工場",
      "name_kana": "ナカタショクヒンカブシキガイシャ　ホンシャコウジョウ",
      "business_type": "⑪ 菓子製造業",
      "address": "和歌山県田辺市下三栖1475",
      "lat": 33.72721,
      "lng": 135.421629,
      "geocoding_level": null,
      "phone": "",
      "license_no": "7-21-1-11-579",
      "license_date": "2022-01-31",
      "expire_date": "2028-01-31"
    },
    {
      "name": "中田食品株式会社　梅酒工房",
      "name_kana": "ナカタショクヒンカブシキガイシャ　ウメシュコウボウ",
      "business_type": "⑭ 清涼飲料水製造業",
      "address": "和歌山県田辺市下三栖1475-130",
      "lat": 33.725525,
      "lng": 135.424433,
      "geocoding_level": null,
      "phone": "0739222486",
      "license_no": "7-23-1-14-180",
      "license_date": "2023-07-28",
      "expire_date": "2029-07-31"
    },
    {
      "name": "中田食品株式会社　梅酒工房",
      "name_kana": "ナカタショクヒンカブシキガイシャ　ウメシュコウボウ",
      "business_type": "㉑ 酒類製造業",
      "address": "和歌山県田辺市下三栖1475-130",
      "lat": 33.725525,
      "lng": 135.424433,
      "geocoding_level": null,
      "phone": "0739222486",
      "license_no": "7-23-1-21-180",
      "license_date": "2023-07-28",
      "expire_date": "2029-07-31"
    },
    {
      "name": "中田食品株式会社　本社工場",
      "name_kana": "ナカタショクヒンカブシキガイシャ　ホンシャコウジョウ",
      "business_type": "㉕ そうざい製造業",
      "address": "和歌山県田辺市下三栖１４７５",
      "lat": 33.727207,
      "lng": 135.421621,
      "geocoding_level": null,
      "phone": "0739-22-2486",
      "license_no": "7-24-1-25-074",
      "license_date": "2024-04-25",
      "expire_date": "2031-04-30"
    },
    {
      "name": "中田食品株式会社　秋津工場",
      "name_kana": "ナカタショクヒンカブシキガイシャ　アキヅコウジョウ",
      "business_type": "㉚ 密封包装食品製造業",
      "address": "和歌山県田辺市秋津町1493",
      "lat": 33.751102,
      "lng": 135.392994,
      "geocoding_level": null,
      "phone": "",
      "license_no": "7-25-1-30-261",
      "license_date": "2025-10-07",
      "expire_date": "2032-10-31"
    },
    {
      "name": "田舎ごはんとカフェ　朴",
      "name_kana": "イナカゴハントカフェ　ボク",
      "business_type": "⑪ 菓子製造業",
      "address": "和歌山県田辺市中辺路町近露203",
      "lat": 33.817418,
      "lng": 135.609807,
      "geocoding_level": null,
      "phone": "0739-65-0694",
      "license_no": "7-21-1-11-200",
      "license_date": "2021-07-29",
      "expire_date": "2027-07-31"
    },
    {
      "name": "ねむの木食堂",
      "name_kana": "ネムノキショクドウ",
      "business_type": "① 飲食店営業",
      "address": "和歌山県田辺市中辺路町真砂1-2",
      "lat": 33.758334,
      "lng": 135.497814,
      "geocoding_level": null,
      "phone": "",
      "license_no": "7-24-1-01-373",
      "license_date": "2024-10-24",
      "expire_date": "2030-10-31"
    },
    {
      "name": "牟婁保育所",
      "name_kana": "ムロホイクショ",
      "business_type": "㉖ 集団給食施設",
      "address": "和歌山県田辺市江川16-1",
      "lat": 33.731153,
      "lng": 135.370433,
      "geocoding_level": null,
      "phone": "0739223020",
      "license_no": "",
      "license_date": null,
      "expire_date": null
    },
    {
      "name": "みどり保育所",
      "name_kana": "ミドリホイクショ",
      "business_type": "㉖ 集団給食施設",
      "address": "和歌山県田辺市末広町7-22",
      "lat": 33.725458,
      "lng": 135.381315,
      "geocoding_level": null,
      "phone": "0739223246",
      "license_no": "",
      "license_date": null,
      "expire_date": null
    },
    {
      "name": "日向保育所",
      "name_kana": "ヒナタホイクショ",
      "business_type": "㉖ 集団給食施設",
      "address": "和歌山県田辺市上芳養992-1",
      "lat": 33.801377,
      "lng": 135.36516,
      "geocoding_level": null,
      "phone": "0739370014",
      "license_no": "",
      "license_date": null,
      "expire_date": null
    },
    {
      "name": "稲成保育所",
      "name_kana": "イナリホイクショ",
      "business_type": "㉖ 集団給食施設",
      "address": "和歌山県田辺市稲成町701-22",
      "lat": 33.746915,
      "lng": 135.375507,
      "geocoding_level": null,
      "phone": "0739244570",
      "license_no": "",
      "license_date": null,
      "expire_date": null
    },
    {
      "name": "はやざと保育所",
      "name_kana": "ハヤザトホイクショ",
      "business_type": "㉖ 集団給食施設",
      "address": "和歌山県田辺市芳養町1774-9",
      "lat": 33.754553,
      "lng": 135.351428,
      "geocoding_level": null,
      "phone": "0739250263",
      "license_no": "",
      "license_date": null,
      "expire_date": null
    },
    {
      "name": "あゆかわ保育園",
      "name_kana": "アユカワホイクエン",
      "business_type": "㉖ 集団給食施設",
      "address": "和歌山県田辺市鮎川2596-1",
      "lat": 33.725996,
      "lng": 135.485839,
      "geocoding_level": null,
      "phone": "0739480153",
      "license_no": "",
      "license_date": null,
      "expire_date": null
    },
    {
      "name": "くりすがわ保育園",
      "name_kana": "クリスガワホイクエン",
      "business_type": "㉖ 集団給食施設",
      "address": "和歌山県田辺市中辺路町栗栖川483-1",
      "lat": 33.79414,
      "lng": 135.518,
      "geocoding_level": null,
      "phone": "0739640113",
      "license_no": "",
      "license_date": null,
      "expire_date": null
    },
    {
      "name": "もとまち保育所",
      "name_kana": "モトマチホイクショ",
      "business_type": "㉖ 集団給食施設",
      "address": "和歌山県田辺市天神崎3-28",
      "lat": 33.734311,
      "lng": 135.362359,
      "geocoding_level": null,
      "phone": "0739246062",
      "license_no": "",
      "license_date": null,
      "expire_date": null
    },
    {
      "name": "龍神地域保育所給食共同調理場",
      "name_kana": "リュウジンチイキホイクショキュウショクキョウドウチョウリジョウ",
      "business_type": "㉖ 集団給食施設",
      "address": "和歌山県田辺市龍神村殿原400",
      "lat": 33.896451,
      "lng": 135.529055,
      "geocoding_level": null,
      "phone": "0739782201",
      "license_no": "",
      "license_date": null,
      "expire_date": null
    },
    {
      "name": "上野悠悠館",
      "name_kana": "ウエノユウユウカン",
      "business_type": "① 飲食店営業",
      "address": "和歌山県田辺市下川下1259-3",
      "lat": 33.7446,
      "lng": 135.567659,
      "geocoding_level": null,
      "phone": "",
      "license_no": "7-21-1-01-219",
      "license_date": "2021-07-30",
      "expire_date": "2027-07-31"
    },
    {
      "name": "渡瀨農園",
      "name_kana": "ワタセノウエン",
      "business_type": "㉙ 漬物製造業",
      "address": "和歌山県田辺市龍神村福井2460",
      "lat": 33.890959,
      "lng": 135.435684,
      "geocoding_level": null,
      "phone": "",
      "license_no": "7-21-1-29-201",
      "license_date": "2021-07-30",
      "expire_date": "2027-07-31"
    },
    {
      "name": "渡瀨農園",
      "name_kana": "ワタセノウエン",
      "business_type": "⑯ 水産製品製造業",
      "address": "和歌山県田辺市龍神村福井2460",
      "lat": 33.890959,
      "lng": 135.435684,
      "geocoding_level": null,
      "phone": "",
      "license_no": "7-21-1-16-267",
      "license_date": "2021-09-10",
      "expire_date": "2027-10-31"
    },
    {
      "name": "串と鍋　炭人",
      "name_kana": "クシトナベ　スミンチュ",
      "business_type": "① 飲食店営業",
      "address": "和歌山県田辺市湊14-1",
      "lat": 33.73269,
      "lng": 135.383573,
      "geocoding_level": null,
      "phone": "0739-20-1086",
      "license_no": "7-21-1-01-221",
      "license_date": "2021-07-30",
      "expire_date": "2027-07-31"
    },
    {
      "name": "プチマート",
      "name_kana": "プチマート",
      "business_type": "⑦ 野菜果物販売業",
      "address": "和歌山県田辺市末広町10-28",
      "lat": 33.724697,
      "lng": 135.381642,
      "geocoding_level": null,
      "phone": "0739-24-8448",
      "license_no": "",
      "license_date": null,
      "expire_date": null
    },
    {
      "name": "キッサギャラリー（ジャンボタナベゴルフセンター内）",
      "name_kana": "キッサギャラリー　ジャンボタナベゴルフセンターナイ",
      "business_type": "① 飲食店営業",
      "address": "和歌山県田辺市新庄町3049-1",
      "lat": 33.700661,
      "lng": 135.390862,
      "geocoding_level": null,
      "phone": "0739-24-8181",
      "license_no": "7-21-1-01-208",
      "license_date": "2021-07-30",
      "expire_date": "2027-07-31"
    },
    {
      "name": "ボナペティ　ヤナギヤ",
      "name_kana": "ボナペティ　ヤナギヤ",
      "business_type": "⑪ 菓子製造業",
      "address": "和歌山県田辺市学園22-7",
      "lat": 33.72704,
      "lng": 135.390935,
      "geocoding_level": null,
      "phone": "",
      "license_no": "7-21-1-11-213",
      "license_date": "2021-07-30",
      "expire_date": "2027-07-31"
    },
    {
      "name": "くおっか",
      "name_kana": "クオッカ",
      "business_type": "① 飲食店営業",
      "address": "和歌山県田辺市新万21-18",
      "lat": 33.733282,
      "lng": 135.398026,
      "geocoding_level": null,
      "phone": "",
      "license_no": "7-21-1-01-205",
      "license_date": "2021-08-06",
      "expire_date": "2027-10-31"
    },
    {
      "name": "半治水産株式会社",
      "name_kana": "ハンジスイサンカブシキガイシャ",
      "business_type": "④ 魚介類販売業",
      "address": "和歌山県田辺市江川33-20",
      "lat": 33.73153,
      "lng": 135.366934,
      "geocoding_level": null,
      "phone": "0739-22-3355",
      "license_no": "7-21-1-04-212",
      "license_date": "2021-07-30",
      "expire_date": "2027-07-31"
    },
    {
      "name": "半治水産株式会社",
      "name_kana": "ハンジスイサンカブシキガイシャ",
      "business_type": "⑯ 水産製品製造業",
      "address": "和歌山県田辺市江川33-20",
      "lat": 33.73153,
      "lng": 135.366934,
      "geocoding_level": null,
      "phone": "0739-22-3355",
      "license_no": "7-24-1-16-71",
      "license_date": "2024-04-25",
      "expire_date": "2030-04-30"
    },
    {
      "name": "半治水産株式会社",
      "name_kana": "ハンジスイサンカブシキガイシャ",
      "business_type": "⑯ 水産製品製造業",
      "address": "和歌山県田辺市江川33-4",
      "lat": 33.731515,
      "lng": 135.366824,
      "geocoding_level": null,
      "phone": "0739-22-3355",
      "license_no": "7-24-1-16-72",
      "license_date": "2024-04-25",
      "expire_date": "2030-04-30"
    },
    {
      "name": "高級生食パン専門店乃が美はなれ田辺販売店",
      "name_kana": "コウキュウナマショクパンセンモンテンノガミハナレタナベハンバイテン",
      "business_type": "⑬ その他の食料・飲料販売業",
      "address": "和歌山県田辺市下万呂978-2",
      "lat": 33.738045,
      "lng": 135.397255,
      "geocoding_level": null,
      "phone": "0739-26-5368",
      "license_no": "",
      "license_date": null,
      "expire_date": null
    },
    {
      "name": "上野悠悠館",
      "name_kana": "ウエノユウユウカン",
      "business_type": "㉔ その他の食料品製造・加工業",
      "address": "和歌山県田辺市下川下1259-3",
      "lat": 33.7446,
      "lng": 135.567659,
      "geocoding_level": null,
      "phone": "",
      "license_no": "",
      "license_date": null,
      "expire_date": null
    },
    {
      "name": "バタフライ",
      "name_kana": "バタフライ",
      "business_type": "① 飲食店営業",
      "address": "和歌山県田辺市湊14-6",
      "lat": 33.732625,
      "lng": 135.383377,
      "geocoding_level": null,
      "phone": "0739-25-0258",
      "license_no": "7-21-1-01-214",
      "license_date": "2021-07-30",
      "expire_date": "2027-07-31"
    },
    {
      "name": "Yellow",
      "name_kana": "イエロー",
      "business_type": "① 飲食店営業",
      "address": "和歌山県田辺市湊6-15",
      "lat": 33.733748,
      "lng": 135.381826,
      "geocoding_level": null,
      "phone": "",
      "license_no": "7-21-1-01-216",
      "license_date": "2021-07-30",
      "expire_date": "2027-07-31"
    },
    {
      "name": "Yellow",
      "name_kana": "イエロー",
      "business_type": "① 飲食店営業",
      "address": "和歌山県田辺市湊17-24",
      "lat": 33.732587,
      "lng": 135.382411,
      "geocoding_level": null,
      "phone": "",
      "license_no": "7-23-1-01-499",
      "license_date": "2024-02-28",
      "expire_date": "2030-04-30"
    },
    {
      "name": "fantasia",
      "name_kana": "ファンタジア",
      "business_type": "① 飲食店営業",
      "address": "和歌山県田辺市明洋2-15-7 明洋坂井荘101",
      "lat": 33.741933,
      "lng": 135.358765,
      "geocoding_level": null,
      "phone": "",
      "license_no": "7-21-1-01-217",
      "license_date": "2021-07-30",
      "expire_date": "2027-07-31"
    },
    {
      "name": "fantasia",
      "name_kana": "ファンタジア",
      "business_type": "⑪ 菓子製造業",
      "address": "和歌山県田辺市明洋2-15-7 明洋坂井荘101",
      "lat": 33.741933,
      "lng": 135.358765,
      "geocoding_level": null,
      "phone": "",
      "license_no": "7-22-1-11-418",
      "license_date": "2022-11-17",
      "expire_date": "2029-01-31"
    },
    {
      "name": "らーめんハウス担担",
      "name_kana": "ラーメンハウスタンタン",
      "business_type": "① 飲食店営業",
      "address": "和歌山県田辺市湊6-35 Ksビル1F",
      "lat": 33.733571,
      "lng": 135.382496,
      "geocoding_level": null,
      "phone": "0739-25-8280",
      "license_no": "7-21-1-01-220",
      "license_date": "2021-07-30",
      "expire_date": "2027-07-31"
    },
    {
      "name": "FIRST LOVE",
      "name_kana": "ファーストラブ",
      "business_type": "① 飲食店営業",
      "address": "和歌山県田辺市湊11-5",
      "lat": 33.733211,
      "lng": 135.382129,
      "geocoding_level": null,
      "phone": "",
      "license_no": "7-21-1-01-230",
      "license_date": "2021-08-05",
      "expire_date": "2027-10-31"
    },
    {
      "name": "Porter Bonheur",
      "name_kana": "ポルテ　ボヌール",
      "business_type": "⑪ 菓子製造業",
      "address": "和歌山県田辺市下屋敷町56-1",
      "lat": 33.730301,
      "lng": 135.380026,
      "geocoding_level": null,
      "phone": "",
      "license_no": "7-21-1-11-228",
      "license_date": "2021-08-05",
      "expire_date": "2027-10-31"
    },
    {
      "name": "ATARU.CAFE",
      "name_kana": "アタルカフェ",
      "business_type": "① 飲食店営業",
      "address": "和歌山県田辺市下万呂493-1 アサヤマハイツB101",
      "lat": 33.738167,
      "lng": 135.392717,
      "geocoding_level": null,
      "phone": "",
      "license_no": "7-23-1-01-171",
      "license_date": "2023-07-21",
      "expire_date": "2029-07-31"
    },
    {
      "name": "和歌山県立神島高等学校　わんじゅ寮",
      "name_kana": "ワカヤマケンリツカシマコウトウガッコウ　ワンジュリヨウ",
      "business_type": "㉖ 集団給食施設",
      "address": "和歌山県田辺市文里一丁目13-13",
      "lat": 33.715815,
      "lng": 135.38998,
      "geocoding_level": null,
      "phone": "0739-22-2550",
      "license_no": "",
      "license_date": null,
      "expire_date": null
    },
    {
      "name": "和歌山県農業協同組合連合会　紀南食品工場　芳養事業所",
      "name_kana": "ワカヤマケンノウギョウキョウドウクミアイレンゴウカイ　キナンショクヒンコウジョウ　ハヤジギョウショ",
      "business_type": "㉙ 漬物製造業",
      "address": "和歌山県田辺市中芳養79",
      "lat": 33.765673,
      "lng": 135.357278,
      "geocoding_level": null,
      "phone": "0739-22-6789",
      "license_no": "7-21-1-29-234",
      "license_date": "2021-08-11",
      "expire_date": "2027-10-31"
    },
    {
      "name": "和歌山県農業協同組合連合会　紀南食品工場　芳養事業所",
      "name_kana": "ワカヤマケンノウギョウキョウドウクミアイレンゴウカイ　キナンショクヒンコウジョウ　ハヤジギョウショ",
      "business_type": "㉛ 食品の小分け業",
      "address": "和歌山県田辺市中芳養79",
      "lat": 33.765673,
      "lng": 135.357278,
      "geocoding_level": null,
      "phone": "0739-22-6789",
      "license_no": "7-22-1-31-536",
      "license_date": "2023-02-09",
      "expire_date": "2029-04-30"
    },
    {
      "name": "和歌山県農業協同組合連合会　紀南食品工場　芳養事業所",
      "name_kana": "ワカヤマケンノウギョウキョウドウクミアイレンゴウカイ　キナンショクヒンコウジョウ　ハヤジギョウショ",
      "business_type": "⑦ 野菜果物販売業",
      "address": "和歌山県田辺市中芳養79",
      "lat": 33.765645,
      "lng": 135.357271,
      "geocoding_level": null,
      "phone": "0739-22-6789",
      "license_no": "",
      "license_date": null,
      "expire_date": null
    },
    {
      "name": "和歌山県農業協同組合連合会　紀南食品工場　芳養事業所",
      "name_kana": "ワカヤマケンノウギョウキョウドウクミアイレンゴウカイ　キナンショクヒンコウジョウ　ハヤジギョウショ",
      "business_type": "⑬ その他の食料・飲料販売業",
      "address": "和歌山県田辺市中芳養79",
      "lat": 33.765645,
      "lng": 135.357271,
      "geocoding_level": null,
      "phone": "0739-22-6789",
      "license_no": "",
      "license_date": null,
      "expire_date": null
    },
    {
      "name": "OLD TRAIL CAFETERIA Cuisine du Midi",
      "name_kana": "オールド　トレイルカフェテリア　キュウジン　ドゥ　ミディ",
      "business_type": "① 飲食店営業",
      "address": "和歌山県田辺市中辺路町野中585",
      "lat": 33.827963,
      "lng": 135.633481,
      "geocoding_level": null,
      "phone": "",
      "license_no": "7-21-1-01-232",
      "license_date": "2021-08-11",
      "expire_date": "2027-10-31"
    },
    {
      "name": "OLD TRAIL CAFETERIA Cuisine du Midi",
      "name_kana": "オールド　トレイルカフェテリア　キュウジン　ドゥ　ミディ",
      "business_type": "⑪ 菓子製造業",
      "address": "和歌山県田辺市中辺路町野中585",
      "lat": 33.827963,
      "lng": 135.633481,
      "geocoding_level": null,
      "phone": "",
      "license_no": "7-23-1-11-006",
      "license_date": "2023-04-11",
      "expire_date": "2029-04-30"
    },
    {
      "name": "特別養護老人ホーム鮎川園",
      "name_kana": "トクベツヨウゴロウジンホーム　アユカワエン",
      "business_type": "㉖ 集団給食施設",
      "address": "和歌山県田辺市鮎川1313",
      "lat": 33.740088,
      "lng": 135.499889,
      "geocoding_level": null,
      "phone": "0739-49-0808",
      "license_no": "",
      "license_date": null,
      "expire_date": null
    },
    {
      "name": "LOBSTER",
      "name_kana": "ロブスター",
      "business_type": "① 飲食店営業",
      "address": "和歌山県田辺市新庄町3067-28",
      "lat": 33.701751,
      "lng": 135.390797,
      "geocoding_level": null,
      "phone": "0739-34-2744",
      "license_no": "7-21-1-01-235",
      "license_date": "2021-08-11",
      "expire_date": "2027-10-31"
    },
    {
      "name": "和歌山県立田辺工業高等学校　紀山寮",
      "name_kana": "ワカヤマケンリツタナベコウギョウコウトウガッコウ　キザンリョウ",
      "business_type": "㉖ 集団給食施設",
      "address": "和歌山県田辺市あけぼの28-19",
      "lat": 33.728725,
      "lng": 135.393672,
      "geocoding_level": null,
      "phone": "0739-22-3983",
      "license_no": "",
      "license_date": null,
      "expire_date": null
    },
    {
      "name": "八丁堀",
      "name_kana": "ハッチョウボリ",
      "business_type": "① 飲食店営業",
      "address": "和歌山県田辺市秋津町９７－２",
      "lat": 33.745563,
      "lng": 135.38885,
      "geocoding_level": null,
      "phone": "0739-26-3005",
      "license_no": "7-21-1-01-236",
      "license_date": "2021-08-12",
      "expire_date": "2027-10-31"
    },
    {
      "name": "株式会社濱田　芳養工場",
      "name_kana": "カブシキカイシャハマダ　ハヤコウジョウ",
      "business_type": "㉙ 漬物製造業",
      "address": "和歌山県田辺市芳養松原2-35-1",
      "lat": 33.752336,
      "lng": 135.352533,
      "geocoding_level": null,
      "phone": "0739-37-0044",
      "license_no": "7-21-1-29-238",
      "license_date": "2021-08-13",
      "expire_date": "2027-10-31"
    },
    {
      "name": "株式会社濱田",
      "name_kana": "カブシキカイシャハマダ",
      "business_type": "㉙ 漬物製造業",
      "address": "和歌山県田辺市上芳養391",
      "lat": 33.787769,
      "lng": 135.365324,
      "geocoding_level": null,
      "phone": "0739-37-0044",
      "license_no": "7-21-1-29-237",
      "license_date": "2021-08-13",
      "expire_date": "2027-10-31"
    },
    {
      "name": "株式会社濱田",
      "name_kana": "カブシキガイシャハマダ",
      "business_type": "⑦ 野菜果物販売業",
      "address": "和歌山県田辺市上芳養391",
      "lat": 33.787769,
      "lng": 135.365324,
      "geocoding_level": null,
      "phone": "0739-37-0044",
      "license_no": "",
      "license_date": null,
      "expire_date": null
    },
    {
      "name": "株式会社濱田",
      "name_kana": "カブシキガイシャハマダ",
      "business_type": "⑭ 清涼飲料水製造業",
      "address": "和歌山県田辺市上芳養391",
      "lat": 33.787769,
      "lng": 135.365324,
      "geocoding_level": null,
      "phone": "",
      "license_no": "7-24-1-14-048",
      "license_date": "2024-04-23",
      "expire_date": "2030-04-30"
    },
    {
      "name": "株式会社濱田",
      "name_kana": "カブシキガイシャハマダ",
      "business_type": "㉑ 酒類製造業",
      "address": "和歌山県田辺市上芳養391",
      "lat": 33.787769,
      "lng": 135.365324,
      "geocoding_level": null,
      "phone": "",
      "license_no": "7-24-1-21-048",
      "license_date": "2024-04-23",
      "expire_date": "2030-04-30"
    },
    {
      "name": "株式会社石神邑",
      "name_kana": "カブシキカイシャイシガミムラ",
      "business_type": "⑦ 野菜果物販売業",
      "address": "和歌山県田辺市上芳養391",
      "lat": 33.787744,
      "lng": 135.365315,
      "geocoding_level": null,
      "phone": "0739-37-0044",
      "license_no": "",
      "license_date": null,
      "expire_date": null
    },
    {
      "name": "株式会社坂東養蜂場",
      "name_kana": "カブシキガイシャバンドウヨウホウジョウ",
      "business_type": "⑦ 野菜果物販売業",
      "address": "和歌山県田辺市中芳養2992-2",
      "lat": 33.791069,
      "lng": 135.356273,
      "geocoding_level": null,
      "phone": "0739-37-0345",
      "license_no": "",
      "license_date": null,
      "expire_date": null
    },
    {
      "name": "ニチイケアセンター田辺",
      "name_kana": "ニチイケアセンタータナベ",
      "business_type": "㉖ 集団給食施設",
      "address": "和歌山県田辺市稲成町77-1",
      "lat": 33.73996,
      "lng": 135.370927,
      "geocoding_level": null,
      "phone": "0739-23-3901",
      "license_no": "",
      "license_date": null,
      "expire_date": null
    },
    {
      "name": "福井栄利子",
      "name_kana": "フクイエリコ",
      "business_type": "㉔ その他の食料品製造・加工業",
      "address": "和歌山県田辺市中辺路町小皆400-2",
      "lat": 33.795274,
      "lng": 135.500575,
      "geocoding_level": null,
      "phone": "0739-64-1145",
      "license_no": "",
      "license_date": null,
      "expire_date": null
    },
    {
      "name": "榎本玲子",
      "name_kana": "エノモトレイコ",
      "business_type": "㉔ その他の食料品製造・加工業",
      "address": "和歌山県田辺市秋津町523",
      "lat": 33.749182,
      "lng": 135.398173,
      "geocoding_level": null,
      "phone": "",
      "license_no": "",
      "license_date": null,
      "expire_date": null
    },
    {
      "name": "松本",
      "name_kana": "マツモト",
      "business_type": "㉑ 製茶業",
      "address": "和歌山県田辺市本宮町伏拝606",
      "lat": 33.869548,
      "lng": 135.749729,
      "geocoding_level": null,
      "phone": "",
      "license_no": "",
      "license_date": null,
      "expire_date": null
    },
    {
      "name": "特別養護老人ホーム　熊野本宮園",
      "name_kana": "トクベツヨウゴロウジンホーム　クマノホングウエン",
      "business_type": "㉖ 集団給食施設",
      "address": "和歌山県田辺市本宮町上大野97-1",
      "lat": 33.804663,
      "lng": 135.75501,
      "geocoding_level": null,
      "phone": "0735-42-1556",
      "license_no": "",
      "license_date": null,
      "expire_date": null
    },
    {
      "name": "ローソン田辺高雄三丁目店",
      "name_kana": "ローソンタナベタカオサンチョウメテン",
      "business_type": "① 飲食店営業",
      "address": "和歌山県田辺市高雄3-3-21",
      "lat": 33.73743,
      "lng": 135.385333,
      "geocoding_level": null,
      "phone": "",
      "license_no": "7-21-1-01-240",
      "license_date": "2021-08-18",
      "expire_date": "2027-10-31"
    },
    {
      "name": "ローソン田辺高雄三丁目店",
      "name_kana": "ローソンタナベタカオサンチョウメテン",
      "business_type": "⑩ コンビニエンスストア",
      "address": "和歌山県田辺市高雄3-3-21",
      "lat": 33.73743,
      "lng": 135.385333,
      "geocoding_level": null,
      "phone": "",
      "license_no": "",
      "license_date": null,
      "expire_date": null
    },
    {
      "name": "学校法人　昭和幼稚園",
      "name_kana": "ガッコウホウジン　ショウワヨウチエン",
      "business_type": "㉖ 集団給食施設",
      "address": "和歌山県田辺市高雄16-16",
      "lat": 33.738009,
      "lng": 135.382762,
      "geocoding_level": null,
      "phone": "0739220903",
      "license_no": "",
      "license_date": null,
      "expire_date": null
    },
    {
      "name": "ボイジャーブルーイング株式会社",
      "name_kana": "ボイジャーブルーイングカブシキガイシャ",
      "business_type": "㉔ その他の食料品製造・加工業",
      "address": "和歌山県田辺市上の山1-9-20",
      "lat": 33.736278,
      "lng": 135.362179,
      "geocoding_level": null,
      "phone": "0739-34-3305",
      "license_no": "",
      "license_date": null,
      "expire_date": null
    },
    {
      "name": "ボイジャーブルーイング株式会社",
      "name_kana": "ボイジャーブルーイングカブシキガイシャ",
      "business_type": "㉑ 酒類製造業",
      "address": "和歌山県田辺市上の山1-9-20",
      "lat": 33.736287,
      "lng": 135.362161,
      "geocoding_level": null,
      "phone": "0739-34-3305",
      "license_no": "7-22-1-21-165",
      "license_date": "2022-07-11",
      "expire_date": "2028-07-31"
    },
    {
      "name": "ボイジャーブルーイング株式会社",
      "name_kana": "ボイジャーブルーイングカブシキガイシャ",
      "business_type": "① 飲食店営業",
      "address": "和歌山県田辺市上の山1-9-20",
      "lat": 33.736287,
      "lng": 135.362161,
      "geocoding_level": null,
      "phone": "0739-34-3305",
      "license_no": "7-22-1-01-263",
      "license_date": "2022-09-12",
      "expire_date": "2028-10-31"
    },
    {
      "name": "久保",
      "name_kana": "クボ",
      "business_type": "㉔ その他の食料品製造・加工業",
      "address": "和歌山県田辺市江川9-37",
      "lat": 33.732481,
      "lng": 135.369512,
      "geocoding_level": null,
      "phone": "",
      "license_no": "",
      "license_date": null,
      "expire_date": null
    },
    {
      "name": "山﨑",
      "name_kana": "ヤマサキ",
      "business_type": "㉔ その他の食料品製造・加工業",
      "address": "和歌山県田辺市中三栖788-1",
      "lat": 33.743454,
      "lng": 135.434711,
      "geocoding_level": null,
      "phone": "",
      "license_no": "",
      "license_date": null,
      "expire_date": null
    },
    {
      "name": "羽竹養蜂園",
      "name_kana": "ハタケヨウホウエン",
      "business_type": "㉔ その他の食料品製造・加工業",
      "address": "和歌山県田辺市上三栖63",
      "lat": 33.75161,
      "lng": 135.438229,
      "geocoding_level": null,
      "phone": "0739-34-0351",
      "license_no": "",
      "license_date": null,
      "expire_date": null
    },
    {
      "name": "とりとんファーム",
      "name_kana": "トリトンファーム",
      "business_type": "② 食肉販売業（包装済みの食肉のみの販売）",
      "address": "和歌山県田辺市龍神村柳瀬528番地3号棟",
      "lat": 33.878931,
      "lng": 135.454174,
      "geocoding_level": null,
      "phone": "09092563907",
      "license_no": "",
      "license_date": null,
      "expire_date": null
    },
    {
      "name": "ふたば作業所",
      "name_kana": "フタバサギョウショ",
      "business_type": "㉖ 集団給食施設",
      "address": "和歌山県田辺市文里2丁目6-2",
      "lat": 33.722068,
      "lng": 135.38875,
      "geocoding_level": null,
      "phone": "0739-25-2781",
      "license_no": "",
      "license_date": null,
      "expire_date": null
    },
    {
      "name": "ふたば第二作業所",
      "name_kana": "フタバダイニサギョウショ",
      "business_type": "㉖ 集団給食施設",
      "address": "和歌山県田辺市文里1丁目13-9",
      "lat": 33.716025,
      "lng": 135.38998,
      "geocoding_level": null,
      "phone": "0739-25-4195",
      "license_no": "",
      "license_date": null,
      "expire_date": null
    },
    {
      "name": "たなかの杜",
      "name_kana": "タナカノモリ",
      "business_type": "㉖ 集団給食施設",
      "address": "和歌山県田辺市芳養町3216-19",
      "lat": 33.759538,
      "lng": 135.369192,
      "geocoding_level": null,
      "phone": "07369-26-1310",
      "license_no": "",
      "license_date": null,
      "expire_date": null
    },
    {
      "name": "容器・包装リサイクルセンター",
      "name_kana": "ヨウキ・ホウソウリサイクルセンター",
      "business_type": "㉖ 集団給食施設",
      "address": "和歌山県田辺市元町2291-6",
      "lat": 33.750788,
      "lng": 135.36609,
      "geocoding_level": null,
      "phone": "0739-25-3442",
      "license_no": "",
      "license_date": null,
      "expire_date": null
    },
    {
      "name": "通園ありんこ",
      "name_kana": "ツウエンアリンコ",
      "business_type": "㉖ 集団給食施設",
      "address": "和歌山県田辺市芳養町3216-19",
      "lat": 33.760123,
      "lng": 135.369284,
      "geocoding_level": null,
      "phone": "07369-25-5539",
      "license_no": "",
      "license_date": null,
      "expire_date": null
    },
    {
      "name": "田辺市新庁舎内カフェ",
      "name_kana": "タナベシシンチョウシャナイカフェ",
      "business_type": "① 飲食店営業",
      "address": "和歌山県田辺市東山１丁目５番１号",
      "lat": 33.729482,
      "lng": 135.389337,
      "geocoding_level": null,
      "phone": "0739-25-5667",
      "license_no": "7-24-1-01-065",
      "license_date": "2024-04-23",
      "expire_date": "2030-04-30"
    },
    {
      "name": "a spoonful of sugar",
      "name_kana": "ア　スプーンフル　オブ　シュガー",
      "business_type": "① 飲食店営業",
      "address": "和歌山県田辺市上屋敷2-11-29",
      "lat": 33.729837,
      "lng": 135.376243,
      "geocoding_level": null,
      "phone": "",
      "license_no": "7-21-1-01-245",
      "license_date": "2021-08-26",
      "expire_date": "2027-10-31"
    },
    {
      "name": "山際商店",
      "name_kana": "ヤマギワショウテン",
      "business_type": "⑦ 野菜果物販売業",
      "address": "和歌山県田辺市上秋津685",
      "lat": 33.754846,
      "lng": 135.399459,
      "geocoding_level": null,
      "phone": "0739-35-0030",
      "license_no": "",
      "license_date": null,
      "expire_date": null
    },
    {
      "name": "花光農園",
      "name_kana": "ハナミツノウエン",
      "business_type": "㉔ その他の食料品製造・加工業",
      "address": "和歌山県田辺市秋津川1703",
      "lat": 33.808906,
      "lng": 135.428072,
      "geocoding_level": null,
      "phone": "",
      "license_no": "",
      "license_date": null,
      "expire_date": null
    },
    {
      "name": "有限会社紀州うめまさ",
      "name_kana": "ユウゲンガイシャキシュウウメマサ",
      "business_type": "㉙ 漬物製造業",
      "address": "和歌山県田辺市天神崎16-7",
      "lat": 33.731978,
      "lng": 135.36139,
      "geocoding_level": null,
      "phone": "0739-23-1371",
      "license_no": "7-21-1-29-251",
      "license_date": "2021-08-26",
      "expire_date": "2027-10-31"
    },
    {
      "name": "有限会社紀州うめまさ",
      "name_kana": "ユウゲンガイシャキシュウウメマサ",
      "business_type": "⑪ 菓子製造業",
      "address": "和歌山県田辺市天神崎16-7",
      "lat": 33.731953,
      "lng": 135.361417,
      "geocoding_level": null,
      "phone": "23-1371",
      "license_no": "7-24-1-11-322",
      "license_date": "2024-09-25",
      "expire_date": "2030-10-31"
    },
    {
      "name": "おふくろの味　あっちゃん",
      "name_kana": "オフクロノアジ　アッチャン",
      "business_type": "① 飲食店営業",
      "address": "和歌山県田辺市湊5-1",
      "lat": 33.733752,
      "lng": 135.382827,
      "geocoding_level": null,
      "phone": "090-7340-3442",
      "license_no": "7-21-1-01-256",
      "license_date": "2021-08-31",
      "expire_date": "2027-10-31"
    },
    {
      "name": "株式会社日向屋",
      "name_kana": "カブシキガイシャヒナタヤ",
      "business_type": "㉙ 漬物製造業",
      "address": "和歌山県田辺市上芳養755-2",
      "lat": 33.803024,
      "lng": 135.362969,
      "geocoding_level": null,
      "phone": "",
      "license_no": "7-21-1-29-261",
      "license_date": "2021-09-10",
      "expire_date": "2027-10-31"
    },
    {
      "name": "株式会社日向屋",
      "name_kana": "カブシキガイシャヒナタヤ",
      "business_type": "⑦ 野菜果物販売業",
      "address": "和歌山県田辺市上芳養755-2",
      "lat": 33.803024,
      "lng": 135.362969,
      "geocoding_level": null,
      "phone": "",
      "license_no": "",
      "license_date": null,
      "expire_date": null
    },
    {
      "name": "株式会社日向屋",
      "name_kana": "カブシキガイシャヒナタヤ",
      "business_type": "㉔ その他の食料品製造・加工業",
      "address": "和歌山県田辺市上芳養755-2",
      "lat": 33.803024,
      "lng": 135.362969,
      "geocoding_level": null,
      "phone": "",
      "license_no": "",
      "license_date": null,
      "expire_date": null
    },
    {
      "name": "株式会社日向屋",
      "name_kana": "カブシキガイシャヒナタヤ",
      "business_type": "㉙ 漬物製造業",
      "address": "和歌山県田辺市上芳養688",
      "lat": 33.803291,
      "lng": 135.36229,
      "geocoding_level": null,
      "phone": "0739-37-0003",
      "license_no": "7-21-1-29-270",
      "license_date": "2021-09-10",
      "expire_date": "2027-10-31"
    },
    {
      "name": "株式会社日向屋",
      "name_kana": "カブシキガイシャヒナタヤ",
      "business_type": "⑦ 野菜果物販売業",
      "address": "和歌山県田辺市上芳養688",
      "lat": 33.803291,
      "lng": 135.36229,
      "geocoding_level": null,
      "phone": "0739-37-0003",
      "license_no": "",
      "license_date": null,
      "expire_date": null
    },
    {
      "name": "株式会社日向屋",
      "name_kana": "カブシキガイシャヒナタヤ",
      "business_type": "㉔ その他の食料品製造・加工業",
      "address": "和歌山県田辺市上芳養688",
      "lat": 33.803291,
      "lng": 135.36229,
      "geocoding_level": null,
      "phone": "0739-37-0003",
      "license_no": "",
      "license_date": null,
      "expire_date": null
    },
    {
      "name": "（株）日向屋",
      "name_kana": "カブシキガイシャヒナタヤ",
      "business_type": "㉔ その他の食料品製造・加工業",
      "address": "和歌山県田辺市上芳養755-2",
      "lat": 33.803024,
      "lng": 135.362969,
      "geocoding_level": null,
      "phone": "",
      "license_no": "",
      "license_date": null,
      "expire_date": null
    },
    {
      "name": "丸長水産株式会社　マルチョウフーズ",
      "name_kana": "マルチョウスイサンカブシキガイシャ　マルチョウフーズ",
      "business_type": "㉙ 漬物製造業",
      "address": "和歌山県田辺市文里2-34-1",
      "lat": 33.717758,
      "lng": 135.386436,
      "geocoding_level": null,
      "phone": "0739-24-2468",
      "license_no": "7-21-1-29-269",
      "license_date": "2021-09-10",
      "expire_date": "2027-10-31"
    },
    {
      "name": "丸長水産株式会社　マルチョウフーズ",
      "name_kana": "マルチョウスイサンカブシキガイシャ　マルチョウフーズ",
      "business_type": "㉙ 漬物製造業",
      "address": "和歌山県田辺市稲成町313-1",
      "lat": 33.741273,
      "lng": 135.377312,
      "geocoding_level": null,
      "phone": "",
      "license_no": "7-21-1-29-260",
      "license_date": "2021-09-10",
      "expire_date": "2027-10-31"
    },
    {
      "name": "丸長水産株式会社　マルチョウフーズ",
      "name_kana": "マルチョウスイサンカブシキガイシャ　マルチョウフーズ",
      "business_type": "⑦ 野菜果物販売業",
      "address": "和歌山県田辺市文里2-34-1",
      "lat": 33.71779,
      "lng": 135.386509,
      "geocoding_level": null,
      "phone": "0739-24-2468",
      "license_no": "",
      "license_date": null,
      "expire_date": null
    },
    {
      "name": "丸長水産株式会社　マルチョウフーズ",
      "name_kana": "マルチョウスイサンカブシキガイシャ　マルチョウフーズ",
      "business_type": "⑦ 野菜果物販売業",
      "address": "和歌山県田辺市稲成町313-1",
      "lat": 33.741273,
      "lng": 135.377312,
      "geocoding_level": null,
      "phone": "",
      "license_no": "",
      "license_date": null,
      "expire_date": null
    },
    {
      "name": "丸長水産株式会社",
      "name_kana": "マルチョウスイサンカブシキガイシャ",
      "business_type": "⑯ 水産製品製造業",
      "address": "和歌山県田辺市上の山2-23-35",
      "lat": 33.732007,
      "lng": 135.364065,
      "geocoding_level": null,
      "phone": "0739-24-2680",
      "license_no": "7-21-1-16-626",
      "license_date": "2022-03-17",
      "expire_date": "2028-04-30"
    },
    {
      "name": "丸長水産株式会社",
      "name_kana": "マルチョウスイサンカブシキガイシャ",
      "business_type": "⑰ 氷雪製造業",
      "address": "和歌山県田辺市上の山2-23-35",
      "lat": 33.732007,
      "lng": 135.364065,
      "geocoding_level": null,
      "phone": "0739-24-2680",
      "license_no": "7-22-1-17-586",
      "license_date": "2023-03-23",
      "expire_date": "2029-04-30"
    },
    {
      "name": "丸長水産株式会社",
      "name_kana": "マルチョウスイサンカブシキガイシャ",
      "business_type": "㉗ 冷凍食品製造業",
      "address": "和歌山県田辺市上の山2-23-35",
      "lat": 33.732007,
      "lng": 135.364065,
      "geocoding_level": null,
      "phone": "0739-24-2680",
      "license_no": "7-21-1-27-626",
      "license_date": "2022-03-17",
      "expire_date": "2028-04-30"
    },
    {
      "name": "丸長水産株式会社",
      "name_kana": "マルチョウスイサンカブシキガイシャ",
      "business_type": "② 食肉販売業（包装済みの食肉のみの販売）",
      "address": "和歌山県田辺市上の山2-23-35",
      "lat": 33.731975,
      "lng": 135.36407,
      "geocoding_level": null,
      "phone": "0739-24-2680",
      "license_no": "",
      "license_date": null,
      "expire_date": null
    },
    {
      "name": "丸長水産株式会社　マルチョウフーズ",
      "name_kana": "マルチョウスイサンカブシキガイシャマルチョウフーズ",
      "business_type": "⑪ 菓子製造業",
      "address": "和歌山県田辺市文里2-34-1",
      "lat": 33.717758,
      "lng": 135.386436,
      "geocoding_level": null,
      "phone": "0739-24-2468",
      "license_no": "7-22-1-11-306",
      "license_date": "2022-10-14",
      "expire_date": "2028-10-31"
    },
    {
      "name": "丸長水産株式会社",
      "name_kana": "マルチョウスイサンカブシキガイシャ",
      "business_type": "㉕ そうざい製造業",
      "address": "和歌山県田辺市上の山2-23-35",
      "lat": 33.732007,
      "lng": 135.364065,
      "geocoding_level": null,
      "phone": "0739-24-2680",
      "license_no": "7-25-1-25-297",
      "license_date": "2025-10-29",
      "expire_date": "2031-10-31"
    },
    {
      "name": "はっぱ",
      "name_kana": "ハッパ",
      "business_type": "① 飲食店営業",
      "address": "和歌山県田辺市上の山2-22-17",
      "lat": 33.733184,
      "lng": 135.363611,
      "geocoding_level": null,
      "phone": "0739-25-3227",
      "license_no": "7-21-1-01-379",
      "license_date": "2021-10-14",
      "expire_date": "2027-10-31"
    },