{
  "meta": {
    "updated": 1783568789,
    "sources": [
      {
        "source": "厚生労働省 食品衛生申請等システム（オープンデータ）",
        "license": "公共データ利用規約（第1.0版, PDL1.0）"
      }
    ]
  },
  "data": [
    {
      "name": "コナミスポーツクラブ寝屋川",
      "name_kana": "コナミスポーツクラブネヤガワ",
      "business_type": "⑤ コップ式自動販売機（自動洗浄・屋内設置）",
      "address": "大阪府寝屋川市本町17-8　2F",
      "lat": 34.765623,
      "lng": 135.626464,
      "geocoding_level": null,
      "phone": "072-812-1021",
      "license_no": "",
      "license_date": null,
      "expire_date": null
    },
    {
      "name": "Rintosull寝屋川",
      "name_kana": "リントスルネヤガワ",
      "business_type": "⑫ 自動販売機による販売業（コップ式自動販売機（自動洗浄・屋内設置）及び営業許可の対象となる自動販売機を除く）",
      "address": "大阪府寝屋川市八坂町17-2 やさかビル2F",
      "lat": 34.764657,
      "lng": 135.620985,
      "geocoding_level": null,
      "phone": "",
      "license_no": "",
      "license_date": null,
      "expire_date": null
    },
    {
      "name": "FIT PLACE 寝屋川",
      "name_kana": "フィットプレイスネヤガワ",
      "business_type": "⑫ 自動販売機による販売業（コップ式自動販売機（自動洗浄・屋内設置）及び営業許可の対象となる自動販売機を除く）",
      "address": "大阪府寝屋川市早子町18-14 寝屋川ABCビル",
      "lat": 34.763236,
      "lng": 135.620918,
      "geocoding_level": null,
      "phone": "072-300-2322",
      "license_no": "",
      "license_date": null,
      "expire_date": null
    },
    {
      "name": "LAVA寝屋川市",
      "name_kana": "ラバネヤガワシ",
      "business_type": "⑫ 自動販売機による販売業（コップ式自動販売機（自動洗浄・屋内設置）及び営業許可の対象となる自動販売機を除く）",
      "address": "大阪府寝屋川市八坂町16-19 樋口第2ビル2F",
      "lat": 34.764782,
      "lng": 135.621214,
      "geocoding_level": null,
      "phone": "",
      "license_no": "",
      "license_date": null,
      "expire_date": null
    },
    {
      "name": "カルディコーヒーファーム　アル・プラザ香里園店",
      "name_kana": "カルディコーヒーファーム　アル・プラザコウリエンテン",
      "business_type": "⑬ その他の食料・飲料販売業",
      "address": "大阪府寝屋川市日新町5番5号 アル・プラザ香里園１Ｆ",
      "lat": 34.783183,
      "lng": 135.623299,
      "geocoding_level": null,
      "phone": "072-802-3009",
      "license_no": "",
      "license_date": null,
      "expire_date": null
    },
    {
      "name": "ダイソー　寝屋川店",
      "name_kana": "ダイソー　ネヤガワテン",
      "business_type": "⑬ その他の食料・飲料販売業",
      "address": "大阪府寝屋川市高宮栄町１０－１",
      "lat": 34.759972,
      "lng": 135.629885,
      "geocoding_level": null,
      "phone": "",
      "license_no": "",
      "license_date": null,
      "expire_date": null
    },
    {
      "name": "ダイソー　香里中央店",
      "name_kana": "ダイソー　コウリチュウオウテン",
      "business_type": "⑬ その他の食料・飲料販売業",
      "address": "大阪府寝屋川市香里南之町３０－１ 第３林ビル１階",
      "lat": 34.783795,
      "lng": 135.628893,
      "geocoding_level": null,
      "phone": "",
      "license_no": "",
      "license_date": null,
      "expire_date": null
    },
    {
      "name": "ダイソー　バロー寝屋川店",
      "name_kana": "ダイソー　バローネヤガワテン",
      "business_type": "⑬ その他の食料・飲料販売業",
      "address": "大阪府寝屋川市寝屋南２丁目２１番２５号",
      "lat": 34.767001,
      "lng": 135.649888,
      "geocoding_level": null,
      "phone": "",
      "license_no": "",
      "license_date": null,
      "expire_date": null
    },
    {
      "name": "ダイソー　イズミヤ寝屋川店",
      "name_kana": "ダイソー　イズミヤネヤガワテン",
      "business_type": "⑬ その他の食料・飲料販売業",
      "address": "大阪府寝屋川市早子町２３－１ アドバンスねやがわ１号館５階",
      "lat": 34.76408,
      "lng": 135.621937,
      "geocoding_level": null,
      "phone": "",
      "license_no": "",
      "license_date": null,
      "expire_date": null
    },
    {
      "name": "コーナン寝屋川仁和寺店",
      "name_kana": "コーナンネヤガワニワジテン",
      "business_type": "⑪ 百貨店、総合スーパー",
      "address": "大阪府寝屋川市仁和寺町20番11号",
      "lat": 34.763801,
      "lng": 135.598825,
      "geocoding_level": null,
      "phone": "072-827-4057",
      "license_no": "",
      "license_date": null,
      "expire_date": null
    },
    {
      "name": "コーナン寝屋川昭栄店",
      "name_kana": "コーナンネヤガワショウエイテン",
      "business_type": "⑪ 百貨店、総合スーパー",
      "address": "大阪府寝屋川市昭栄町18-20",
      "lat": 34.75866,
      "lng": 135.625774,
      "geocoding_level": null,
      "phone": "0728113660",
      "license_no": "",
      "license_date": null,
      "expire_date": null
    },
    {
      "name": "コーナン東寝屋川店",
      "name_kana": "コーナンヒガシネヤガワテン",
      "business_type": "⑪ 百貨店、総合スーパー",
      "address": "大阪府寝屋川市打上中町９-５",
      "lat": 34.758947,
      "lng": 135.6548,
      "geocoding_level": null,
      "phone": "072-812-1071",
      "license_no": "",
      "license_date": null,
      "expire_date": null
    },
    {
      "name": "FIT PLACE 24 香里園",
      "name_kana": "フィットプレイスニジュウヨンコウリエン",
      "business_type": "⑫ 自動販売機による販売業（コップ式自動販売機（自動洗浄・屋内設置）及び営業許可の対象となる自動販売機を除く）",
      "address": "大阪府寝屋川市香里南之町21-20 マジェスティ香里園3F",
      "lat": 34.783313,
      "lng": 135.630271,
      "geocoding_level": null,
      "phone": "",
      "license_no": "",
      "license_date": null,
      "expire_date": null
    },
    {
      "name": "アクトスWill_Gホームズ寝屋川",
      "name_kana": "アクトスウィルジーホームズネヤガワ",
      "business_type": "⑫ 自動販売機による販売業（コップ式自動販売機（自動洗浄・屋内設置）及び営業許可の対象となる自動販売機を除く）",
      "address": "大阪府寝屋川市日新町3-15 ホームズ寝屋川1F",
      "lat": 34.781799,
      "lng": 135.621646,
      "geocoding_level": null,
      "phone": "",
      "license_no": "",
      "license_date": null,
      "expire_date": null
    },
    {
      "name": "キッチンオリジン　寝屋川店",
      "name_kana": "キッチンオリジンネヤガワテン",
      "business_type": "① 飲食店営業",
      "address": "大阪府寝屋川市早子町18-10",
      "lat": 34.763248,
      "lng": 135.620612,
      "geocoding_level": null,
      "phone": "072-812-3871",
      "license_no": "第101-201号",
      "license_date": "2023-08-18",
      "expire_date": "2029-08-31"
    },
    {
      "name": "キッチンオリジン　寝屋川店",
      "name_kana": "キッチンオリジンネヤガワテン",
      "business_type": "⑬ その他の食料・飲料販売業",
      "address": "大阪府寝屋川市早子町18-10",
      "lat": 34.763248,
      "lng": 135.620612,
      "geocoding_level": null,
      "phone": "072-812-3871",
      "license_no": "",
      "license_date": null,
      "expire_date": null
    },
    {
      "name": "キッチンオリジン　香里園店",
      "name_kana": "キッチンオリジンコウリエンテン",
      "business_type": "① 飲食店営業",
      "address": "大阪府寝屋川市香里南之町20-24　高橋ビル1階",
      "lat": 34.783882,
      "lng": 135.630421,
      "geocoding_level": null,
      "phone": "072-837-1661",
      "license_no": "第101-054号",
      "license_date": "2023-05-09",
      "expire_date": "2029-05-31"
    },
    {
      "name": "キッチンオリジン　香里園店",
      "name_kana": "キッチンオリジンコウリエンテン",
      "business_type": "⑬ その他の食料・飲料販売業",
      "address": "大阪府寝屋川市香里南之町20-24　高橋ビル1階",
      "lat": 34.783882,
      "lng": 135.630421,
      "geocoding_level": null,
      "phone": "072-837-1661",
      "license_no": "",
      "license_date": null,
      "expire_date": null
    },
    {
      "name": "日本デイリーネット株式会社",
      "name_kana": "ニッポンデイリーネットカブシキガイシャ",
      "business_type": "㉙ その他",
      "address": "大阪府寝屋川市点野二丁目24-12",
      "lat": 34.779007,
      "lng": 135.608233,
      "geocoding_level": null,
      "phone": "072-826-7700",
      "license_no": "",
      "license_date": null,
      "expire_date": null
    },
    {
      "name": "クスリキリン堂　石津南店",
      "name_kana": "クスリキリンドウ　イシズミナミテン",
      "business_type": "⑬ その他の食料・飲料販売業",
      "address": "大阪府寝屋川市石津南町18-1",
      "lat": 34.775493,
      "lng": 135.623584,
      "geocoding_level": null,
      "phone": "072-801-7761",
      "license_no": "",
      "license_date": null,
      "expire_date": null
    },
    {
      "name": "クスリキリン堂　寝屋川打上店",
      "name_kana": "クスリキリンドウ　ネヤガワウチアゲテン",
      "business_type": "⑬ その他の食料・飲料販売業",
      "address": "大阪府寝屋川市打上元町12番13",
      "lat": 34.757215,
      "lng": 135.654872,
      "geocoding_level": null,
      "phone": "072-811-5525",
      "license_no": "",
      "license_date": null,
      "expire_date": null
    },
    {
      "name": "バロー寝屋川店",
      "name_kana": "バローネヤガワテン",
      "business_type": "⑪ 百貨店、総合スーパー",
      "address": "大阪府寝屋川市寝屋南２丁目２１番２５号",
      "lat": 34.766998,
      "lng": 135.649759,
      "geocoding_level": null,
      "phone": "072-825-8611",
      "license_no": "",
      "license_date": null,
      "expire_date": null
    },
    {
      "name": "バロー香里園店",
      "name_kana": "バローコウリエンテン",
      "business_type": "⑪ 百貨店、総合スーパー",
      "address": "大阪府寝屋川市日新町３番１１号",
      "lat": 34.781622,
      "lng": 135.620924,
      "geocoding_level": null,
      "phone": "072-812-5377",
      "license_no": "",
      "license_date": null,
      "expire_date": null
    },
    {
      "name": "お茶の玉宗園　香里園店",
      "name_kana": "オチャノギョクソウエン　コウリエンテン",
      "business_type": "⑬ その他の食料・飲料販売業",
      "address": "大阪府寝屋川市日新町5-5 アルプラザ香里園1F",
      "lat": 34.783183,
      "lng": 135.623299,
      "geocoding_level": null,
      "phone": "072-833-4386",
      "license_no": "",
      "license_date": null,
      "expire_date": null
    },
    {
      "name": "お茶の玉宗園　ビバモール寝屋川店",
      "name_kana": "オチャノギョクソウエン　ビバモールネヤガワテン",
      "business_type": "⑬ その他の食料・飲料販売業",
      "address": "大阪府寝屋川市寝屋南2-22-2 ビバモール寝屋川フレンドマート内",
      "lat": 34.766345,
      "lng": 135.650239,
      "geocoding_level": null,
      "phone": "072-821-3388",
      "license_no": "",
      "license_date": null,
      "expire_date": null
    },
    {
      "name": "かっぱ寿司　寝屋川香里店/丼ぶり専門 清水港 バンノウ水産 寝屋川香里店",
      "name_kana": "カッパズシ　ネヤガワコオリテン  ドンブリセンモン  シミズコウ  バンノウスイサン  ネヤガワコオリテン",
      "business_type": "⑪ 菓子製造業",
      "address": "大阪府寝屋川市香里西之町26-23",
      "lat": 34.788795,
      "lng": 135.624661,
      "geocoding_level": null,
      "phone": "072-802-3115",
      "license_no": "第101-462号",
      "license_date": "2023-03-08",
      "expire_date": "2029-03-31"
    },
    {
      "name": "かっぱ寿司　寝屋川香里店",
      "name_kana": "カッパズシ　ネヤガワコオリテン",
      "business_type": "⑬ その他の食料・飲料販売業",
      "address": "大阪府寝屋川市香里西之町26-23",
      "lat": 34.788799,
      "lng": 135.624675,
      "geocoding_level": null,
      "phone": "072-802-3115",
      "license_no": "",
      "license_date": null,
      "expire_date": null
    },
    {
      "name": "かっぱ寿司　寝屋川太秦店/丼ぶり専門 清水港 バンノウ水産 寝屋川太秦店",
      "name_kana": "カッパズシ　ネヤガワウズマサテン  ドンブリセンモン  シミズコウ  バンノウスイサン  ネヤガワウズマサテン",
      "business_type": "⑪ 菓子製造業",
      "address": "大阪府寝屋川市宇谷町2-3",
      "lat": 34.76787,
      "lng": 135.645769,
      "geocoding_level": null,
      "phone": "072-811-3373",
      "license_no": "第101-461号",
      "license_date": "2023-03-08",
      "expire_date": "2029-03-31"
    },
    {
      "name": "かっぱ寿司　寝屋川太秦店",
      "name_kana": "カッパズシ　ネヤガワウズマサテン",
      "business_type": "⑬ その他の食料・飲料販売業",
      "address": "大阪府寝屋川市宇谷町2-3",
      "lat": 34.767892,
      "lng": 135.645746,
      "geocoding_level": null,
      "phone": "072-811-3373",
      "license_no": "",
      "license_date": null,
      "expire_date": null
    },
    {
      "name": "島忠ホームズ寝屋川店",
      "name_kana": "シマチュウホームズネヤガワテン",
      "business_type": "⑬ その他の食料・飲料販売業",
      "address": "大阪府寝屋川市日新町3-15",
      "lat": 34.781799,
      "lng": 135.621646,
      "geocoding_level": null,
      "phone": "072-826-8686",
      "license_no": "",
      "license_date": null,
      "expire_date": null
    },
    {
      "name": "サンディ萱島神田店",
      "name_kana": "サンディカヤシマカミダテン",
      "business_type": "⑪ 百貨店、総合スーパー",
      "address": "大阪府寝屋川市御幸東町１４－１３",
      "lat": 34.75203,
      "lng": 135.60864,
      "geocoding_level": null,
      "phone": "072-838-9550",
      "license_no": "",
      "license_date": null,
      "expire_date": null
    },
    {
      "name": "サンディ寝屋川出雲店",
      "name_kana": "サンディネヤガワイズモテン",
      "business_type": "⑪ 百貨店、総合スーパー",
      "address": "大阪府寝屋川市出雲町１－５",
      "lat": 34.759682,
      "lng": 135.622452,
      "geocoding_level": null,
      "phone": "072-825-3564",
      "license_no": "",
      "license_date": null,
      "expire_date": null
    },
    {
      "name": "サンディ寝屋川池田本町店",
      "name_kana": "サンディネヤガワイケダホンマチテン",
      "business_type": "⑪ 百貨店、総合スーパー",
      "address": "大阪府寝屋川市池田本町２９－４０",
      "lat": 34.770101,
      "lng": 135.61455,
      "geocoding_level": null,
      "phone": "072-830-0161",
      "license_no": "",
      "license_date": null,
      "expire_date": null
    },
    {
      "name": "サンディ寝屋川石津店",
      "name_kana": "サンディネヤガワイシヅテン",
      "business_type": "⑪ 百貨店、総合スーパー",
      "address": "大阪府寝屋川市石津東町３３－１３",
      "lat": 34.780146,
      "lng": 135.624407,
      "geocoding_level": null,
      "phone": "072-801-7177",
      "license_no": "",
      "license_date": null,
      "expire_date": null
    },
    {
      "name": "サンディ東香里店",
      "name_kana": "サンディヒガシコオリテン",
      "business_type": "⑪ 百貨店、総合スーパー",
      "address": "大阪府寝屋川市寝屋１－４－１",
      "lat": 34.771852,
      "lng": 135.651352,
      "geocoding_level": null,
      "phone": "072-820-3207",
      "license_no": "",
      "license_date": null,
      "expire_date": null
    },
    {
      "name": "サンディ寝屋川黒原店",
      "name_kana": "サンディネヤガワクロハラテン",
      "business_type": "⑪ 百貨店、総合スーパー",
      "address": "大阪府寝屋川市黒原旭町２４番４号",
      "lat": 34.760362,
      "lng": 135.600646,
      "geocoding_level": null,
      "phone": "070-3321-5661",
      "license_no": "",
      "license_date": null,
      "expire_date": null
    },
    {
      "name": "株式会社フジワラ包装",
      "name_kana": "カブシキガイシャフジワラホウソウ",
      "business_type": "㉗ 器具、容器包装の製造・加工業（合成樹脂が使用された器具又は容器包装の製造、加工に限る。）",
      "address": "大阪府寝屋川市池田北町18-1",
      "lat": 34.78014,
      "lng": 135.614919,
      "geocoding_level": null,
      "phone": "072-830-2822",
      "license_no": "",
      "license_date": null,
      "expire_date": null
    },
    {
      "name": "株式会社フジワラ包装",
      "name_kana": "カブシキガイシャフジワラホウソウ",
      "business_type": "㉗ 器具、容器包装の製造・加工業（合成樹脂が使用された器具又は容器包装の製造、加工に限る。）",
      "address": "大阪府寝屋川市池田北町18-1",
      "lat": 34.78014,
      "lng": 135.614919,
      "geocoding_level": null,
      "phone": "072-830-2822",
      "license_no": "",
      "license_date": null,
      "expire_date": null
    },
    {
      "name": "有限会社関西中央アグリ",
      "name_kana": "ユウゲンガイシャカンサイチュウオウアグリ",
      "business_type": "⑦ 野菜果物販売業",
      "address": "大阪府寝屋川市太間東町10-21",
      "lat": 34.783118,
      "lng": 135.614667,
      "geocoding_level": null,
      "phone": "0726531555",
      "license_no": "",
      "license_date": null,
      "expire_date": null
    },
    {
      "name": "スギ薬局  寝屋川萱島店",
      "name_kana": "スギヤッキョク  ネヤガワカヤシマテン",
      "business_type": "⑬ その他の食料・飲料販売業",
      "address": "大阪府寝屋川市萱島東3丁目17番8号",
      "lat": 34.746005,
      "lng": 135.619386,
      "geocoding_level": null,
      "phone": "072-825-7233",
      "license_no": "",
      "license_date": null,
      "expire_date": null
    },
    {
      "name": "スギ薬局  東香里店",
      "name_kana": "スギヤッキョク  ヒガシコウリテン",
      "business_type": "⑬ その他の食料・飲料販売業",
      "address": "大阪府寝屋川市寝屋一丁目2番8号",
      "lat": 34.771103,
      "lng": 135.649872,
      "geocoding_level": null,
      "phone": "072-811-5222",
      "license_no": "",
      "license_date": null,
      "expire_date": null
    },
    {
      "name": "スギドラッグ  寝屋川木田店",
      "name_kana": "スギドラッグ  ネヤガワキダテン",
      "business_type": "⑬ その他の食料・飲料販売業",
      "address": "大阪府寝屋川市木田元宮1丁目20番1号",
      "lat": 34.751115,
      "lng": 135.624207,
      "geocoding_level": null,
      "phone": "072-803-6636",
      "license_no": "",
      "license_date": null,
      "expire_date": null
    },
    {
      "name": "スギドラッグ  寝屋川黒原店",
      "name_kana": "スギドラッグ  ネヤガワクロハラテン",
      "business_type": "⑪ 百貨店、総合スーパー",
      "address": "大阪府寝屋川市黒原新町9番1号",
      "lat": 34.757792,
      "lng": 135.597487,
      "geocoding_level": null,
      "phone": "072-801-9055",
      "license_no": "",
      "license_date": null,
      "expire_date": null
    },
    {
      "name": "スギドラッグ  寝屋川成美店",
      "name_kana": "スギドラッグ  ネヤガワセイビテン",
      "business_type": "⑪ 百貨店、総合スーパー",
      "address": "大阪府寝屋川市成美町28番3号",
      "lat": 34.760824,
      "lng": 135.613147,
      "geocoding_level": null,
      "phone": "072-800-3032",
      "license_no": "",
      "license_date": null,
      "expire_date": null
    },
    {
      "name": "ドラッグジャパン  寝屋川店",
      "name_kana": "ドラッグジャパン  ネヤガワテン",
      "business_type": "⑪ 百貨店、総合スーパー",
      "address": "大阪府寝屋川市葛原１丁目22-10",
      "lat": 34.77128,
      "lng": 135.606491,
      "geocoding_level": null,
      "phone": "072-830-6155",
      "license_no": "",
      "license_date": null,
      "expire_date": null
    },
    {
      "name": "スギドラッグ  香里西店",
      "name_kana": "スギドラッグ  コオリニシテン",
      "business_type": "⑪ 百貨店、総合スーパー",
      "address": "大阪府寝屋川市香里西之町4番9号",
      "lat": 34.787679,
      "lng": 135.626524,
      "geocoding_level": null,
      "phone": "072-800-6414",
      "license_no": "",
      "license_date": null,
      "expire_date": null
    },
    {
      "name": "スギドラッグ　寝屋川市駅前店",
      "name_kana": "スギドラッグ　ネヤガワシエキマエテン",
      "business_type": "⑪ 百貨店、総合スーパー",
      "address": "大阪府寝屋川市八坂町16番20号 第一観光ビル1階",
      "lat": 34.764635,
      "lng": 135.621167,
      "geocoding_level": null,
      "phone": "072-812-3206",
      "license_no": "",
      "license_date": null,
      "expire_date": null
    },
    {
      "name": "株式会社スピルリナ研究所　寝屋川工場",
      "name_kana": "スピルリナケンキュウショ　ネヤガワコウジョウ",
      "business_type": "⑮ いわゆる健康食品の製造・加工業",
      "address": "大阪府寝屋川市太間東町4-6",
      "lat": 34.781302,
      "lng": 135.616544,
      "geocoding_level": null,
      "phone": "",
      "license_no": "",
      "license_date": null,
      "expire_date": null
    },
    {
      "name": "不二興業株式会社ダイアナ大利店1Fプレイゾーン",
      "name_kana": "フジコウギョウカブシキガイシャダイアナタイリテンイッカイプレイゾーン",
      "business_type": "⑤ コップ式自動販売機（自動洗浄・屋内設置）",
      "address": "大阪府寝屋川市大利町11-33",
      "lat": 34.767008,
      "lng": 135.618795,
      "geocoding_level": null,
      "phone": "",
      "license_no": "",
      "license_date": null,
      "expire_date": null
    },
    {
      "name": "もち吉　寝屋川店",
      "name_kana": "モチキチ　ネヤガワテン",
      "business_type": "⑬ その他の食料・飲料販売業",
      "address": "大阪府寝屋川市打上中町7-15",
      "lat": 34.759358,
      "lng": 135.656574,
      "geocoding_level": null,
      "phone": "072-811-5611",
      "license_no": "",
      "license_date": null,
      "expire_date": null
    },
    {
      "name": "株式会社平和堂フレンドマートビバモール寝屋川店",
      "name_kana": "カブシキガイシャヘイワドウフレンドマートビバモールネヤガワテン",
      "business_type": "⑪ 百貨店、総合スーパー",
      "address": "大阪府寝屋川市寝屋南二丁目22番2号",
      "lat": 34.766372,
      "lng": 135.650259,
      "geocoding_level": null,
      "phone": "0723929150",
      "license_no": "",
      "license_date": null,
      "expire_date": null
    },
    {
      "name": "キング香里園店",
      "name_kana": "キングコウリエンテン",
      "business_type": "⑤ コップ式自動販売機（自動洗浄・屋内設置）",
      "address": "大阪府寝屋川市香里新町27番18号",
      "lat": 34.786946,
      "lng": 135.631053,
      "geocoding_level": null,
      "phone": "",
      "license_no": "",
      "license_date": null,
      "expire_date": null
    },
    {
      "name": "株式会社平和堂　アル・プラザ香里園",
      "name_kana": "カブシキガイシャ　アル・プラザコウリエン",
      "business_type": "⑪ 百貨店、総合スーパー",
      "address": "大阪府寝屋川市日新町５番５号",
      "lat": 34.783183,
      "lng": 135.623299,
      "geocoding_level": null,
      "phone": "0728356600",
      "license_no": "",
      "license_date": null,
      "expire_date": null
    },
    {
      "name": "ドン・キホーテ香里園店",
      "name_kana": "ドン・キホーテコウリエンテン",
      "business_type": "⑪ 百貨店、総合スーパー",
      "address": "大阪府寝屋川市香里南之町27-28",
      "lat": 34.783336,
      "lng": 135.629679,
      "geocoding_level": null,
      "phone": "072-802-4011",
      "license_no": "",
      "license_date": null,
      "expire_date": null
    },
    {
      "name": "ドン・キホーテ寝屋川店",
      "name_kana": "ドン・キホーテネヤガワテン",
      "business_type": "⑪ 百貨店、総合スーパー",
      "address": "大阪府寝屋川市池田新町6-3",
      "lat": 34.774049,
      "lng": 135.611413,
      "geocoding_level": null,
      "phone": "0570-550-337",
      "license_no": "",
      "license_date": null,
      "expire_date": null
    },
    {
      "name": "キャンパスドンキ大阪電通大店",
      "name_kana": "キャンパスドンキオオサカデンツウダイテン",
      "business_type": "⑬ その他の食料・飲料販売業",
      "address": "大阪府寝屋川市初町18-8 寝屋川キャンパスJ号館",
      "lat": 34.760884,
      "lng": 135.6264,
      "geocoding_level": null,
      "phone": "0570-550-337",
      "license_no": "",
      "license_date": null,
      "expire_date": null
    },
    {
      "name": "おおさかﾊﾟﾙｺｰﾌﾟ寝屋川支所",
      "name_kana": "オオサカパルコープネヤガワシショ",
      "business_type": "⑤ コップ式自動販売機（自動洗浄・屋内設置）",
      "address": "大阪府寝屋川市宇谷町7-4",
      "lat": 34.767433,
      "lng": 135.646975,
      "geocoding_level": null,
      "phone": "",
      "license_no": "",
      "license_date": null,
      "expire_date": null
    },
    {
      "name": "エスペック株式会社3階",
      "name_kana": "エスペックカブシキガイシャサンカイ",
      "business_type": "⑤ コップ式自動販売機（自動洗浄・屋内設置）",
      "address": "大阪府寝屋川市太間東町15-8",
      "lat": 34.784711,
      "lng": 135.615528,
      "geocoding_level": null,
      "phone": "",
      "license_no": "",
      "license_date": null,
      "expire_date": null
    },
    {
      "name": "コノミヤ寝屋川店",
      "name_kana": "コノミヤネヤガワテン",
      "business_type": "⑪ 百貨店、総合スーパー",
      "address": "大阪府寝屋川市高柳2-23-1",
      "lat": 34.759887,
      "lng": 135.609997,
      "geocoding_level": null,
      "phone": "",
      "license_no": "",
      "license_date": null,
      "expire_date": null
    },
    {
      "name": "ファミリーマート寝屋川マルハン店",
      "name_kana": "ファミリーマートネヤガワマルハンテン",
      "business_type": "⑩ コンビニエンスストア",
      "address": "大阪府寝屋川市石津中町25-32",
      "lat": 34.780645,
      "lng": 135.619486,
      "geocoding_level": null,
      "phone": "072-830-1501",
      "license_no": "",
      "license_date": null,
      "expire_date": null
    },
    {
      "name": "ファミリーマート寝屋川マルハン店",
      "name_kana": "ファミリーマートネヤガワマルハンテン",
      "business_type": "① 飲食店営業",
      "address": "大阪府寝屋川市石津中町25番32号",
      "lat": 34.780651,
      "lng": 135.619482,
      "geocoding_level": null,
      "phone": "072-830-1501",
      "license_no": "第101-384号",
      "license_date": "2023-12-05",
      "expire_date": "2029-12-27"
    },
    {
      "name": "株式会社平和堂　フレンドマート東寝屋川店",
      "name_kana": "カブシキガイシャヘイワドウ　フレンドマートヒガシネヤガワテン",
      "business_type": "⑪ 百貨店、総合スーパー",
      "address": "大阪府寝屋川市打上中町9番5号",
      "lat": 34.759251,
      "lng": 135.654986,
      "geocoding_level": null,
      "phone": "072-811-4731",
      "license_no": "",
      "license_date": null,
      "expire_date": null
    },
    {
      "name": "㈱正木牧場",
      "name_kana": "マサキボクジョウ",
      "business_type": "⑬ その他の食料・飲料販売業",
      "address": "大阪府寝屋川市全域",
      "lat": 34.76625,
      "lng": 135.628017,
      "geocoding_level": null,
      "phone": "",
      "license_no": "",
      "license_date": null,
      "expire_date": null
    },
    {
      "name": "大阪王将　萱島店",
      "name_kana": "オオサカオウショウ　カヤシマテン",
      "business_type": "⑬ その他の食料・飲料販売業",
      "address": "大阪府寝屋川市萱島本町19－4",
      "lat": 34.74773,
      "lng": 135.612077,
      "geocoding_level": null,
      "phone": "",
      "license_no": "",
      "license_date": null,
      "expire_date": null
    },
    {
      "name": "アートタウン香里",
      "name_kana": "アートタウンコウリ",
      "business_type": "⑪ 百貨店、総合スーパー",
      "address": "大阪府寝屋川市香里新町12番3号",
      "lat": 34.786095,
      "lng": 135.628663,
      "geocoding_level": null,
      "phone": "072-800-7226",
      "license_no": "",
      "license_date": null,
      "expire_date": null
    },
    {
      "name": "ハピネスなつめの里",
      "name_kana": "ハピネスナツメノサト",
      "business_type": "㉖ 集団給食施設",
      "address": "大阪府寝屋川市堀溝1丁目27番20号",
      "lat": 34.742793,
      "lng": 135.625597,
      "geocoding_level": null,
      "phone": "",
      "license_no": "",
      "license_date": null,
      "expire_date": null
    },
    {
      "name": "株式会社ＤＮＰテクノパック　寝屋川工場",
      "name_kana": "ディーエヌピーテクノパック　ネヤガワコウジョウ",
      "business_type": "㉗ 器具、容器包装の製造・加工業（合成樹脂が使用された器具又は容器包装の製造、加工に限る。）",
      "address": "大阪府寝屋川市下木田町１７－３",
      "lat": 34.750396,
      "lng": 135.623244,
      "geocoding_level": null,
      "phone": "",
      "license_no": "",
      "license_date": null,
      "expire_date": null
    },
    {
      "name": "しゃぶ葉　香里園店",
      "name_kana": "シャブヨウコウリエンテン",
      "business_type": "① 飲食店営業",
      "address": "大阪府寝屋川市松屋町２０－２３",
      "lat": 34.784908,
      "lng": 135.625446,
      "geocoding_level": null,
      "phone": "072-802-3380",
      "license_no": "第101-084号",
      "license_date": "2024-06-05",
      "expire_date": "2030-06-30"
    },
    {
      "name": "しゃぶ葉　香里園店",
      "name_kana": "シャブヨウコウリエンテン",
      "business_type": "⑬ その他の食料・飲料販売業",
      "address": "大阪府寝屋川市松屋町２０－２３",
      "lat": 34.784909,
      "lng": 135.625481,
      "geocoding_level": null,
      "phone": "072-802-3380",
      "license_no": "",
      "license_date": null,
      "expire_date": null
    },
    {
      "name": "ガスト　寝屋川店",
      "name_kana": "ガストネヤガワテン",
      "business_type": "⑬ その他の食料・飲料販売業",
      "address": "大阪府寝屋川市葛原１丁目２７－１８",
      "lat": 34.772574,
      "lng": 135.608489,
      "geocoding_level": null,
      "phone": "072-830-2030",
      "license_no": "",
      "license_date": null,
      "expire_date": null
    },
    {
      "name": "ガスト　寝屋川秦店",
      "name_kana": "ガストネヤガワハダテン",
      "business_type": "⑬ その他の食料・飲料販売業",
      "address": "大阪府寝屋川市秦町２－３",
      "lat": 34.766681,
      "lng": 135.631636,
      "geocoding_level": null,
      "phone": "072-880-2406",
      "license_no": "",
      "license_date": null,
      "expire_date": null
    },
    {
      "name": "有限会社上田産業",
      "name_kana": "ユウゲンガイシャウエダサンギョウ",
      "business_type": "⑧ 米穀類販売業",
      "address": "大阪府寝屋川市萱島本町15-9",
      "lat": 34.747083,
      "lng": 135.612732,
      "geocoding_level": null,
      "phone": "",
      "license_no": "",
      "license_date": null,
      "expire_date": null
    },
    {
      "name": "ラ・ムー寝屋川店",
      "name_kana": "ラムーネヤガワテン",
      "business_type": "⑪ 百貨店、総合スーパー",
      "address": "大阪府寝屋川市小路北町1番1号",
      "lat": 34.752133,
      "lng": 135.636745,
      "geocoding_level": null,
      "phone": "",
      "license_no": "",
      "license_date": null,
      "expire_date": null
    },
    {
      "name": "ラ・ムー寝屋川店",
      "name_kana": "ラムーネヤガワテン",
      "business_type": "③ 食肉販売業",
      "address": "大阪府寝屋川市小路北町1番1号",
      "lat": 34.752133,
      "lng": 135.636745,
      "geocoding_level": null,
      "phone": "",
      "license_no": "第101-113号",
      "license_date": "2024-06-27",
      "expire_date": "2030-06-30"
    },
    {
      "name": "ラ・ムー寝屋川店（惣菜）",
      "name_kana": "ラムーネヤガワテン　ソウザイ",
      "business_type": "① 飲食店営業",
      "address": "大阪府寝屋川市小路北町1番1号",
      "lat": 34.752133,
      "lng": 135.636745,
      "geocoding_level": null,
      "phone": "",
      "license_no": "第101-116号",
      "license_date": "2024-06-27",
      "expire_date": "2030-06-30"
    },
    {
      "name": "ラ・ムー寝屋川店（パクパク）",
      "name_kana": "ラムーネヤガワテン　パクパク",
      "business_type": "① 飲食店営業",
      "address": "大阪府寝屋川市小路北町1番1号",
      "lat": 34.752133,
      "lng": 135.636745,
      "geocoding_level": null,
      "phone": "",
      "license_no": "第101-115号",
      "license_date": "2024-06-27",
      "expire_date": "2030-06-30"
    },
    {
      "name": "ラ・ムー寝屋川店（鮮魚）",
      "name_kana": "ラムーネヤガワテン　センギョ",
      "business_type": "① 飲食店営業",
      "address": "大阪府寝屋川市小路北町1番1号",
      "lat": 34.752133,
      "lng": 135.636745,
      "geocoding_level": null,
      "phone": "",
      "license_no": "第101-118号",
      "license_date": "2024-06-27",
      "expire_date": "2030-06-30"
    },
    {
      "name": "ラ・ムー寝屋川店（鮮魚）",
      "name_kana": "ラムーネヤガワテン　センギョ",
      "business_type": "④ 魚介類販売業",
      "address": "大阪府寝屋川市小路北町1番1号",
      "lat": 34.752133,
      "lng": 135.636745,
      "geocoding_level": null,
      "phone": "",
      "license_no": "第101-117号",
      "license_date": "2024-06-27",
      "expire_date": "2030-06-30"
    },
    {
      "name": "ラ・ムー寝屋川店",
      "name_kana": "ラムーネヤガワテン",
      "business_type": "⑪ 菓子製造業",
      "address": "大阪府寝屋川市小路北町1番1号",
      "lat": 34.752133,
      "lng": 135.636745,
      "geocoding_level": null,
      "phone": "",
      "license_no": "第101-114号",
      "license_date": "2024-06-27",
      "expire_date": "2030-06-30"
    },
    {
      "name": "熊本直送馬肉専門店　さくら",
      "name_kana": "クマモトチョクソウバニクセンモンテン　サクラ",
      "business_type": "② 食肉販売業（包装済みの食肉のみの販売）",
      "address": "大阪府寝屋川市寝屋南2丁目２２－２ フレンドマートビバモール寝屋川店1階",
      "lat": 34.766345,
      "lng": 135.650239,
      "geocoding_level": null,
      "phone": "",
      "license_no": "",
      "license_date": null,
      "expire_date": null
    },
    {
      "name": "丸源ラーメン寝屋川店",
      "name_kana": "マルゲンラーメンネヤガワテン",
      "business_type": "⑬ その他の食料・飲料販売業",
      "address": "大阪府寝屋川市池田西町28-1",
      "lat": 34.770721,
      "lng": 135.612009,
      "geocoding_level": null,
      "phone": "",
      "license_no": "",
      "license_date": null,
      "expire_date": null
    },
    {
      "name": "ひしだい阪神",
      "name_kana": "ヒシダイハンシン",
      "business_type": "㉑ 製茶業",
      "address": "大阪府寝屋川市黒原橘町１８－６",
      "lat": 34.757425,
      "lng": 135.60036,
      "geocoding_level": null,
      "phone": "",
      "license_no": "",
      "license_date": null,
      "expire_date": null
    },
    {
      "name": "特別養護老人ホーム　和の里",
      "name_kana": "トクベツヨウゴロウジンホーム　ワノサト",
      "business_type": "㉖ 集団給食施設",
      "address": "大阪府寝屋川市高柳1丁目1番15号",
      "lat": 34.764975,
      "lng": 135.613018,
      "geocoding_level": null,
      "phone": "0728280888",
      "license_no": "",
      "license_date": null,
      "expire_date": null
    },
    {
      "name": "特別養護老人ホーム　神田の里",
      "name_kana": "トクベツヨウゴロウジンホーム　カミダノサト",
      "business_type": "㉖ 集団給食施設",
      "address": "大阪府寝屋川市上神田1丁目31-1",
      "lat": 34.755912,
      "lng": 135.612513,
      "geocoding_level": null,
      "phone": "0728262800",
      "license_no": "",
      "license_date": null,
      "expire_date": null
    },
    {
      "name": "佐竹食品　寝屋川店",
      "name_kana": "サタケショクヒン　ネヤガワテン",
      "business_type": "① 飲食店営業",
      "address": "大阪府寝屋川市池田本町7-6",
      "lat": 34.769825,
      "lng": 135.616473,
      "geocoding_level": null,
      "phone": "0728288315",
      "license_no": "第101-097号",
      "license_date": "2025-06-20",
      "expire_date": "2031-06-30"
    },
    {
      "name": "佐竹食品　寝屋川店",
      "name_kana": "サタケショクヒン　ネヤガワテン",
      "business_type": "③ 食肉販売業",
      "address": "大阪府寝屋川市池田本町7-6",
      "lat": 34.769825,
      "lng": 135.616473,
      "geocoding_level": null,
      "phone": "0728288315",
      "license_no": "第101-099号",
      "license_date": "2025-06-20",
      "expire_date": "2031-06-30"
    },
    {
      "name": "佐竹食品　寝屋川店",
      "name_kana": "サタケショクヒン　ネヤガワテン",
      "business_type": "④ 魚介類販売業",
      "address": "大阪府寝屋川市池田本町7-6",
      "lat": 34.769825,
      "lng": 135.616473,
      "geocoding_level": null,
      "phone": "0728288315",
      "license_no": "第101-098号",
      "license_date": "2025-06-20",
      "expire_date": "2031-06-30"
    },
    {
      "name": "佐竹食品　寝屋川店",
      "name_kana": "サタケショクヒン　ネヤガワテン",
      "business_type": "⑪ 菓子製造業",
      "address": "大阪府寝屋川市池田本町7-6",
      "lat": 34.769825,
      "lng": 135.616473,
      "geocoding_level": null,
      "phone": "0728288315",
      "license_no": "第101-100号",
      "license_date": "2025-06-20",
      "expire_date": "2031-06-30"
    },
    {
      "name": "佐竹食品　寝屋川店",
      "name_kana": "サタケショクヒン　ネヤガワテン",
      "business_type": "⑪ 百貨店、総合スーパー",
      "address": "大阪府寝屋川市池田本町7-6",
      "lat": 34.769825,
      "lng": 135.616473,
      "geocoding_level": null,
      "phone": "0728288315",
      "license_no": "",
      "license_date": null,
      "expire_date": null
    },
    {
      "name": "寝屋川南病院",
      "name_kana": "ネヤガワミナミビョウイン",
      "business_type": "㉖ 集団給食施設",
      "address": "大阪府寝屋川市高柳1丁目1番17号",
      "lat": 34.765021,
      "lng": 135.612664,
      "geocoding_level": null,
      "phone": "0728271001",
      "license_no": "",
      "license_date": null,
      "expire_date": null
    },
    {
      "name": "医療法人和敬会寝屋川南病院デイケア室",
      "name_kana": "イリョウホウジンワケイカイネヤガワミナミビョウインデイケアシツ",
      "business_type": "㉖ 集団給食施設",
      "address": "大阪府寝屋川市長栄寺町6番38号",
      "lat": 34.765392,
      "lng": 135.612428,
      "geocoding_level": null,
      "phone": "0728303001",
      "license_no": "",
      "license_date": null,
      "expire_date": null
    },
    {
      "name": "認定こども園　太陽保育園",
      "name_kana": "ニンテイコドモエン　タイヨウホイクエン",
      "business_type": "㉖ 集団給食施設",
      "address": "大阪府寝屋川市高柳4-6-23",
      "lat": 34.76348,
      "lng": 135.605379,
      "geocoding_level": null,
      "phone": "0728271291",
      "license_no": "",
      "license_date": null,
      "expire_date": null
    },
    {
      "name": "社会医療法人弘道会　寝屋川生野病院",
      "name_kana": "シャカイイリョウホウジンコウドウカイ　ネヤガワイクノビョウイン",
      "business_type": "㉖ 集団給食施設",
      "address": "大阪府寝屋川市日新町2-8",
      "lat": 34.782402,
      "lng": 135.62429,
      "geocoding_level": null,
      "phone": "0728349000",
      "license_no": "",
      "license_date": null,
      "expire_date": null
    },
    {
      "name": "特別養護老人ホーム香里寿苑",
      "name_kana": "トクベツヨウゴロウジンホームコウリジュエン",
      "business_type": "㉖ 集団給食施設",
      "address": "大阪府寝屋川市寿町32番20号",
      "lat": 34.781833,
      "lng": 135.628693,
      "geocoding_level": null,
      "phone": "0728325567",
      "license_no": "",
      "license_date": null,
      "expire_date": null
    },
    {
      "name": "特別養護老人ホームさくら園",
      "name_kana": "トクベツヨウゴロウジンホームサクラエン",
      "business_type": "㉖ 集団給食施設",
      "address": "大阪府寝屋川市打上南町14番1-2号",
      "lat": 34.753534,
      "lng": 135.648547,
      "geocoding_level": null,
      "phone": "0728202234",
      "license_no": "",
      "license_date": null,
      "expire_date": null
    },
    {
      "name": "ディスカウントストアトライアル寝屋川店",
      "name_kana": "ディスカウントストアトライアルネヤガワテン",
      "business_type": "⑪ 百貨店、総合スーパー",
      "address": "大阪府寝屋川市池田３丁目７－１８",
      "lat": 34.775541,
      "lng": 135.613535,
      "geocoding_level": null,
      "phone": "072-801-7176",
      "license_no": "",
      "license_date": null,
      "expire_date": null
    },
    {
      "name": "スーパーセンタートライアル寝屋川大成店",
      "name_kana": "スーパーセンタートライアルネヤガワタイセイテン",
      "business_type": "① 飲食店営業",
      "address": "大阪府寝屋川市大成町１２－２３",
      "lat": 34.751147,
      "lng": 135.625145,
      "geocoding_level": null,
      "phone": "072-823-3500",
      "license_no": "第101-017号",
      "license_date": "2023-04-18",
      "expire_date": "2029-04-30"
    },
    {
      "name": "スーパーセンタートライアル寝屋川大成店",
      "name_kana": "スーパーセンタートライアルネヤガワタイセイテン",
      "business_type": "⑪ 百貨店、総合スーパー",
      "address": "大阪府寝屋川市大成町１２－２３",
      "lat": 34.751147,
      "lng": 135.625145,
      "geocoding_level": null,
      "phone": "072-823-3500",
      "license_no": "",
      "license_date": null,
      "expire_date": null
    },
    {
      "name": "スーパーセンタートライアル寝屋川大成店",
      "name_kana": "スーパーセンタートライアルネヤガワタイセイテン",
      "business_type": "③ 食肉販売業",
      "address": "大阪府寝屋川市大成町１２－２３",
      "lat": 34.751147,
      "lng": 135.625145,
      "geocoding_level": null,
      "phone": "072-823-3500",
      "license_no": "第101-018号",
      "license_date": "2023-04-18",
      "expire_date": "2029-04-30"
    },
    {
      "name": "医療法人　協仁会　小松病院",
      "name_kana": "イリョウホウジン　キョウジンカイ　コマツビョウイン",
      "business_type": "㉖ 集団給食施設",
      "address": "大阪府寝屋川市川勝町11-6",
      "lat": 34.767479,
      "lng": 135.632562,
      "geocoding_level": null,
      "phone": "0728231521",
      "license_no": "",
      "license_date": null,
      "expire_date": null
    },
    {
      "name": "寝屋川市立あかつき・ひばり園",
      "name_kana": "ネヤガワシリツアカツキ・ヒバリエン",
      "business_type": "㉖ 集団給食施設",
      "address": "大阪府寝屋川市大谷町6-1",
      "lat": 34.762233,
      "lng": 135.657018,
      "geocoding_level": null,
      "phone": "0728236287",
      "license_no": "",
      "license_date": null,
      "expire_date": null
    },
    {
      "name": "豊親センター　チャレンジドセンターつばさ",
      "name_kana": "ホウシンセンター　チャレンジドセンターツバサ",
      "business_type": "㉖ 集団給食施設",
      "address": "大阪府寝屋川市池田2丁目9番15号",
      "lat": 34.776508,
      "lng": 135.616396,
      "geocoding_level": null,
      "phone": "0728303331",
      "license_no": "",
      "license_date": null,
      "expire_date": null
    },
    {
      "name": "豊親センター　つばさ福祉作業所",
      "name_kana": "ホウシンセンター　ツバサフクシサギョウショ",
      "business_type": "㉖ 集団給食施設",
      "address": "大阪府寝屋川市池田北町15番9号",
      "lat": 34.778971,
      "lng": 135.616045,
      "geocoding_level": null,
      "phone": "0728392234",
      "license_no": "",
      "license_date": null,
      "expire_date": null
    },
    {
      "name": "子ども食堂　ひまわり",
      "name_kana": "コドモショクドウ　ヒマワリ",
      "business_type": "㉖ 集団給食施設",
      "address": "大阪府寝屋川市高柳6丁目13番5号",
      "lat": 34.761577,
      "lng": 135.605037,
      "geocoding_level": null,
      "phone": "",
      "license_no": "",
      "license_date": null,
      "expire_date": null
    },
    {
      "name": "医療法人一祐会　藤本病院",
      "name_kana": "イリョウホウジンイチユウカイ　フジモトビョウイン",
      "business_type": "㉖ 集団給食施設",
      "address": "大阪府寝屋川市八坂町2番3号",
      "lat": 34.765301,
      "lng": 135.62453,
      "geocoding_level": null,
      "phone": "0728241212",
      "license_no": "",
      "license_date": null,
      "expire_date": null
    },
    {
      "name": "社会福祉法人療育・自立センターすばる・北斗福祉作業所",
      "name_kana": "シャカイフクシホウジンリョウイク・ジリツセンタースバル・ホクトフクシサギョウショ",
      "business_type": "㉖ 集団給食施設",
      "address": "大阪府寝屋川市大谷町7-1",
      "lat": 34.763168,
      "lng": 135.658811,
      "geocoding_level": null,
      "phone": "0728244664",
      "license_no": "",
      "license_date": null,
      "expire_date": null
    },
    {
      "name": "ピザーラ寝屋川店",
      "name_kana": "ピザーラネヤガワテン",
      "business_type": "⑬ その他の食料・飲料販売業",
      "address": "大阪府寝屋川市上神田1-49-11",
      "lat": 34.754008,
      "lng": 135.609906,
      "geocoding_level": null,
      "phone": "",
      "license_no": "",
      "license_date": null,
      "expire_date": null
    },
    {
      "name": "住宅型有料老人ホーム幸(SACHI)",
      "name_kana": "ジュウタクガタユウリョウロウジンホームサチ",
      "business_type": "㉖ 集団給食施設",
      "address": "大阪府寝屋川市境橋町28-41",
      "lat": 34.776496,
      "lng": 135.635133,
      "geocoding_level": null,
      "phone": "0728006690",
      "license_no": "",
      "license_date": null,
      "expire_date": null
    },
    {
      "name": "住宅型有料老人ホーム和幸プレミアム寝屋川",
      "name_kana": "ジュウタクガタユウリョウロウジンホームワコウプレミアムネヤガワ",
      "business_type": "㉖ 集団給食施設",
      "address": "大阪府寝屋川市小路南町13-8",
      "lat": 34.750841,
      "lng": 135.635558,
      "geocoding_level": null,
      "phone": "072-803-8170",
      "license_no": "",
      "license_date": null,
      "expire_date": null
    },
    {
      "name": "有限会社　安岡",
      "name_kana": "ユウゲンガイシャ　ヤスオカ",
      "business_type": "㉖ 集団給食施設",
      "address": "大阪府寝屋川市高柳2丁目21番1号",
      "lat": 34.758882,
      "lng": 135.609715,
      "geocoding_level": null,
      "phone": "0728130875",
      "license_no": "",
      "license_date": null,
      "expire_date": null
    },
    {
      "name": "ひなぎく保育園",
      "name_kana": "ヒナギクホイクエン",
      "business_type": "㉖ 集団給食施設",
      "address": "大阪府寝屋川市木田元宮1丁目13番12号",
      "lat": 34.753476,
      "lng": 135.62119,
      "geocoding_level": null,
      "phone": "0728243886",
      "license_no": "",
      "license_date": null,
      "expire_date": null
    },
    {
      "name": "サンドラッグ東香里店",
      "name_kana": "サンドラッグヒガシコウリテン",
      "business_type": "⑪ 百貨店、総合スーパー",
      "address": "大阪府寝屋川市寝屋1丁目4-1",
      "lat": 34.771852,
      "lng": 135.651352,
      "geocoding_level": null,
      "phone": "072-811-5021",
      "license_no": "",
      "license_date": null,
      "expire_date": null
    },
    {
      "name": "サンドラッグフレスト寝屋川店",
      "name_kana": "サンドラッグフレストネヤガワテン",
      "business_type": "⑪ 百貨店、総合スーパー",
      "address": "大阪府寝屋川市八坂町15-15 フレスト寝屋川 1階・2階",
      "lat": 34.765225,
      "lng": 135.622457,
      "geocoding_level": null,
      "phone": "072-803-7660",
      "license_no": "",
      "license_date": null,
      "expire_date": null
    },
    {
      "name": "サンドラッグ香里園店",
      "name_kana": "サンドラッグコウリエンテン",
      "business_type": "⑪ 百貨店、総合スーパー",
      "address": "大阪府寝屋川市香里南之町32－5 ＹＮレジデンス香里1階",
      "lat": 34.783091,
      "lng": 135.628779,
      "geocoding_level": null,
      "phone": "072-802-3157",
      "license_no": "",
      "license_date": null,
      "expire_date": null
    },
    {
      "name": "岡野商店",
      "name_kana": "オカノショウテン",
      "business_type": "㉔ その他の食料品製造・加工業",
      "address": "大阪府寝屋川市香里新町12-3",
      "lat": 34.786095,
      "lng": 135.628663,
      "geocoding_level": null,
      "phone": "",
      "license_no": "",
      "license_date": null,
      "expire_date": null
    },
    {
      "name": "餃子の王将 寝屋川店",
      "name_kana": "ギョウザノオウショウ　ネヤガワテン",
      "business_type": "⑬ その他の食料・飲料販売業",
      "address": "大阪府寝屋川市高宮栄町1-18",
      "lat": 34.761905,
      "lng": 135.629259,
      "geocoding_level": null,
      "phone": "072-825-0891",
      "license_no": "",
      "license_date": null,
      "expire_date": null
    },
    {
      "name": "餃子の王将 寝屋川市駅前店",
      "name_kana": "ギョウザノオウショウ　ネヤガワシエキマエテン",
      "business_type": "⑬ その他の食料・飲料販売業",
      "address": "大阪府寝屋川市早子町20-1",
      "lat": 34.762642,
      "lng": 135.621774,
      "geocoding_level": null,
      "phone": "072-820-6767",
      "license_no": "",
      "license_date": null,
      "expire_date": null
    },
    {
      "name": "餃子の王将 寝屋川団地前店",
      "name_kana": "ギョウザノオウショウ　ネヤガワダンチマエテン",
      "business_type": "⑬ その他の食料・飲料販売業",
      "address": "大阪府寝屋川市寝屋1-2-3",
      "lat": 34.770838,
      "lng": 135.649316,
      "geocoding_level": null,
      "phone": "072-821-2522",
      "license_no": "",
      "license_date": null,
      "expire_date": null
    },
    {
      "name": "餃子の王将 香里園駅前店",
      "name_kana": "ギョウザノオウショウ　コウリエンエキマエテン",
      "business_type": "⑬ その他の食料・飲料販売業",
      "address": "大阪府寝屋川市香里南之町26-13",
      "lat": 34.783148,
      "lng": 135.629273,
      "geocoding_level": null,
      "phone": "072-831-2266",
      "license_no": "",
      "license_date": null,
      "expire_date": null
    },
    {
      "name": "たちばなこども園",
      "name_kana": "タチバナコドモエン",
      "business_type": "㉖ 集団給食施設",
      "address": "大阪府寝屋川市木田町２－８",
      "lat": 34.760798,
      "lng": 135.622604,
      "geocoding_level": null,
      "phone": "072-821-0126",
      "license_no": "",
      "license_date": null,
      "expire_date": null
    },
    {
      "name": "認定こども園　本町こども園",
      "name_kana": "ニンテイコドモエン　ホンマチコドモエン",
      "business_type": "㉖ 集団給食施設",
      "address": "大阪府寝屋川市本町13番３号",
      "lat": 34.764081,
      "lng": 135.628243,
      "geocoding_level": null,
      "phone": "072-823-1212",
      "license_no": "",
      "license_date": null,
      "expire_date": null
    },
    {
      "name": "大阪複十字病院　売店",
      "name_kana": "オオサカフクジュウジビョウイン　バイテン",
      "business_type": "⑬ その他の食料・飲料販売業",
      "address": "大阪府寝屋川市打上高塚町3-10 大阪複十字病院内",
      "lat": 34.756033,
      "lng": 135.649724,
      "geocoding_level": null,
      "phone": "",
      "license_no": "",
      "license_date": null,
      "expire_date": null
    },
    {
      "name": "ローソン寝屋川宝町店",
      "name_kana": "ローソンネヤガワタカラマチテン",
      "business_type": "⑩ コンビニエンスストア",
      "address": "大阪府寝屋川市宝町2-31",
      "lat": 34.766957,
      "lng": 135.606065,
      "geocoding_level": null,
      "phone": "",
      "license_no": "",
      "license_date": null,
      "expire_date": null
    },
    {
      "name": "ローソン長栄寺店",
      "name_kana": "ローソンチョウエイジテン",
      "business_type": "⑩ コンビニエンスストア",
      "address": "大阪府寝屋川市長栄寺町6番１６号",
      "lat": 34.765661,
      "lng": 135.6117,
      "geocoding_level": null,
      "phone": "072-828-1163",
      "license_no": "",
      "license_date": null,
      "expire_date": null
    },
    {
      "name": "ローソン　寝屋川豊里町店",
      "name_kana": "ローソンネヤガワトヨサトチョウテン",
      "business_type": "⑩ コンビニエンスストア",
      "address": "大阪府寝屋川市豊里町３９－１６",
      "lat": 34.779952,
      "lng": 135.618055,
      "geocoding_level": null,
      "phone": "0728283951",
      "license_no": "",
      "license_date": null,
      "expire_date": null
    },
    {
      "name": "住宅型有料老人ホームふわり",
      "name_kana": "ジュウタクガタユウリョウロウジンホームフワリ",
      "business_type": "㉖ 集団給食施設",
      "address": "大阪府寝屋川市池田3丁目4番7号",
      "lat": 34.774509,
      "lng": 135.615067,
      "geocoding_level": null,
      "phone": "072-801-5501",
      "license_no": "",
      "license_date": null,
      "expire_date": null
    },
    {
      "name": "コレモ寝屋川店",
      "name_kana": "コレモネヤガワテン",
      "business_type": "① 魚介類販売業（包装済みの魚介類のみの販売）",
      "address": "大阪府寝屋川市八坂町16-20",
      "lat": 34.764633,
      "lng": 135.621121,
      "geocoding_level": null,
      "phone": "072-803-6561",
      "license_no": "",
      "license_date": null,
      "expire_date": null
    },
    {
      "name": "コレモ寝屋川店",
      "name_kana": "コレモネヤガワテン",
      "business_type": "② 食肉販売業（包装済みの食肉のみの販売）",
      "address": "大阪府寝屋川市八坂町16-20",
      "lat": 34.764633,
      "lng": 135.621121,
      "geocoding_level": null,
      "phone": "072-803-6561",
      "license_no": "",
      "license_date": null,
      "expire_date": null
    },
    {
      "name": "コレモ寝屋川店",
      "name_kana": "コレモネヤガワテン",
      "business_type": "③ 乳類販売業",
      "address": "大阪府寝屋川市八坂町16-20",
      "lat": 34.764633,
      "lng": 135.621121,
      "geocoding_level": null,
      "phone": "072-803-6561",
      "license_no": "",
      "license_date": null,
      "expire_date": null
    },
    {
      "name": "コレモ寝屋川店",
      "name_kana": "コレモネヤガワテン",
      "business_type": "⑪ 百貨店、総合スーパー",
      "address": "大阪府寝屋川市八坂町16-20",
      "lat": 34.764633,
      "lng": 135.621121,
      "geocoding_level": null,
      "phone": "072-803-6561",
      "license_no": "",
      "license_date": null,
      "expire_date": null
    },
    {
      "name": "ライフ香里園店",
      "name_kana": "ライフコウリエンテン",
      "business_type": "⑪ 百貨店、総合スーパー",
      "address": "大阪府寝屋川市香里新町28-3-1",
      "lat": 34.785706,
      "lng": 135.630166,
      "geocoding_level": null,
      "phone": "072-802-2481",
      "license_no": "",
      "license_date": null,
      "expire_date": null
    },
    {
      "name": "ライフ寝屋川店",
      "name_kana": "ライフネヤガワテン",
      "business_type": "⑪ 百貨店、総合スーパー",
      "address": "大阪府寝屋川市昭栄町18-1",
      "lat": 34.758428,
      "lng": 135.626764,
      "geocoding_level": null,
      "phone": "072-811-0801",
      "license_no": "",
      "license_date": null,
      "expire_date": null
    },
    {
      "name": "住宅型有料老人ホーム木楽里",
      "name_kana": "ジュウタクガタユウリョウロウジンホームキラリ",
      "business_type": "㉖ 集団給食施設",
      "address": "大阪府寝屋川市楠根南町24-11",
      "lat": 34.75268,
      "lng": 135.6309,
      "geocoding_level": null,
      "phone": "072-812-5400",
      "license_no": "",
      "license_date": null,
      "expire_date": null
    },
    {
      "name": "リンガーハットビバモール寝屋川店",
      "name_kana": "リンガーハットビバモールネヤガワテン",
      "business_type": "⑬ その他の食料・飲料販売業",
      "address": "大阪府寝屋川市寝屋南2-22-1",
      "lat": 34.766279,
      "lng": 135.651957,
      "geocoding_level": null,
      "phone": "072-880-1060",
      "license_no": "",
      "license_date": null,
      "expire_date": null
    },
    {
      "name": "99円ベーカリー香里園店",
      "name_kana": "キュウジュウキュウエンベーカリーコウリエンテン",
      "business_type": "② 食肉販売業（包装済みの食肉のみの販売）",
      "address": "大阪府寝屋川市日新町5-5 アル・プラザ香里園店内",
      "lat": 34.783183,
      "lng": 135.623299,
      "geocoding_level": null,
      "phone": "072-833-6022",
      "license_no": "",
      "license_date": null,
      "expire_date": null
    },
    {
      "name": "寝屋川めぐみ園",
      "name_kana": "ネヤガワメグミエン",
      "business_type": "㉖ 集団給食施設",
      "address": "大阪府寝屋川市緑町13-20",
      "lat": 34.775538,
      "lng": 135.628471,
      "geocoding_level": null,
      "phone": "072-833-0020",
      "license_no": "",
      "license_date": null,
      "expire_date": null
    },
    {
      "name": "医療法人全心会寝屋川ひかり病院",
      "name_kana": "イリョウホウジンゼンシンカイネヤガワヒカリビョウイン",
      "business_type": "㉖ 集団給食施設",
      "address": "大阪府寝屋川市石津元町１２－２０",
      "lat": 34.775464,
      "lng": 135.619833,
      "geocoding_level": null,
      "phone": "072-829-3331",
      "license_no": "",
      "license_date": null,
      "expire_date": null
    },
    {
      "name": "そうごうケアホーム寝屋川本町",
      "name_kana": "ソウゴウケアホームネヤガワホンマチ",
      "business_type": "㉖ 集団給食施設",
      "address": "大阪府寝屋川市本町5番44号",
      "lat": 34.765636,
      "lng": 135.629074,
      "geocoding_level": null,
      "phone": "072-811-0700",
      "license_no": "",
      "license_date": null,
      "expire_date": null
    },
    {
      "name": "そんぽの家　萱島",
      "name_kana": "ソンポノイエ　カヤシマ",
      "business_type": "㉖ 集団給食施設",
      "address": "大阪府寝屋川市萱島桜園町21-8",
      "lat": 34.750006,
      "lng": 135.614511,
      "geocoding_level": null,
      "phone": "072-821-8112",
      "license_no": "",
      "license_date": null,
      "expire_date": null
    },
    {
      "name": "株式会社HALLE JAPON",
      "name_kana": "カブシキガイシャアルジャポン",
      "business_type": "㉕ 行商",
      "address": "大阪府寝屋川市高柳周辺",
      "lat": 34.76038,
      "lng": 135.606615,
      "geocoding_level": null,
      "phone": "",
      "license_no": "",
      "license_date": null,
      "expire_date": null
    },
    {
      "name": "京阪ザ・ストア　フレスト寝屋川店",
      "name_kana": "ケイハンザストア　フレストネヤガワテン",
      "business_type": "⑪ 百貨店、総合スーパー",
      "address": "大阪府寝屋川市早子町16-10",
      "lat": 34.764173,
      "lng": 135.620887,
      "geocoding_level": null,
      "phone": "072-801-1311",
      "license_no": "",
      "license_date": null,
      "expire_date": null
    },
    {
      "name": "フレスト香里園",
      "name_kana": "フレストコウリエン",
      "business_type": "⑪ 百貨店、総合スーパー",
      "address": "大阪府寝屋川市香里南之町19番18号",
      "lat": 34.78413,
      "lng": 135.631127,
      "geocoding_level": null,
      "phone": "0728025111",
      "license_no": "",
      "license_date": null,
      "expire_date": null
    },
    {
      "name": "フレスト移動スーパー1号",
      "name_kana": "フレストイドウスーパーイチゴウ",
      "business_type": "㉕ 行商",
      "address": "大阪府寝屋川市内一円",
      "lat": 34.76625,
      "lng": 135.628017,
      "geocoding_level": null,
      "phone": "072-801-1311",
      "license_no": "",
      "license_date": null,
      "expire_date": null
    },
    {
      "name": "香の川製麺寝屋川昭栄町店",
      "name_kana": "カノカワセイメンネヤガワショウエイチョウテン",
      "business_type": "⑬ その他の食料・飲料販売業",
      "address": "大阪府寝屋川市昭栄町１１－４０",
      "lat": 34.757858,
      "lng": 135.624149,
      "geocoding_level": null,
      "phone": "072-822-8117",
      "license_no": "",
      "license_date": null,
      "expire_date": null
    },
    {
      "name": "株式会社　日本アクセス　大阪支店　寝屋川フローズンＴＰＬセンター",
      "name_kana": "カブシキガイシャ　ニッポンアクセス　オオサカシテン　ネヤガワフローズンティーピーエルセンター",
      "business_type": "① 魚介類販売業（包装済みの魚介類のみの販売）",
      "address": "大阪府寝屋川市池田北町16-1",
      "lat": 34.779672,
      "lng": 135.615518,
      "geocoding_level": null,
      "phone": "",
      "license_no": "",
      "license_date": null,
      "expire_date": null
    },
    {
      "name": "株式会社　日本アクセス　大阪支店　寝屋川フローズンＴＰＬセンター",
      "name_kana": "カブシキガイシャ　ニッポンアクセス　オオサカシテン　ネヤガワフローズンティーピーエルセンター",
      "business_type": "② 食肉販売業（包装済みの食肉のみの販売）",
      "address": "大阪府寝屋川市池田北町16-1",
      "lat": 34.779672,
      "lng": 135.615518,
      "geocoding_level": null,
      "phone": "",
      "license_no": "",
      "license_date": null,
      "expire_date": null
    },
    {
      "name": "株式会社　日本アクセス　大阪支店　寝屋川フローズンＴＰＬセンター",
      "name_kana": "カブシキガイシャ　ニッポンアクセス　オオサカシテン　ネヤガワフローズンティーピーエルセンター",
      "business_type": "㉙ その他",
      "address": "大阪府寝屋川市池田北町16-1",
      "lat": 34.779672,
      "lng": 135.615518,
      "geocoding_level": null,
      "phone": "",
      "license_no": "",
      "license_date": null,
      "expire_date": null
    },
    {
      "name": "KIMOANH STORE JAPAN",
      "name_kana": "キムオアインストアジャパン",
      "business_type": "⑬ その他の食料・飲料販売業",
      "address": "大阪府寝屋川市高柳2丁目54番5号",
      "lat": 34.759273,
      "lng": 135.610271,
      "geocoding_level": null,
      "phone": "",
      "license_no": "",
      "license_date": null,
      "expire_date": null
    },
    {
      "name": "株式会社平和堂　フレンドマートビバモール寝屋川店",
      "name_kana": "カブシキカイシャヘイワドウ　フレンドマートビバモールビバモールネヤガワテン",
      "business_type": "⑫ 自動販売機による販売業（コップ式自動販売機（自動洗浄・屋内設置）及び営業許可の対象となる自動販売機を除く）",
      "address": "大阪府寝屋川市寝屋南2丁目22番2号　ビバモール寝屋川フレンドマート内",
      "lat": 34.766106,
      "lng": 135.650717,
      "geocoding_level": null,
      "phone": "",
      "license_no": "",
      "license_date": null,
      "expire_date": null
    },
    {
      "name": "乃が美はなれ　寝屋川販売店",
      "name_kana": "ノガミハナレ　ネヤガワハンバイテン",
      "business_type": "⑬ その他の食料・飲料販売業",
      "address": "大阪府寝屋川市早子町２３－２ アドバンスねやがわ２号館　１階",
      "lat": 34.763379,
      "lng": 135.621517,
      "geocoding_level": null,
      "phone": "",
      "license_no": "",
      "license_date": null,
      "expire_date": null
    },
    {
      "name": "株式会社彫刻プラスト　大阪工場",
      "name_kana": "カブシキガイシャチョウコクプラスト　オオサカコウジョウ",
      "business_type": "㉗ 器具、容器包装の製造・加工業（合成樹脂が使用された器具又は容器包装の製造、加工に限る。）",
      "address": "大阪府寝屋川市葛原１－３－２",
      "lat": 34.7731,
      "lng": 135.605176,
      "geocoding_level": null,
      "phone": "072-829-3741",
      "license_no": "",
      "license_date": null,
      "expire_date": null
    },
    {
      "name": "株式会社ハップ　大阪物流センター",
      "name_kana": "カブシキガイシャハップ　オオサカブツリュウセンター",
      "business_type": "㉙ その他",
      "address": "大阪府寝屋川市池田北町１６－１",
      "lat": 34.779626,
      "lng": 135.615568,
      "geocoding_level": null,
      "phone": "072-652-8650",
      "license_no": "",
      "license_date": null,
      "expire_date": null
    },
    {
      "name": "社会福祉法人真清福祉会　かえで保育園",
      "name_kana": "シャカイフクシホウジンマスミフクシカイ　カエデホイクエン",
      "business_type": "㉖ 集団給食施設",
      "address": "大阪府寝屋川市中神田町２－２",
      "lat": 34.75342,
      "lng": 135.611328,
      "geocoding_level": null,
      "phone": "072-829-8218",
      "license_no": "",
      "license_date": null,
      "expire_date": null
    },
    {
      "name": "神田保育園",
      "name_kana": "カミダホイクエン",
      "business_type": "㉖ 集団給食施設",
      "address": "大阪府寝屋川市上神田１丁目２６－２７",
      "lat": 34.75699,
      "lng": 135.609604,
      "geocoding_level": null,
      "phone": "072-838-0234",
      "license_no": "",
      "license_date": null,
      "expire_date": null
    },
    {
      "name": "ケアハウス　ロイアルライフ・カミダ",
      "name_kana": "ケアハウス　ロイアルライフカミダ",
      "business_type": "㉖ 集団給食施設",
      "address": "大阪府寝屋川市上神田１丁目２６－２７",
      "lat": 34.75699,
      "lng": 135.609604,
      "geocoding_level": null,
      "phone": "072-838-8811",
      "license_no": "",
      "license_date": null,
      "expire_date": null
    },
    {
      "name": "株式会社　万代　寝屋川店",
      "name_kana": "カブシキガイシャ　マンダイ　ネヤガワテン",
      "business_type": "⑪ 百貨店、総合スーパー",
      "address": "大阪府寝屋川市東大利町７－２１",
      "lat": 34.764188,
      "lng": 135.61782,
      "geocoding_level": null,
      "phone": "072-829-1611",
      "license_no": "",
      "license_date": null,
      "expire_date": null
    },
    {
      "name": "株式会社　万代　香里西店",
      "name_kana": "カブシキガイシャ　マンダイ　コオリニシテン",
      "business_type": "⑪ 百貨店、総合スーパー",
      "address": "大阪府寝屋川市香里西之町３－４",
      "lat": 34.787841,
      "lng": 135.626031,
      "geocoding_level": null,
      "phone": "072-837-7676",
      "license_no": "",
      "license_date": null,
      "expire_date": null
    },
    {
      "name": "株式会社　万代　萱島店",
      "name_kana": "カブシキガイシャ　マンダイ　カヤシマテン",
      "business_type": "⑪ 百貨店、総合スーパー",
      "address": "大阪府寝屋川市萱島東２－１２－３３",
      "lat": 34.747122,
      "lng": 135.618206,
      "geocoding_level": null,
      "phone": "072-823-1141",
      "license_no": "",
      "license_date": null,
      "expire_date": null
    },
    {
      "name": "株式会社　万代　寝屋川西店",
      "name_kana": "カブシキガイシャ　マンダイ　ネヤガワニシテン",
      "business_type": "⑪ 百貨店、総合スーパー",
      "address": "大阪府寝屋川市対馬江東町１１－８",
      "lat": 34.765457,
      "lng": 135.603589,
      "geocoding_level": null,
      "phone": "072-801-0105",
      "license_no": "",
      "license_date": null,
      "expire_date": null
    },
    {
      "name": "株式会社　万代　寝屋川宇谷店",
      "name_kana": "カブシキガイシャ　マンダイ　ネヤガワウタニテン",
      "business_type": "⑪ 百貨店、総合スーパー",
      "address": "大阪府寝屋川市宇谷町６－２１",
      "lat": 34.767747,
      "lng": 135.647896,
      "geocoding_level": null,
      "phone": "072-821-3200",
      "license_no": "",
      "license_date": null,
      "expire_date": null
    },
    {
      "name": "ともだ玄米屋",
      "name_kana": "トモダゲンマイヤ",
      "business_type": "⑧ 米穀類販売業",
      "address": "大阪府寝屋川市北大利町１８－８",
      "lat": 34.767674,
      "lng": 135.617955,
      "geocoding_level": null,
      "phone": "072-839-3500",
      "license_no": "",
      "license_date": null,
      "expire_date": null
    },
    {
      "name": "ともだ",
      "name_kana": "トモダ",
      "business_type": "⑧ 米穀類販売業",
      "address": "大阪府寝屋川市春日町１４－２０",
      "lat": 34.766313,
      "lng": 135.606781,
      "geocoding_level": null,
      "phone": "072-828-2555",
      "license_no": "",
      "license_date": null,
      "expire_date": null
    },
    {
      "name": "ともだ",
      "name_kana": "トモダ",
      "business_type": "⑬ その他の食料・飲料販売業",
      "address": "大阪府寝屋川市春日町１４－２０",
      "lat": 34.766313,
      "lng": 135.606781,
      "geocoding_level": null,
      "phone": "072-828-2555",
      "license_no": "",
      "license_date": null,
      "expire_date": null
    },
    {
      "name": "（有）脇山米穀店",
      "name_kana": "ユウゲンカイシャワキヤマベイコクテン",
      "business_type": "⑧ 米穀類販売業",
      "address": "大阪府寝屋川市仁和寺町８－２５",
      "lat": 34.764995,
      "lng": 135.600083,
      "geocoding_level": null,
      "phone": "072-827-0123",
      "license_no": "",
      "license_date": null,
      "expire_date": null
    },
    {
      "name": "社会福祉法人　弘房福祉会　地域密着型小規模特別養護老人ホーム　弘房園",
      "name_kana": "シャカイフクシホウジンコウボウカイフクシカイチイキミッチャクガタタショウキボトクベツヨウゴロウジンホームコウボウエン",
      "business_type": "㉖ 集団給食施設",
      "address": "大阪府寝屋川市日新町17番43号",
      "lat": 34.784259,
      "lng": 135.624418,
      "geocoding_level": null,
      "phone": "072-803-6730",
      "license_no": "",
      "license_date": null,
      "expire_date": null
    },
    {
      "name": "オレンジの森・りんごの森",
      "name_kana": "オレンジノモリリンゴノモリ",
      "business_type": "㉖ 集団給食施設",
      "address": "大阪府寝屋川市大谷町11番1号",
      "lat": 34.764848,
      "lng": 135.659881,
      "geocoding_level": null,
      "phone": "072-821-7050",
      "license_no": "",
      "license_date": null,
      "expire_date": null
    },
    {
      "name": "スシロー巣本店",
      "name_kana": "スシロースモトテン",
      "business_type": "① 飲食店営業",
      "address": "大阪府寝屋川市堀溝1-7-13",
      "lat": 34.741236,
      "lng": 135.622478,
      "geocoding_level": null,
      "phone": "072-880-5577",
      "license_no": "第101-205号",
      "license_date": "2024-09-17",
      "expire_date": "2030-09-30"
    },
    {
      "name": "はま寿司　寝屋川打上店",
      "name_kana": "ハマズシ　ネヤガワウチアゲテン",
      "business_type": "① 飲食店営業",
      "address": "大阪府寝屋川市打上元町20-6",
      "lat": 34.756776,
      "lng": 135.655503,
      "geocoding_level": null,
      "phone": "0570-030-477",
      "license_no": "101-402",
      "license_date": "2026-03-06",
      "expire_date": "2032-03-31"
    },
    {
      "name": "はま寿司　寝屋川打上店",
      "name_kana": "ハマズシ　ネヤガワウチアゲテン",
      "business_type": "⑬ その他の食料・飲料販売業",
      "address": "大阪府寝屋川市打上元町",
      "lat": 34.756419,
      "lng": 135.656242,
      "geocoding_level": null,
      "phone": "0570-030-477",
      "license_no": "",
      "license_date": null,
      "expire_date": null
    },
    {
      "name": "キコーナ寝屋川南",
      "name_kana": "キコーナネヤガワミナミ",
      "business_type": "⑫ 自動販売機による販売業（コップ式自動販売機（自動洗浄・屋内設置）及び営業許可の対象となる自動販売機を除く）",
      "address": "大阪府寝屋川市堀溝１－２０－２",
      "lat": 34.741179,
      "lng": 135.623894,
      "geocoding_level": null,
      "phone": "",
      "license_no": "",
      "license_date": null,
      "expire_date": null
    },
    {
      "name": "マルハン寝屋川",
      "name_kana": "マルハンネヤガワ",
      "business_type": "⑫ 自動販売機による販売業（コップ式自動販売機（自動洗浄・屋内設置）及び営業許可の対象となる自動販売機を除く）",
      "address": "大阪府寝屋川市石津中町２５－３０",
      "lat": 34.780014,
      "lng": 135.620616,
      "geocoding_level": null,
      "phone": "",
      "license_no": "",
      "license_date": null,
      "expire_date": null
    },
    {
      "name": "ウエルシア寝屋川高宮",
      "name_kana": "ウエルシアネヤガワタカミヤ",
      "business_type": "⑪ 百貨店、総合スーパー",
      "address": "大阪府寝屋川市高宮1-2-34",
      "lat": 34.758506,
      "lng": 135.63233,
      "geocoding_level": null,
      "phone": "072-811-3421",
      "license_no": "",
      "license_date": null,
      "expire_date": null
    },
    {
      "name": "スターバックスコーヒーＴＳＵＴＡＹＡ香里園",
      "name_kana": "スターバックスツタヤコウリエン",
      "business_type": "⑬ その他の食料・飲料販売業",
      "address": "大阪府寝屋川市香里新町３１－１７",
      "lat": 34.784733,
      "lng": 135.630064,
      "geocoding_level": null,
      "phone": "072-837-3355",
      "license_no": "",
      "license_date": null,
      "expire_date": null
    },
    {
      "name": "ウエルシア寝屋川池田新町店",
      "name_kana": "ウエルシアネヤガワイケダシンマチテン",
      "business_type": "⑪ 百貨店、総合スーパー",
      "address": "大阪府寝屋川市池田新町19-26",
      "lat": 34.772145,
      "lng": 135.610103,
      "geocoding_level": null,
      "phone": "0728300860",
      "license_no": "",
      "license_date": null,
      "expire_date": null
    },
    {
      "name": "ウエルシア寝屋川池田新町店",
      "name_kana": "ウエルシアネヤガワイケダシンマチテン",
      "business_type": "⑫ 自動販売機による販売業（コップ式自動販売機（自動洗浄・屋内設置）及び営業許可の対象となる自動販売機を除く）",
      "address": "大阪府寝屋川市池田新町19-26",
      "lat": 34.772145,
      "lng": 135.610103,
      "geocoding_level": null,
      "phone": "0728300860",
      "license_no": "",
      "license_date": null,
      "expire_date": null
    },
    {
      "name": "食品専門館ラッキー　寝屋川店",
      "name_kana": "ショクヒンセンモンテンラッキーネヤガワテン",
      "business_type": "⑪ 百貨店、総合スーパー",
      "address": "大阪府寝屋川市早子町２３－２－Ｂ１１２号",
      "lat": 34.763196,
      "lng": 135.622372,
      "geocoding_level": null,
      "phone": "072-822-4361",
      "license_no": "",
      "license_date": null,
      "expire_date": null
    },
    {
      "name": "ラーメン魁力屋　寝屋川店",
      "name_kana": "ラーメンカイリキヤ　ネヤガワテン",
      "business_type": "① 飲食店営業",
      "address": "大阪府寝屋川市石津元町1-12",
      "lat": 34.779329,
      "lng": 135.618291,
      "geocoding_level": null,
      "phone": "072-842-3908",
      "license_no": "101-420",
      "license_date": "2026-03-23",
      "expire_date": "2032-03-31"
    },
    {
      "name": "ワールドプラスジム寝屋川点野",
      "name_kana": "ワールドプラスジムネヤガワシメノ",
      "business_type": "⑤ コップ式自動販売機（自動洗浄・屋内設置）",
      "address": "大阪府寝屋川市点野5-29-7",
      "lat": 34.771744,
      "lng": 135.59803,
      "geocoding_level": null,
      "phone": "",
      "license_no": "",
      "license_date": null,
      "expire_date": null
    },
    {
      "name": "ウエルシア寝屋川打上元町店",
      "name_kana": "ウエルシアネヤガワウチアゲモトマチテン",
      "business_type": "① 魚介類販売業（包装済みの魚介類のみの販売）",
      "address": "大阪府寝屋川市打上元町２０－１０",
      "lat": 34.756776,
      "lng": 135.655503,
      "geocoding_level": null,
      "phone": "072-880-2237",
      "license_no": "",
      "license_date": null,
      "expire_date": null
    },
    {
      "name": "ウエルシア寝屋川打上元町店",
      "name_kana": "ウエルシアネヤガワウチアゲモトマチテン",
      "business_type": "② 食肉販売業（包装済みの食肉のみの販売）",
      "address": "大阪府寝屋川市打上元町２０－１０",
      "lat": 34.756776,
      "lng": 135.655503,
      "geocoding_level": null,
      "phone": "072-880-2237",
      "license_no": "",
      "license_date": null,
      "expire_date": null
    },
    {
      "name": "ウエルシア寝屋川打上元町店",
      "name_kana": "ウエルシアネヤガワウチアゲモトマチテン",
      "business_type": "③ 乳類販売業",
      "address": "大阪府寝屋川市打上元町２０－１０",
      "lat": 34.756776,
      "lng": 135.655503,
      "geocoding_level": null,
      "phone": "072-880-2237",
      "license_no": "",
      "license_date": null,
      "expire_date": null
    },
    {
      "name": "ウエルシア寝屋川打上元町店",
      "name_kana": "ウエルシアネヤガワウチアゲモトマチテン",
      "business_type": "⑫ 自動販売機による販売業（コップ式自動販売機（自動洗浄・屋内設置）及び営業許可の対象となる自動販売機を除く）",
      "address": "大阪府寝屋川市打上元町２０－１０",
      "lat": 34.756776,
      "lng": 135.655503,
      "geocoding_level": null,
      "phone": "072-880-2237",
      "license_no": "",
      "license_date": null,
      "expire_date": null
    },
    {
      "name": "寝屋川ケアセンターそよ風",
      "name_kana": "ネヤガワケアセンターソヨカゼ",
      "business_type": "㉖ 集団給食施設",
      "address": "大阪府寝屋川市葛原新町3-48",
      "lat": 34.769675,
      "lng": 135.606144,
      "geocoding_level": null,
      "phone": "072-801-8331",
      "license_no": "",
      "license_date": null,
      "expire_date": null
    },
    {
      "name": "認定こども園　池田保育園",
      "name_kana": "ニンテイコドモエン　イケダホイクエン",
      "business_type": "㉖ 集団給食施設",
      "address": "大阪府寝屋川市寝屋川市池田本町4-104番10号",
      "lat": 34.770991,
      "lng": 135.615722,
      "geocoding_level": null,
      "phone": "072-827-3456",
      "license_no": "",
      "license_date": null,
      "expire_date": null
    },
    {
      "name": "全日食チェーン　稲葉商店",
      "name_kana": "ゼンニッショクチェーン　イナバショウテン",
      "business_type": "⑦ 野菜果物販売業",
      "address": "大阪府寝屋川市美井元町２９－６",
      "lat": 34.77769,
      "lng": 135.632659,
      "geocoding_level": null,
      "phone": "072-831-1787",
      "license_no": "",
      "license_date": null,
      "expire_date": null
    },
    {
      "name": "ケンタッキーフライドチキン寝屋川市駅前店",
      "name_kana": "ケンタッキーフライドチキンネヤガワシエキマエテン",
      "business_type": "⑬ その他の食料・飲料販売業",
      "address": "大阪府寝屋川市早子町２３－２－１０１",
      "lat": 34.763379,
      "lng": 135.621517,
      "geocoding_level": null,
      "phone": "",
      "license_no": "",
      "license_date": null,
      "expire_date": null
    },
    {
      "name": "特別養護老人ホーム香西園",
      "name_kana": "トクベツヨウゴロウジンホームコウセイエン",
      "business_type": "㉖ 集団給食施設",
      "address": "大阪府寝屋川市香里西之町14番24号",
      "lat": 34.789194,
      "lng": 135.627418,
      "geocoding_level": null,
      "phone": "0728332610",
      "license_no": "",
      "license_date": null,
      "expire_date": null
    },
    {
      "name": "リ・エール打上元町",
      "name_kana": "リエールウチアゲモトマチ",
      "business_type": "① 飲食店営業",
      "address": "大阪府寝屋川市打上元町29-18",
      "lat": 34.755943,
      "lng": 135.658089,
      "geocoding_level": null,
      "phone": "",
      "license_no": "第101-113号",
      "license_date": "2025-06-24",
      "expire_date": "2031-06-30"
    },
    {
      "name": "和幸プレミアム寝屋川",
      "name_kana": "ワコウプレミアムネヤガワ",
      "business_type": "① 飲食店営業",
      "address": "大阪府寝屋川市小路南町13-8",
      "lat": 34.751145,
      "lng": 135.637663,
      "geocoding_level": null,
      "phone": "",
      "license_no": "101-376",
      "license_date": "2026-02-19",
      "expire_date": "2032-02-29"
    },
    {
      "name": "デイサービスくつろぎ黒原橘町",
      "name_kana": "デイサービスクツロギクロハラタチバナチョウ",
      "business_type": "㉖ 集団給食施設",
      "address": "大阪府寝屋川市黒原橘町4-5",
      "lat": 34.757131,
      "lng": 135.603929,
      "geocoding_level": null,
      "phone": "0728271400",
      "license_no": "",
      "license_date": null,
      "expire_date": null
    },
    {
      "name": "牛角食べ放題専門店　寝屋川店",
      "name_kana": "ギュウカクタベホウダイセンモンテン　ネヤガワテン",
      "business_type": "① 飲食店営業",
      "address": "大阪府寝屋川市仁和寺本町3丁目11-8",
      "lat": 34.765772,
      "lng": 135.599029,
      "geocoding_level": null,
      "phone": "0728132829",
      "license_no": "第101-382号",
      "license_date": "2023-12-07",
      "expire_date": "2029-12-27"
    },
    {
      "name": "サイゼリヤ香里園駅前店",
      "name_kana": "サイゼリヤコウリエンエキマエテン",
      "business_type": "⑬ その他の食料・飲料販売業",
      "address": "大阪府寝屋川市香里南之町20-23 協栄観光ﾋﾞﾙ2F",
      "lat": 34.783982,
      "lng": 135.630363,
      "geocoding_level": null,
      "phone": "072-802-3003",
      "license_no": "",
      "license_date": null,
      "expire_date": null
    },
    {
      "name": "ウエルシア寝屋川緑町店",
      "name_kana": "ネヤガワミドリマチテン",
      "business_type": "⑪ 百貨店、総合スーパー",
      "address": "大阪府寝屋川市緑町4-20",
      "lat": 34.773447,
      "lng": 135.627352,
      "geocoding_level": null,
      "phone": "072-802-3662",
      "license_no": "",
      "license_date": null,
      "expire_date": null
    },
    {
      "name": "Riz　brun　Bakery　香里園店",
      "name_kana": "リブランベーカリーコウリエンテン",
      "business_type": "⑬ その他の食料・飲料販売業",
      "address": "大阪府寝屋川市香里南之町２０－２７",
      "lat": 34.783692,
      "lng": 135.630452,
      "geocoding_level": null,
      "phone": "080-3503-8412",
      "license_no": "",
      "license_date": null,
      "expire_date": null
    },
    {
      "name": "衣笠運送株式会社　北大阪センター",
      "name_kana": "キヌガサウンソウカブシキガイシャ　キタオオサカセンター",
      "business_type": "㉙ その他",
      "address": "大阪府寝屋川市池田北町16-1 ㈱ハップ大阪物流センター内　5階",
      "lat": 34.779626,
      "lng": 135.615568,
      "geocoding_level": null,
      "phone": "072-812-3636",
      "license_no": "",
      "license_date": null,
      "expire_date": null
    },
    {
      "name": "ケンタッキーフライドチキン　香里園店",
      "name_kana": "ケンタッキーフライドチキン　コウリエンテン",
      "business_type": "⑬ その他の食料・飲料販売業",
      "address": "大阪府寝屋川市香里南之町19番1号",
      "lat": 34.784674,
      "lng": 135.63072,
      "geocoding_level": null,
      "phone": "0728352611",
      "license_no": "",
      "license_date": null,
      "expire_date": null
    },
    {
      "name": "JR寝屋川公園駅",
      "name_kana": "ジェイアールネヤガワコウエンエキ",
      "business_type": "⑬ その他の食料・飲料販売業",
      "address": "大阪府寝屋川市打上元町14",
      "lat": 34.755551,
      "lng": 135.653434,
      "geocoding_level": null,
      "phone": "",
      "license_no": "",
      "license_date": null,
      "expire_date": null
    },
    {
      "name": "大和産業株式会社",
      "name_kana": "ダイワサンギョウカブシキカイシャ",
      "business_type": "⑬ その他の食料・飲料販売業",
      "address": "大阪府寝屋川市萱島東3-24-23",
      "lat": 34.745518,
      "lng": 135.621257,
      "geocoding_level": null,
      "phone": "",
      "license_no": "",
      "license_date": null,
      "expire_date": null
    },
    {
      "name": "株式会社きんでん",
      "name_kana": "カブシキカイシャキンデン",
      "business_type": "⑬ その他の食料・飲料販売業",
      "address": "大阪府寝屋川市木屋町14-26",
      "lat": 34.789681,
      "lng": 135.623373,
      "geocoding_level": null,
      "phone": "",
      "license_no": "",
      "license_date": null,
      "expire_date": null
    },
    {
      "name": "有限会社サンワクリエイト",
      "name_kana": "ユウゲンガイシャサンワクリエイト",
      "business_type": "⑬ その他の食料・飲料販売業",
      "address": "大阪府寝屋川市寝屋川公園2370-6",
      "lat": 34.76216,
      "lng": 135.654579,
      "geocoding_level": null,
      "phone": "",
      "license_no": "",
      "license_date": null,
      "expire_date": null
    },
    {
      "name": "柏原歯車製作所",
      "name_kana": "カシハラハグルマセイサクショ",
      "business_type": "⑬ その他の食料・飲料販売業",
      "address": "大阪府寝屋川市大成町19-6",
      "lat": 34.748819,
      "lng": 135.624562,
      "geocoding_level": null,
      "phone": "",
      "license_no": "",
      "license_date": null,
      "expire_date": null
    },
    {
      "name": "北河内農業共同組合",
      "name_kana": "キタカワチノウギョウキョウドウクミアイ",
      "business_type": "⑬ その他の食料・飲料販売業",
      "address": "大阪府寝屋川市香里南之町16-15",
      "lat": 34.783356,
      "lng": 135.630989,
      "geocoding_level": null,
      "phone": "",
      "license_no": "",
      "license_date": null,
      "expire_date": null
    },
    {
      "name": "河北病院",
      "name_kana": "カワキタビョウイン",
      "business_type": "⑬ その他の食料・飲料販売業",
      "address": "大阪府寝屋川市河北東町19-1",
      "lat": 34.728997,
      "lng": 135.631403,
      "geocoding_level": null,
      "phone": "",
      "license_no": "",
      "license_date": null,
      "expire_date": null
    },
    {
      "name": "石川整形外科",
      "name_kana": "イシカワセイケイゲカ",
      "business_type": "⑬ その他の食料・飲料販売業",
      "address": "大阪府寝屋川市香里本通町2-1",
      "lat": 34.787961,
      "lng": 135.631829,
      "geocoding_level": null,
      "phone": "",
      "license_no": "",
      "license_date": null,
      "expire_date": null
    },
    {
      "name": "星光病院",
      "name_kana": "セイコウビョウイン",
      "business_type": "⑬ その他の食料・飲料販売業",
      "address": "大阪府寝屋川市豊野町14-5",
      "lat": 34.766636,
      "lng": 135.627236,
      "geocoding_level": null,
      "phone": "",
      "license_no": "",
      "license_date": null,
      "expire_date": null
    },
    {
      "name": "株式会社日本セレモニー",
      "name_kana": "カブシキカイシャニホンセレモニー",
      "business_type": "⑬ その他の食料・飲料販売業",
      "address": "大阪府寝屋川市松屋町19-10",
      "lat": 34.785484,
      "lng": 135.623801,
      "geocoding_level": null,
      "phone": "",
      "license_no": "",
      "license_date": null,
      "expire_date": null
    },
    {
      "name": "株式会社大阪湊屋",
      "name_kana": "カブシキカイシャオオサカミナトヤ",
      "business_type": "⑬ その他の食料・飲料販売業",
      "address": "大阪府寝屋川市点野2-14-1",
      "lat": 34.780323,
      "lng": 135.610266,
      "geocoding_level": null,
      "phone": "",
      "license_no": "",
      "license_date": null,
      "expire_date": null
    },
    {
      "name": "株式会社アド・セン",
      "name_kana": "カブシキカイシャアドセン",
      "business_type": "⑬ その他の食料・飲料販売業",
      "address": "大阪府寝屋川市石津南町8-8",
      "lat": 34.774254,
      "lng": 135.621886,
      "geocoding_level": null,
      "phone": "",
      "license_no": "",
      "license_date": null,
      "expire_date": null
    },
    {
      "name": "株式会社エフ・エム・シー介護サービス",
      "name_kana": "カブシキカイシャエフエムシーカイゴサービス",
      "business_type": "⑬ その他の食料・飲料販売業",
      "address": "大阪府寝屋川市本町16-5",
      "lat": 34.76567,
      "lng": 135.627176,
      "geocoding_level": null,
      "phone": "",
      "license_no": "",
      "license_date": null,
      "expire_date": null
    },
    {
      "name": "特別養護老人ホーム 香西園",
      "name_kana": "トクベツヨウゴロウジンホームコウザイエン",
      "business_type": "⑬ その他の食料・飲料販売業",
      "address": "大阪府寝屋川市香里西之町14-24",
      "lat": 34.789194,
      "lng": 135.627418,
      "geocoding_level": null,
      "phone": "",
      "license_no": "",
      "license_date": null,
      "expire_date": null
    },
    {
      "name": "ＡＲＲＯＷ 寝屋川池田店",
      "name_kana": "アローネヤガワイケダテン",
      "business_type": "⑬ その他の食料・飲料販売業",
      "address": "大阪府寝屋川市葛原1-30-14",
      "lat": 34.773232,
      "lng": 135.609185,
      "geocoding_level": null,
      "phone": "",
      "license_no": "",
      "license_date": null,
      "expire_date": null
    },
    {
      "name": "千成ヤクルト販売㈱ 石津センター",
      "name_kana": "センナリヤクルトハンバイイシヅセンター",
      "business_type": "⑬ その他の食料・飲料販売業",
      "address": "大阪府寝屋川市石津中町36-1",
      "lat": 34.777048,
      "lng": 135.621249,
      "geocoding_level": null,
      "phone": "",
      "license_no": "",
      "license_date": null,
      "expire_date": null
    },
    {
      "name": "小島モーターズ有限会社",
      "name_kana": "コジマモーターズユウゲンガイシャ",
      "business_type": "⑬ その他の食料・飲料販売業",
      "address": "大阪府寝屋川市打上中町15-8",
      "lat": 34.75658,
      "lng": 135.653461,
      "geocoding_level": null,
      "phone": "",
      "license_no": "",
      "license_date": null,
      "expire_date": null
    },
    {
      "name": "",
      "name_kana": "",
      "business_type": "⑬ その他の食料・飲料販売業",
      "address": "大阪府寝屋川市香里新町3-1",
      "lat": 34.784663,
      "lng": 135.628006,
      "geocoding_level": null,
      "phone": "",
      "license_no": "",
      "license_date": null,
      "expire_date": null
    },
    {
      "name": "寝屋川公園",
      "name_kana": "ネヤガワコウエン",
      "business_type": "⑬ その他の食料・飲料販売業",
      "address": "大阪府寝屋川市寝屋川公園1707",
      "lat": 34.759921,
      "lng": 135.653655,
      "geocoding_level": null,
      "phone": "",
      "license_no": "",
      "license_date": null,
      "expire_date": null
    },
    {
      "name": "千成ヤクルト つばめKIDS保育園",
      "name_kana": "センナリヤクルトツバメキッズホイクエン",
      "business_type": "⑬ その他の食料・飲料販売業",
      "address": "大阪府寝屋川市木田町29-62",
      "lat": 34.760985,
      "lng": 135.622315,
      "geocoding_level": null,
      "phone": "",
      "license_no": "",
      "license_date": null,
      "expire_date": null
    },
    {
      "name": "小松病院デイサービスセンター",
      "name_kana": "コマツビョウインデイサービスセンター",
      "business_type": "⑬ その他の食料・飲料販売業",
      "address": "大阪府寝屋川市秦町3-8",
      "lat": 34.766645,
      "lng": 135.63264,
      "geocoding_level": null,
      "phone": "",
      "license_no": "",
      "license_date": null,
      "expire_date": null
    },
    {
      "name": "清水販売店",
      "name_kana": "シミズハンバイテン",
      "business_type": "⑬ その他の食料・飲料販売業",
      "address": "大阪府寝屋川市高柳2-52-7",
      "lat": 34.759067,
      "lng": 135.610629,
      "geocoding_level": null,
      "phone": "",
      "license_no": "",
      "license_date": null,
      "expire_date": null
    },
    {
      "name": "有料老人ホーム スマイル",
      "name_kana": "ユウリョウロウジンホームスマイル",
      "business_type": "⑬ その他の食料・飲料販売業",
      "address": "大阪府寝屋川市河北東町19-2",
      "lat": 34.729037,
      "lng": 135.631607,
      "geocoding_level": null,
      "phone": "",
      "license_no": "",
      "license_date": null,
      "expire_date": null
    },
    {
      "name": "百丈山合掌会",
      "name_kana": "ヒャクジョウザンガッショウカイ",
      "business_type": "⑬ その他の食料・飲料販売業",
      "address": "大阪府寝屋川市成田東が丘28-7",
      "lat": 34.776694,
      "lng": 135.647,
      "geocoding_level": null,
      "phone": "",
      "license_no": "",
      "license_date": null,
      "expire_date": null
    },
    {
      "name": "日本デイリーネット株式会社",
      "name_kana": "ニホンデイリーネットカブシキカイシャ",
      "business_type": "⑬ その他の食料・飲料販売業",
      "address": "大阪府寝屋川市点野2-24-12",
      "lat": 34.779014,
      "lng": 135.608216,
      "geocoding_level": null,
      "phone": "",
      "license_no": "",
      "license_date": null,
      "expire_date": null
    },
    {
      "name": "医療法人全心会 寝屋川ひかり病院",
      "name_kana": "イリョウホウジンゼンシンカイネヤガワヒカリビョウイン",
      "business_type": "⑬ その他の食料・飲料販売業",
      "address": "大阪府寝屋川市石津元町12-20",
      "lat": 34.775464,
      "lng": 135.619833,
      "geocoding_level": null,
      "phone": "",
      "license_no": "",
      "license_date": null,
      "expire_date": null
    },
    {
      "name": "トップワールド香里園",
      "name_kana": "トップワールドコウリエン",
      "business_type": "⑬ その他の食料・飲料販売業",
      "address": "大阪府寝屋川市香里南之町27-8",
      "lat": 34.782874,
      "lng": 135.629711,
      "geocoding_level": null,
      "phone": "",
      "license_no": "",
      "license_date": null,
      "expire_date": null
    },
    {
      "name": "小松病院",
      "name_kana": "コマツビョウイン",
      "business_type": "⑬ その他の食料・飲料販売業",
      "address": "大阪府寝屋川市川勝町11-6",
      "lat": 34.767449,
      "lng": 135.63255,
      "geocoding_level": null,
      "phone": "",
      "license_no": "",
      "license_date": null,
      "expire_date": null
    },
    {
      "name": "トップワールド黒原店",
      "name_kana": "トップワールドクロハラテン",
      "business_type": "⑬ その他の食料・飲料販売業",
      "address": "大阪府寝屋川市高柳7-19-11",
      "lat": 34.761378,
      "lng": 135.600808,
      "geocoding_level": null,
      "phone": "",
      "license_no": "",
      "license_date": null,
      "expire_date": null
    },
    {
      "name": "株式会社万代 寝屋川店",
      "name_kana": "カブシキカイシャマンダイネヤガワテン",
      "business_type": "⑬ その他の食料・飲料販売業",
      "address": "大阪府寝屋川市東大利町7-21",
      "lat": 34.764188,
      "lng": 135.61782,
      "geocoding_level": null,
      "phone": "",
      "license_no": "",
      "license_date": null,
      "expire_date": null
    },
    {
      "name": "大裕㈱",
      "name_kana": "タイユウカブシキガイシャ",
      "business_type": "⑬ その他の食料・飲料販売業",
      "address": "大阪府寝屋川市点野4-11-7",
      "lat": 34.772917,
      "lng": 135.603109,
      "geocoding_level": null,
      "phone": "",
      "license_no": "",
      "license_date": null,
      "expire_date": null
    },
    {
      "name": "SFB(有)ﾋﾟﾝｸﾁｬｲﾙﾄﾞ",
      "name_kana": "エスエフビーユウゲンガイシャピンクチャイルド",
      "business_type": "⑬ その他の食料・飲料販売業",
      "address": "大阪府寝屋川市豊里町36-36",
      "lat": 34.782055,
      "lng": 135.618153,
      "geocoding_level": null,
      "phone": "",
      "license_no": "",
      "license_date": null,
      "expire_date": null
    },
    {
      "name": "ﾄｯﾌﾟﾜｰﾙﾄﾞ萱島店",
      "name_kana": "トップワールドカヤシマテン",
      "business_type": "⑬ その他の食料・飲料販売業",
      "address": "大阪府寝屋川市萱島本町8-19",
      "lat": 34.746957,
      "lng": 135.613709,
      "geocoding_level": null,
      "phone": "",
      "license_no": "",
      "license_date": null,
      "expire_date": null
    },
    {
      "name": "そうごうケアﾎｰﾑ寝屋川公園",
      "name_kana": "ソウゴウケアホームネヤガワコウエン",
      "business_type": "⑬ その他の食料・飲料販売業",
      "address": "大阪府寝屋川市打上中町2-2",
      "lat": 34.759548,
      "lng": 135.654229,
      "geocoding_level": null,
      "phone": "",
      "license_no": "",
      "license_date": null,
      "expire_date": null
    },
    {
      "name": "特別養護老人ホーム幸楽の里ねや川",
      "name_kana": "トクベツヨウゴロウジンホームコウラクノサトネヤガワ",
      "business_type": "⑬ その他の食料・飲料販売業",
      "address": "大阪府寝屋川市葛原2-4-31",
      "lat": 34.771352,
      "lng": 135.603183,
      "geocoding_level": null,
      "phone": "",
      "license_no": "",
      "license_date": null,
      "expire_date": null
    },
    {
      "name": "㈱泰平ﾌﾟﾛﾀﾞｸﾄ寝屋川清水町",
      "name_kana": "カブシキガイシャタイヘイプロダクトネヤガワシミズチョウ",
      "business_type": "⑬ その他の食料・飲料販売業",
      "address": "大阪府寝屋川市清水町47-1",
      "lat": 34.757211,
      "lng": 135.612954,
      "geocoding_level": null,
      "phone": "",
      "license_no": "",
      "license_date": null,
      "expire_date": null
    },
    {
      "name": "松倉興業",
      "name_kana": "マツクラコウギョウ",
      "business_type": "⑬ その他の食料・飲料販売業",
      "address": "大阪府寝屋川市寝屋2-1-25",
      "lat": 34.767855,
      "lng": 135.658625,
      "geocoding_level": null,
      "phone": "",
      "license_no": "",
      "license_date": null,
      "expire_date": null
    },
    {
      "name": "みずほ銀行香里支店",
      "name_kana": "ミズホギンコウコウリシテン",
      "business_type": "⑬ その他の食料・飲料販売業",
      "address": "大阪府寝屋川市香里南之町20-3",
      "lat": 34.783644,
      "lng": 135.630289,
      "geocoding_level": null,
      "phone": "",
      "license_no": "",
      "license_date": null,
      "expire_date": null
    },
    {
      "name": "(有)光照 芳栄会館",
      "name_kana": "ユウゲンガイシャコウショウホウエイカイカン",
      "business_type": "⑬ その他の食料・飲料販売業",
      "address": "大阪府寝屋川市宇谷町3-3",
      "lat": 34.768648,
      "lng": 135.647457,
      "geocoding_level": null,
      "phone": "",
      "license_no": "",
      "license_date": null,
      "expire_date": null
    },
    {
      "name": "千成ヤクルト販売 新寝屋川駅前サービスセンター",
      "name_kana": "センナリヤクルトハンバイシンネヤガワエキマエサービスセンター",
      "business_type": "⑬ その他の食料・飲料販売業",
      "address": "大阪府寝屋川市日之出町2-5",
      "lat": 34.762638,
      "lng": 135.624314,
      "geocoding_level": null,
      "phone": "",
      "license_no": "",
      "license_date": null,
      "expire_date": null
    },
    {
      "name": "寝屋川市西南コミュニティセンター",
      "name_kana": "ネヤガワシセイナンコミュニティセンター",
      "business_type": "⑬ その他の食料・飲料販売業",
      "address": "大阪府寝屋川市上神田1-30-1",
      "lat": 34.756509,
      "lng": 135.612135,
      "geocoding_level": null,
      "phone": "",
      "license_no": "",
      "license_date": null,
      "expire_date": null
    },
    {
      "name": "香西会 テレサ",
      "name_kana": "コウセイカイテレサ",
      "business_type": "⑬ その他の食料・飲料販売業",
      "address": "大阪府寝屋川市讃良西町7-45",
      "lat": 34.742366,
      "lng": 135.621075,
      "geocoding_level": null,
      "phone": "",
      "license_no": "",
      "license_date": null,
      "expire_date": null
    },
    {
      "name": "寝屋川市立子育てリフレッシュ館",
      "name_kana": "ネヤガワシリツコソダテリフレッシュカン",
      "business_type": "⑬ その他の食料・飲料販売業",
      "address": "大阪府寝屋川市錦町8-13",
      "lat": 34.760926,
      "lng": 135.617282,
      "geocoding_level": null,
      "phone": "",
      "license_no": "",
      "license_date": null,
      "expire_date": null
    },
    {
      "name": "株式会社不二鉄工所",
      "name_kana": "カブシキガイシャフジテッコウショ",
      "business_type": "⑬ その他の食料・飲料販売業",
      "address": "大阪府寝屋川市寝屋2-1-11",
      "lat": 34.76839,
      "lng": 135.658884,
      "geocoding_level": null,
      "phone": "",
      "license_no": "",
      "license_date": null,
      "expire_date": null
    },
    {
      "name": "老人保健施設ﾊｰﾓﾆｨｰ",
      "name_kana": "ロウジンホケンシセツハーモニィー",
      "business_type": "⑬ その他の食料・飲料販売業",
      "address": "大阪府寝屋川市寝屋2-14-9",
      "lat": 34.766711,
      "lng": 135.661267,
      "geocoding_level": null,
      "phone": "",
      "license_no": "",
      "license_date": null,
      "expire_date": null
    },
    {
      "name": "日本ﾛｼﾞｯｸｽ物流ｾﾝﾀｰ",
      "name_kana": "ニホンロジックスブツリュウセンター",
      "business_type": "⑬ その他の食料・飲料販売業",
      "address": "大阪府寝屋川市葛原1-32-16",
      "lat": 34.774179,
      "lng": 135.607215,
      "geocoding_level": null,
      "phone": "",
      "license_no": "",
      "license_date": null,
      "expire_date": null
    },
    {
      "name": "FMC大利ホーム",
      "name_kana": "エフエムシーオオトシホーム",
      "business_type": "⑬ その他の食料・飲料販売業",
      "address": "大阪府寝屋川市北大利町19-10",
      "lat": 34.767325,
      "lng": 135.617706,
      "geocoding_level": null,
      "phone": "",
      "license_no": "",
      "license_date": null,
      "expire_date": null
    },
    {
      "name": "ｺﾏﾂﾚﾝﾀﾙ株式会社",
      "name_kana": "コマツレンタルカブシキガイシャ",
      "business_type": "⑬ その他の食料・飲料販売業",
      "address": "大阪府寝屋川市池田中町23-3",
      "lat": 34.778187,
      "lng": 135.61551,
      "geocoding_level": null,
      "phone": "",
      "license_no": "",
      "license_date": null,
      "expire_date": null
    },
    {
      "name": "香西会　スバル",
      "name_kana": "コウセイカイスバル",
      "business_type": "⑬ その他の食料・飲料販売業",
      "address": "大阪府寝屋川市秦町3番12号",
      "lat": 34.766574,
      "lng": 135.633077,
      "geocoding_level": null,
      "phone": "",
      "license_no": "",
      "license_date": null,
      "expire_date": null
    },
    {
      "name": "藤本病院",
      "name_kana": "フジモトビョウイン",
      "business_type": "⑬ その他の食料・飲料販売業",
      "address": "大阪府寝屋川市八坂町２－３",
      "lat": 34.765312,
      "lng": 135.624536,
      "geocoding_level": null,
      "phone": "",
      "license_no": "",
      "license_date": null,
      "expire_date": null
    },
    {
      "name": "千成ヤクルト販売株式会社",
      "name_kana": "センナリヤクルトハンバイカブシキガイシャ",
      "business_type": "⑬ その他の食料・飲料販売業",
      "address": "大阪府寝屋川市寝屋南2-13-1",
      "lat": 34.769056,
      "lng": 135.653478,
      "geocoding_level": null,
      "phone": "",
      "license_no": "",
      "license_date": null,
      "expire_date": null
    },
    {
      "name": "倉敷紡績株式会社",
      "name_kana": "クラシキボウセキカブシキガイシャ",
      "business_type": "⑬ その他の食料・飲料販売業",
      "address": "大阪府寝屋川市下木田町１４－５",
      "lat": 34.75114,
      "lng": 135.621564,
      "geocoding_level": null,
      "phone": "",
      "license_no": "",
      "license_date": null,
      "expire_date": null
    },
    {
      "name": "サカエグラビヤ印刷株式会社",
      "name_kana": "サカエグラビヤインサツカブシキガイシャ",
      "business_type": "⑬ その他の食料・飲料販売業",
      "address": "大阪府寝屋川市豊里町３１－１",
      "lat": 34.784688,
      "lng": 135.616728,
      "geocoding_level": null,
      "phone": "",
      "license_no": "",
      "license_date": null,
      "expire_date": null
    },
    {
      "name": "カタギ食品株式会社",
      "name_kana": "カタギショクヒンカブシキガイシャ",
      "business_type": "⑬ その他の食料・飲料販売業",
      "address": "大阪府寝屋川市石津元町１２－８",
      "lat": 34.774589,
      "lng": 135.620925,
      "geocoding_level": null,
      "phone": "",
      "license_no": "",
      "license_date": null,
      "expire_date": null
    },
    {
      "name": "寝屋川コンクリート",
      "name_kana": "ネヤガワコンクリート",
      "business_type": "⑬ その他の食料・飲料販売業",
      "address": "大阪府寝屋川市池田２丁目１１－６２",
      "lat": 34.776377,
      "lng": 135.618251,
      "geocoding_level": null,
      "phone": "",
      "license_no": "",
      "license_date": null,
      "expire_date": null
    },
    {
      "name": "オリエント化学工業株式会社",
      "name_kana": "オリエントカガクコウギョウカブシキガイシャ",
      "business_type": "⑬ その他の食料・飲料販売業",
      "address": "大阪府寝屋川市讃良東町８－１",
      "lat": 34.743779,
      "lng": 135.623558,
      "geocoding_level": null,
      "phone": "",
      "license_no": "",
      "license_date": null,
      "expire_date": null
    },
    {
      "name": "三宝ステンレス工業株式会社",
      "name_kana": "サンポウステンレスコウギョウカブシキガイシャ",
      "business_type": "⑬ その他の食料・飲料販売業",
      "address": "大阪府寝屋川市点野５丁目３１番１７号",
      "lat": 34.773462,
      "lng": 135.599677,
      "geocoding_level": null,
      "phone": "",
      "license_no": "",
      "license_date": null,
      "expire_date": null
    },
    {
      "name": "寝屋農園",
      "name_kana": "ネヤノウエン",
      "business_type": "⑬ その他の食料・飲料販売業",
      "address": "大阪府寝屋川市寝屋１丁目２０",
      "lat": 34.771489,
      "lng": 135.657868,
      "geocoding_level": null,
      "phone": "",
      "license_no": "",
      "license_date": null,
      "expire_date": null
    },
    {
      "name": "グリーンヒル淳風",
      "name_kana": "フリーンヒルジュンプウ",
      "business_type": "⑬ その他の食料・飲料販売業",
      "address": "大阪府寝屋川市太秦高塚町９－１",
      "lat": 34.758959,
      "lng": 135.645594,
      "geocoding_level": null,
      "phone": "",
      "license_no": "",
      "license_date": null,
      "expire_date": null
    },
    {
      "name": "㈱松由製作所",
      "name_kana": "カブシキカイシャマツヨシセイサクショ",
      "business_type": "⑬ その他の食料・飲料販売業",
      "address": "大阪府寝屋川市末広町12-10",
      "lat": 34.782818,
      "lng": 135.642334,
      "geocoding_level": null,
      "phone": "",
      "license_no": "",
      "license_date": null,
      "expire_date": null
    },
    {
      "name": "ドラッグコスモス音羽店",
      "name_kana": "ドラッグコスモスオトワテン",
      "business_type": "⑪ 百貨店、総合スーパー",
      "address": "大阪府寝屋川市音羽町7-10",
      "lat": 34.775221,
      "lng": 135.624576,
      "geocoding_level": null,
      "phone": "072-830-3066",
      "license_no": "",
      "license_date": null,
      "expire_date": null
    },
    {
      "name": "ドラッグコスモス萱島店",
      "name_kana": "ドラッグコスモスカヤシマテン",
      "business_type": "⑪ 百貨店、総合スーパー",
      "address": "大阪府寝屋川市下木田町1４-55",
      "lat": 34.750374,
      "lng": 135.619619,
      "geocoding_level": null,
      "phone": "072-812-1008",
      "license_no": "",
      "license_date": null,
      "expire_date": null
    },
    {
      "name": "ドラッグコスモス太秦桜が丘店",
      "name_kana": "ドラッグコスモスウズマササクラガオカテン",
      "business_type": "⑪ 百貨店、総合スーパー",
      "address": "大阪府寝屋川市太秦桜が丘３２－４３",
      "lat": 34.766017,
      "lng": 135.644042,
      "geocoding_level": null,
      "phone": "072-811-3027",
      "license_no": "",
      "license_date": null,
      "expire_date": null
    },
    {
      "name": "医療法人道仁会道仁病院",
      "name_kana": "イリョウホウジンドウジンカイドウジンビョウイン",
      "business_type": "㉖ 集団給食施設",
      "address": "大阪府寝屋川市仁和寺本町3丁目9番6号",
      "lat": 34.766289,
      "lng": 135.599767,
      "geocoding_level": null,
      "phone": "",
      "license_no": "",
      "license_date": null,
      "expire_date": null
    },
    {
      "name": "特別養護老人ホーム　ペガサス",
      "name_kana": "トクベツヨウゴロウジンホーム　ペガサス",
      "business_type": "㉖ 集団給食施設",
      "address": "大阪府寝屋川市寝屋南２丁目１４ー５",
      "lat": 34.767726,
      "lng": 135.654161,
      "geocoding_level": null,
      "phone": "",
      "license_no": "",
      "license_date": null,
      "expire_date": null
    },
    {
      "name": "びっくりドンキー寝屋川店",
      "name_kana": "ビックリドンキーネヤガワテン",
      "business_type": "⑬ その他の食料・飲料販売業",
      "address": "大阪府寝屋川市堀溝2-7-7",
      "lat": 34.740606,
      "lng": 135.624489,
      "geocoding_level": null,
      "phone": "",
      "license_no": "",
      "license_date": null,
      "expire_date": null
    },
    {
      "name": "松屋　香里園駅前店",
      "name_kana": "マツヤ　コウリエンエキマエテン",
      "business_type": "① 飲食店営業",
      "address": "大阪府寝屋川市香里南之町20-20",
      "lat": 34.784099,
      "lng": 135.630194,
      "geocoding_level": null,
      "phone": "090-6722-9775",
      "license_no": "第101-014号",
      "license_date": "2025-04-15",
      "expire_date": "2031-04-30"
    },
    {
      "name": "松のや・マイカリー食堂　香里園店",
      "name_kana": "マツノヤ・マイカリーショクドウ　コウリエンテン",
      "business_type": "① 飲食店営業",
      "address": "大阪府寝屋川市香里南之町30-14",
      "lat": 34.784155,
      "lng": 135.629098,
      "geocoding_level": null,
      "phone": "080-5928-1078",
      "license_no": "第101-070号",
      "license_date": "2025-06-03",
      "expire_date": "2031-06-30"
    },
    {
      "name": "福留ハム株式会社　広域流通営業部",
      "name_kana": "フクトメハムカブシキカイシャ　コウイキリュウツウエイギョウブ",
      "business_type": "② 食肉販売業（包装済みの食肉のみの販売）",
      "address": "大阪府寝屋川市点野二丁目24-12 日本デイリーネット株式会社 寝屋川センター内",
      "lat": 34.779007,
      "lng": 135.608233,
      "geocoding_level": null,
      "phone": "050-3149-4186",
      "license_no": "",
      "license_date": null,
      "expire_date": null
    },
    {
      "name": "キコーナ寝屋川南店",
      "name_kana": "キコーナネヤガワミナミテン",
      "business_type": "⑤ コップ式自動販売機（自動洗浄・屋内設置）",
      "address": "大阪府寝屋川市堀溝1-20-2",
      "lat": 34.741156,
      "lng": 135.623967,
      "geocoding_level": null,
      "phone": "",
      "license_no": "",
      "license_date": null,
      "expire_date": null
    },
    {
      "name": "キコーナ香里園店",
      "name_kana": "キコーナコウリエンテン",
      "business_type": "⑤ コップ式自動販売機（自動洗浄・屋内設置）",
      "address": "大阪府寝屋川市香里南之町20番20 グランフィール香里園",
      "lat": 34.784099,
      "lng": 135.630194,
      "geocoding_level": null,
      "phone": "",
      "license_no": "",
      "license_date": null,
      "expire_date": null
    },
    {
      "name": "リンガーハット　ビバモール寝屋川店",
      "name_kana": "リンガーハット　ビバモールネヤガワテン",
      "business_type": "⑬ その他の食料・飲料販売業",
      "address": "大阪府寝屋川市寝屋南２－２２－２　ビバモール寝屋川フードコート内",
      "lat": 34.766111,
      "lng": 135.650833,
      "geocoding_level": null,
      "phone": "072-880-1060",
      "license_no": "",
      "license_date": null,
      "expire_date": null
    },
    {
      "name": "有料老人ホームケアホーム寝屋川宝町",
      "name_kana": "ユウリョウロウジンホームケアホームネヤガワタカラマチ",
      "business_type": "㉖ 集団給食施設",
      "address": "大阪府寝屋川市宝町14番2号",
      "lat": 34.767367,
      "lng": 135.603663,
      "geocoding_level": null,
      "phone": "072-800-8521",
      "license_no": "",
      "license_date": null,
      "expire_date": null
    },
    {
      "name": "（有）篠崎米穀店",
      "name_kana": "ユウゲンカイシャシノザキベイコクテン",
      "business_type": "⑧ 米穀類販売業",
      "address": "大阪府寝屋川市春日町２６－８",
      "lat": 34.764585,
      "lng": 135.607335,
      "geocoding_level": null,
      "phone": "072-826-0572",
      "license_no": "",
      "license_date": null,
      "expire_date": null
    },
    {
      "name": "すき家　170号寝屋川高宮店",
      "name_kana": "スキヤ　ヒャクナナジュウゴウネヤガワタカミヤテン",
      "business_type": "⑬ その他の食料・飲料販売業",
      "address": "大阪府寝屋川市高宮1-10-27",
      "lat": 34.757437,
      "lng": 135.631551,
      "geocoding_level": null,
      "phone": "",
      "license_no": "",
      "license_date": null,
      "expire_date": null
    },
    {
      "name": "すき家　香里園駅前店",
      "name_kana": "スキヤ　コウリエンエキマエテン",
      "business_type": "① 飲食店営業",
      "address": "大阪府寝屋川市香里南之町20-30",
      "lat": 34.78316,
      "lng": 135.630831,
      "geocoding_level": null,
      "phone": "",
      "license_no": "第101-129号",
      "license_date": "2023-06-26",
      "expire_date": "2029-06-30"
    },
    {
      "name": "すき家　香里園駅前店",
      "name_kana": "スキヤ　コウリエンエキマエテン",
      "business_type": "⑬ その他の食料・飲料販売業",
      "address": "大阪府寝屋川市香里南之町20-30",
      "lat": 34.78316,
      "lng": 135.630831,
      "geocoding_level": null,
      "phone": "",
      "license_no": "",
      "license_date": null,
      "expire_date": null
    },
    {
      "name": "",
      "name_kana": "",
      "business_type": "㉔ その他の食料品製造・加工業",
      "address": "大阪府寝屋川市香里新町3-1",
      "lat": 34.784663,
      "lng": 135.628006,
      "geocoding_level": null,
      "phone": "",
      "license_no": "",
      "license_date": null,
      "expire_date": null
    },
    {
      "name": "ミスタードーナツアドバンス寝屋川",
      "name_kana": "ミスタードーナツアドバンスネヤガワ",
      "business_type": "⑬ その他の食料・飲料販売業",
      "address": "大阪府寝屋川市早子町23-2-107",
      "lat": 34.763379,
      "lng": 135.621517,
      "geocoding_level": null,
      "phone": "",
      "license_no": "",
      "license_date": null,
      "expire_date": null
    },
    {
      "name": "北河内農業協同組合　寝屋川支店",
      "name_kana": "キタカワチノウギョウキョウドウクミアイ　ネヤガワシテン",
      "business_type": "⑧ 米穀類販売業",
      "address": "大阪府寝屋川市萱島本町12-10",
      "lat": 34.746198,
      "lng": 135.614384,
      "geocoding_level": null,
      "phone": "072-824-3003",
      "license_no": "",
      "license_date": null,
      "expire_date": null
    },
    {
      "name": "北河内農業協同組合　寝屋川支店",
      "name_kana": "キタカワチノウギョウキョウドウクミアイ　ネヤガワシテン",
      "business_type": "⑫ 自動販売機による販売業（コップ式自動販売機（自動洗浄・屋内設置）及び営業許可の対象となる自動販売機を除く）",
      "address": "大阪府寝屋川市萱島本町12-10",
      "lat": 34.746198,
      "lng": 135.614384,
      "geocoding_level": null,
      "phone": "072-824-3003",
      "license_no": "",
      "license_date": null,
      "expire_date": null
    },
    {
      "name": "北河内農業協同組合　寝屋川支店",
      "name_kana": "キタカワチノウギョウキョウドウクミアイ　ネヤガワシテン",
      "business_type": "⑬ その他の食料・飲料販売業",
      "address": "大阪府寝屋川市萱島本町12-10",
      "lat": 34.746198,
      "lng": 135.614384,
      "geocoding_level": null,
      "phone": "072-824-3003",
      "license_no": "",
      "license_date": null,
      "expire_date": null
    },
    {
      "name": "三愛株式会社",
      "name_kana": "サンアイカブシキガイシャ",
      "business_type": "㉗ 器具、容器包装の製造・加工業（合成樹脂が使用された器具又は容器包装の製造、加工に限る。）",
      "address": "大阪府寝屋川市仁和寺本町2-15-5",
      "lat": 34.768511,
      "lng": 135.596836,
      "geocoding_level": null,
      "phone": "",
      "license_no": "",
      "license_date": null,
      "expire_date": null
    },
    {
      "name": "北河内農業協同組合　香里支店",
      "name_kana": "キタカワチノウギョウキョウドウクミアイ　コウリシテン",
      "business_type": "⑧ 米穀類販売業",
      "address": "大阪府寝屋川市香里南之町16-15",
      "lat": 34.783349,
      "lng": 135.631016,
      "geocoding_level": null,
      "phone": "",
      "license_no": "",
      "license_date": null,
      "expire_date": null
    },
    {
      "name": "北河内農業協同組合　香里支店",
      "name_kana": "キタカワチノウギョウキョウドウクミアイ　コウリシテン",
      "business_type": "⑫ 自動販売機による販売業（コップ式自動販売機（自動洗浄・屋内設置）及び営業許可の対象となる自動販売機を除く）",
      "address": "大阪府寝屋川市香里南之町16-15",
      "lat": 34.783349,
      "lng": 135.631016,
      "geocoding_level": null,
      "phone": "",
      "license_no": "",
      "license_date": null,
      "expire_date": null
    },
    {
      "name": "北河内農業協同組合　香里支店",
      "name_kana": "キタカワチノウギョウキョウドウクミアイ　コウリシテン",
      "business_type": "⑬ その他の食料・飲料販売業",
      "address": "大阪府寝屋川市香里南之町16-15",
      "lat": 34.783349,
      "lng": 135.631016,
      "geocoding_level": null,
      "phone": "",
      "license_no": "",
      "license_date": null,
      "expire_date": null
    },
    {
      "name": "お菓子のデパートよしや　ビバモール寝屋川店",
      "name_kana": "オカシノデパートヨシヤ　ビバモールネヤガワテン",
      "business_type": "⑬ その他の食料・飲料販売業",
      "address": "大阪府寝屋川市寝屋南2-22-2ビバモール1階",
      "lat": 34.765949,
      "lng": 135.651938,
      "geocoding_level": null,
      "phone": "072-823-5388",
      "license_no": "",
      "license_date": null,
      "expire_date": null
    },
    {
      "name": "お菓子のデパートよしや　寝屋川店",
      "name_kana": "オカシノデパートヨシヤ　ネヤガワテン",
      "business_type": "⑬ その他の食料・飲料販売業",
      "address": "大阪府寝屋川市東大利町14-32",
      "lat": 34.763068,
      "lng": 135.619109,
      "geocoding_level": null,
      "phone": "072-838-9124",
      "license_no": "",
      "license_date": null,
      "expire_date": null
    },
    {
      "name": "北河内農業協同組合　豊野支店",
      "name_kana": "キタカワチノウギョウキョウドウクミアイ　トヨノシテン",
      "business_type": "⑧ 米穀類販売業",
      "address": "大阪府寝屋川市高宮新町31－6",
      "lat": 34.761408,
      "lng": 135.632766,
      "geocoding_level": null,
      "phone": "0728210158",
      "license_no": "",
      "license_date": null,
      "expire_date": null
    },
    {
      "name": "北河内農業協同組合　豊野支店",
      "name_kana": "キタカワチノウギョウキョウドウクミアイ　トヨノシテン",
      "business_type": "⑫ 自動販売機による販売業（コップ式自動販売機（自動洗浄・屋内設置）及び営業許可の対象となる自動販売機を除く）",
      "address": "大阪府寝屋川市高宮新町31－6",
      "lat": 34.761408,
      "lng": 135.632766,
      "geocoding_level": null,
      "phone": "0728210158",
      "license_no": "",
      "license_date": null,
      "expire_date": null
    },