{
  "meta": {
    "updated": 1783568789,
    "sources": [
      {
        "source": "厚生労働省 食品衛生申請等システム（オープンデータ）",
        "license": "公共データ利用規約（第1.0版, PDL1.0）"
      }
    ]
  },
  "data": [
    {
      "name": "株式会社九州屋　グリーン・デリ・新鮮館　西船橋店",
      "name_kana": "カブシキガイシャキュウシュウヤ　グリーン・デリ・シンセンカン　ニシフナバシテン",
      "business_type": "⑪ 百貨店、総合スーパー",
      "address": "千葉県船橋市印内町594-9",
      "lat": 35.706434,
      "lng": 139.958978,
      "geocoding_level": null,
      "phone": "047-436-1777",
      "license_no": "",
      "license_date": null,
      "expire_date": null
    },
    {
      "name": "株式会社九州屋　東武百貨店船橋店",
      "name_kana": "カブシキガイシャキュウシュウヤ　トウブヒャッカテンフナバシテン",
      "business_type": "⑦ 野菜果物販売業",
      "address": "千葉県船橋市本町7丁目1-1 東武百貨店船橋店　B1F",
      "lat": 35.701905,
      "lng": 139.985824,
      "geocoding_level": null,
      "phone": "047-460-5411",
      "license_no": "",
      "license_date": null,
      "expire_date": null
    },
    {
      "name": "株式会社九州屋　グリーン・デリ・新鮮館　西船橋店",
      "name_kana": "カブシキガイシャキュウシュウヤグリーンデリシンセンカンニシフナバシテン",
      "business_type": "① 飲食店営業",
      "address": "千葉県船橋市印内町５９４－９",
      "lat": 35.706434,
      "lng": 139.958978,
      "geocoding_level": null,
      "phone": "047-436-1777",
      "license_no": "第06-231号",
      "license_date": "2024-07-24",
      "expire_date": "2031-07-31"
    },
    {
      "name": "PS　マリノ",
      "name_kana": "ピーエス　マリノ",
      "business_type": "① 飲食店営業",
      "address": "千葉県船橋市山手1丁目1番8号 イオンモール船橋1F",
      "lat": 35.711907,
      "lng": 139.978861,
      "geocoding_level": null,
      "phone": "047-404-6155",
      "license_no": "第07-845号",
      "license_date": "2026-04-22",
      "expire_date": "2033-04-30"
    },
    {
      "name": "パルメナーラ",
      "name_kana": "パルメナーラ",
      "business_type": "① 飲食店営業",
      "address": "千葉県船橋市山手1-1-8 イオンモール船橋3F",
      "lat": 35.711907,
      "lng": 139.978861,
      "geocoding_level": null,
      "phone": "047-404-6011",
      "license_no": "第07-846号",
      "license_date": "2026-04-22",
      "expire_date": "2032-04-30"
    },
    {
      "name": "昭和産業株式会社船橋工場",
      "name_kana": "ショウワサンギョウカブシキガイシャフナバシコウジョウ",
      "business_type": "⑳ 精穀・製粉業",
      "address": "千葉県船橋市日の出2-20-2",
      "lat": 35.685865,
      "lng": 139.983598,
      "geocoding_level": null,
      "phone": "0474331360",
      "license_no": "",
      "license_date": null,
      "expire_date": null
    },
    {
      "name": "ウェルネスクラブ船橋",
      "name_kana": "ウェルネスクラブフナバシ",
      "business_type": "⑤ コップ式自動販売機（自動洗浄・屋内設置）",
      "address": "千葉県船橋市本町1-7-6 ドリーム船橋ビル4階",
      "lat": 35.698977,
      "lng": 139.985812,
      "geocoding_level": null,
      "phone": "",
      "license_no": "",
      "license_date": null,
      "expire_date": null
    },
    {
      "name": "ティップネス船橋",
      "name_kana": "ティップネスフナバシ",
      "business_type": "⑤ コップ式自動販売機（自動洗浄・屋内設置）",
      "address": "千葉県船橋市本町６－４－２１",
      "lat": 35.704267,
      "lng": 139.987094,
      "geocoding_level": null,
      "phone": "047-425-7333",
      "license_no": "",
      "license_date": null,
      "expire_date": null
    },
    {
      "name": "コナミ西船橋",
      "name_kana": "コナミニシフナバシ",
      "business_type": "⑤ コップ式自動販売機（自動洗浄・屋内設置）",
      "address": "千葉県船橋市印内町５７９－１ ロクロービル（2F）",
      "lat": 35.706342,
      "lng": 139.959521,
      "geocoding_level": null,
      "phone": "047-420-7751",
      "license_no": "",
      "license_date": null,
      "expire_date": null
    },
    {
      "name": "コナミ船橋",
      "name_kana": "コナミフナバシ",
      "business_type": "⑤ コップ式自動販売機（自動洗浄・屋内設置）",
      "address": "千葉県船橋市湊町２－８－４５ 4F",
      "lat": 35.695377,
      "lng": 139.981504,
      "geocoding_level": null,
      "phone": "047-420-2071",
      "license_no": "",
      "license_date": null,
      "expire_date": null
    },
    {
      "name": "コナミスポーツクラブ下総中山",
      "name_kana": "コナミスポーツクラブシモウサナカヤマ",
      "business_type": "⑤ コップ式自動販売機（自動洗浄・屋内設置）",
      "address": "千葉県船橋市本中山２－１０－１",
      "lat": 35.714338,
      "lng": 139.944087,
      "geocoding_level": null,
      "phone": "047-302-5191",
      "license_no": "",
      "license_date": null,
      "expire_date": null
    },
    {
      "name": "ホットヨガスタジオLAVA津田沼",
      "name_kana": "ホットヨガスタジオラバツダヌマ",
      "business_type": "⑤ コップ式自動販売機（自動洗浄・屋内設置）",
      "address": "千葉県船橋市前原西2-13-16 白井興銀ビル6F",
      "lat": 35.692488,
      "lng": 140.021396,
      "geocoding_level": null,
      "phone": "",
      "license_no": "",
      "license_date": null,
      "expire_date": null
    },
    {
      "name": "フィットプレイス船橋",
      "name_kana": "フィットプレイスフナバシ",
      "business_type": "⑫ 自動販売機による販売業（コップ式自動販売機（自動洗浄・屋内設置）及び営業許可の対象となる自動販売機を除く）",
      "address": "千葉県船橋市西船4丁目17-10 NEビル4階",
      "lat": 35.709858,
      "lng": 139.95852,
      "geocoding_level": null,
      "phone": "050-8883-3025",
      "license_no": "",
      "license_date": null,
      "expire_date": null
    },
    {
      "name": "フィットプレイス西船橋",
      "name_kana": "フィットプレイスニシフナバシ",
      "business_type": "⑫ 自動販売機による販売業（コップ式自動販売機（自動洗浄・屋内設置）及び営業許可の対象となる自動販売機を除く）",
      "address": "千葉県船橋市西船4丁目17-10 NEビル4階",
      "lat": 35.709858,
      "lng": 139.95852,
      "geocoding_level": null,
      "phone": "",
      "license_no": "",
      "license_date": null,
      "expire_date": null
    },
    {
      "name": "ANYTIMEFITNESS習志野台",
      "name_kana": "エニタイムフィットネスナラシノダイ",
      "business_type": "⑤ コップ式自動販売機（自動洗浄・屋内設置）",
      "address": "千葉県船橋市習志野台4-48-21 1F",
      "lat": 35.71618,
      "lng": 140.045149,
      "geocoding_level": null,
      "phone": "",
      "license_no": "",
      "license_date": null,
      "expire_date": null
    },
    {
      "name": "ANYTIMEFITNESSららテラスTOKYO-BAY",
      "name_kana": "エニタイムフィットネスララテラストウキョーベイ",
      "business_type": "⑤ コップ式自動販売機（自動洗浄・屋内設置）",
      "address": "千葉県船橋市若松2丁目1番4 ららテラスTOKYO-BAY 1F",
      "lat": 35.68137,
      "lng": 139.99489,
      "geocoding_level": null,
      "phone": "",
      "license_no": "",
      "license_date": null,
      "expire_date": null
    },
    {
      "name": "FIT PLACE津田沼",
      "name_kana": "フィットプレイスツダヌマ",
      "business_type": "⑫ 自動販売機による販売業（コップ式自動販売機（自動洗浄・屋内設置）及び営業許可の対象となる自動販売機を除く）",
      "address": "千葉県船橋市前原西5-7-14",
      "lat": 35.697493,
      "lng": 140.023377,
      "geocoding_level": null,
      "phone": "",
      "license_no": "",
      "license_date": null,
      "expire_date": null
    },
    {
      "name": "フィットプレイス津田沼駅前",
      "name_kana": "フィットプレイスツダヌマエキマエ",
      "business_type": "⑫ 自動販売機による販売業（コップ式自動販売機（自動洗浄・屋内設置）及び営業許可の対象となる自動販売機を除く）",
      "address": "千葉県船橋市前原西5-7-14",
      "lat": 35.697493,
      "lng": 140.023377,
      "geocoding_level": null,
      "phone": "",
      "license_no": "",
      "license_date": null,
      "expire_date": null
    },
    {
      "name": "北野エース　東武船橋店",
      "name_kana": "キタノエース　トウブフナバシテン",
      "business_type": "⑬ その他の食料・飲料販売業",
      "address": "千葉県船橋市本町7丁目1番1号 東武百貨店船橋店地下1階",
      "lat": 35.701433,
      "lng": 139.986561,
      "geocoding_level": null,
      "phone": "0474606871",
      "license_no": "",
      "license_date": null,
      "expire_date": null
    },
    {
      "name": "ローソンストア１００　船橋本町六丁目店",
      "name_kana": "ローソンストアヒャク　フナバシホンチョウロクチョウメテン",
      "business_type": "⑩ コンビニエンスストア",
      "address": "千葉県船橋市本町６丁目１８番５号",
      "lat": 35.703999,
      "lng": 139.988082,
      "geocoding_level": null,
      "phone": "0474603699",
      "license_no": "",
      "license_date": null,
      "expire_date": null
    },
    {
      "name": "ローソンストア１００　習志野台店",
      "name_kana": "ローソンストアヒャク　ナラシノダイテン",
      "business_type": "⑩ コンビニエンスストア",
      "address": "千葉県船橋市習志野台2丁目73番7号",
      "lat": 35.724983,
      "lng": 140.04979,
      "geocoding_level": null,
      "phone": "0474566599",
      "license_no": "",
      "license_date": null,
      "expire_date": null
    },
    {
      "name": "船橋戸田鶏卵(株)",
      "name_kana": "フナバシトダケイランカブシキガイシャ",
      "business_type": "㉙ その他",
      "address": "千葉県船橋市船橋市1-8-1",
      "lat": 35.703857,
      "lng": 139.993311,
      "geocoding_level": null,
      "phone": "047-423-1657",
      "license_no": "",
      "license_date": null,
      "expire_date": null
    },
    {
      "name": "カルディコーヒーファーム　ららぽーとTOKYO-BAY店",
      "name_kana": "カルディコーヒーファーム　ララポートトウキョウベイテン",
      "business_type": "⑬ その他の食料・飲料販売業",
      "address": "千葉県船橋市浜町2丁目1番1号 ららぽーとTOKYO－BAY　北館1F",
      "lat": 35.687317,
      "lng": 139.987769,
      "geocoding_level": null,
      "phone": "047-495-3180",
      "license_no": "",
      "license_date": null,
      "expire_date": null
    },
    {
      "name": "カルディコーヒーファーム　ペリエ西船橋店",
      "name_kana": "カルディコーヒーファーム　ペリエニシフナバシテン",
      "business_type": "⑬ その他の食料・飲料販売業",
      "address": "千葉県船橋市西船4-27-7 ペリエ西船橋2F",
      "lat": 35.707969,
      "lng": 139.957699,
      "geocoding_level": null,
      "phone": "047-436-5133",
      "license_no": "",
      "license_date": null,
      "expire_date": null
    },
    {
      "name": "カルディコーヒーファーム　シャポー船橋店",
      "name_kana": "カルディコーヒーファーム　シャポーフナバシテン",
      "business_type": "⑬ その他の食料・飲料販売業",
      "address": "千葉県船橋市本町7-1-1 シャポー船橋本館1Ｆ",
      "lat": 35.701433,
      "lng": 139.986561,
      "geocoding_level": null,
      "phone": "047-425-4500",
      "license_no": "",
      "license_date": null,
      "expire_date": null
    },
    {
      "name": "カルディコーヒーファーム　船橋東武店",
      "name_kana": "カルディコーヒーファーム　フナバシトウブテン",
      "business_type": "⑬ その他の食料・飲料販売業",
      "address": "千葉県船橋市本町7丁目1-1 東武百貨店 船橋店2F",
      "lat": 35.701433,
      "lng": 139.986561,
      "geocoding_level": null,
      "phone": "047-405-2329",
      "license_no": "",
      "license_date": null,
      "expire_date": null
    },
    {
      "name": "リップル保育園西船橋",
      "name_kana": "リップルホイクエンニシフナバシ",
      "business_type": "㉖ 集団給食施設",
      "address": "千葉県船橋市葛飾町２－３７８－７",
      "lat": 35.707207,
      "lng": 139.956056,
      "geocoding_level": null,
      "phone": "0474015567",
      "license_no": "",
      "license_date": null,
      "expire_date": null
    },
    {
      "name": "ダイソー　サミット馬込沢店",
      "name_kana": "ダイソー　サミットマゴメザワテン",
      "business_type": "⑬ その他の食料・飲料販売業",
      "address": "千葉県船橋市藤原７丁目２－２ サミット馬込沢店２階",
      "lat": 35.742342,
      "lng": 139.991661,
      "geocoding_level": null,
      "phone": "",
      "license_no": "",
      "license_date": null,
      "expire_date": null
    },
    {
      "name": "ダイソー　ギガ船橋店６Ｆ",
      "name_kana": "ダイソー　ギガフナバシテンロクカイ",
      "business_type": "⑬ その他の食料・飲料販売業",
      "address": "千葉県船橋市本町１－６－３ ギガ船橋店６階",
      "lat": 35.699799,
      "lng": 139.985794,
      "geocoding_level": null,
      "phone": "",
      "license_no": "",
      "license_date": null,
      "expire_date": null
    },
    {
      "name": "ダイソー　マミーマート船橋日大前店",
      "name_kana": "ダイソー　マミーマートフナバシニチダイマエテン",
      "business_type": "⑬ その他の食料・飲料販売業",
      "address": "千葉県船橋市坪井町東３－６－１ マミーマート船橋日大前店１階",
      "lat": 35.728983,
      "lng": 140.01887,
      "geocoding_level": null,
      "phone": "",
      "license_no": "",
      "license_date": null,
      "expire_date": null
    },
    {
      "name": "ダイソー　ゆめまち習志野台モール店",
      "name_kana": "ダイソー　ユメマチナラシノダイモールテン",
      "business_type": "⑬ その他の食料・飲料販売業",
      "address": "千葉県船橋市習志野台８丁目５８番１号 ゆめまち習志野台モール２階",
      "lat": 35.718027,
      "lng": 140.065222,
      "geocoding_level": null,
      "phone": "",
      "license_no": "",
      "license_date": null,
      "expire_date": null
    },
    {
      "name": "ダイソー　フォルテ船橋店",
      "name_kana": "ダイソー　フォルテフナバシテン",
      "business_type": "⑬ その他の食料・飲料販売業",
      "address": "千葉県船橋市行田１－５０－２ フォルテ船橋２階",
      "lat": 35.719547,
      "lng": 139.979156,
      "geocoding_level": null,
      "phone": "",
      "license_no": "",
      "license_date": null,
      "expire_date": null
    },
    {
      "name": "コーナン船橋花輪インター店",
      "name_kana": "コーナンフナバシハナワインターテン",
      "business_type": "⑪ 百貨店、総合スーパー",
      "address": "千葉県船橋市宮本9丁目5番15号",
      "lat": 35.688525,
      "lng": 139.999008,
      "geocoding_level": null,
      "phone": "047-432-6801",
      "license_no": "",
      "license_date": null,
      "expire_date": null
    },
    {
      "name": "コーナン京葉船橋インター店",
      "name_kana": "コーナンケイヨウフナバシインターテン",
      "business_type": "⑪ 百貨店、総合スーパー",
      "address": "千葉県船橋市海神町3-124-3",
      "lat": 35.697908,
      "lng": 139.975335,
      "geocoding_level": null,
      "phone": "047-495-5700",
      "license_no": "",
      "license_date": null,
      "expire_date": null
    },
    {
      "name": "八幡餃子　二和向台店",
      "name_kana": "ハチマンギョウザ　フタワムコウダイテン",
      "business_type": "⑬ その他の食料・飲料販売業",
      "address": "千葉県船橋市二和東6丁目16-14",
      "lat": 35.75511,
      "lng": 140.022886,
      "geocoding_level": null,
      "phone": "0120-900-541",
      "license_no": "",
      "license_date": null,
      "expire_date": null
    },
    {
      "name": "グローアップ前原",
      "name_kana": "グローアップマエバラ",
      "business_type": "㉙ その他",
      "address": "千葉県船橋市前原東4丁目1-2 津田沼国際パレス1F",
      "lat": 35.697622,
      "lng": 140.025795,
      "geocoding_level": null,
      "phone": "0120-900-541",
      "license_no": "",
      "license_date": null,
      "expire_date": null
    },
    {
      "name": "にじいろ保育園薬円台",
      "name_kana": "ニジイロホイクエンヤクエンダイ",
      "business_type": "㉖ 集団給食施設",
      "address": "千葉県船橋市薬円台１丁目２４番１号",
      "lat": 35.707955,
      "lng": 140.043224,
      "geocoding_level": null,
      "phone": "047-402-4033",
      "license_no": "",
      "license_date": null,
      "expire_date": null
    },
    {
      "name": "飯塚海苔店",
      "name_kana": "イイヅカノリテン",
      "business_type": "㉒ 海藻製造・加工業",
      "address": "千葉県船橋市本町3-17-1",
      "lat": 35.695358,
      "lng": 139.989076,
      "geocoding_level": null,
      "phone": "",
      "license_no": "",
      "license_date": null,
      "expire_date": null
    },
    {
      "name": "飯塚海苔店第二工場",
      "name_kana": "イイヅカノリテンダイニコウジョウ",
      "business_type": "⑪ 菓子製造業",
      "address": "千葉県船橋市本町３－１９－１４",
      "lat": 35.6955,
      "lng": 139.989145,
      "geocoding_level": null,
      "phone": "047-422-3601",
      "license_no": "第03-1041号",
      "license_date": "2023-01-13",
      "expire_date": "2029-01-31"
    },
    {
      "name": "飯塚海苔店第一工場",
      "name_kana": "イイヅカノリテンダイイチコウジョウ",
      "business_type": "⑪ 菓子製造業",
      "address": "千葉県船橋市本町3丁目17-1",
      "lat": 35.695357,
      "lng": 139.989079,
      "geocoding_level": null,
      "phone": "047-422-3601",
      "license_no": "第05-46号",
      "license_date": "2024-01-31",
      "expire_date": "2030-01-31"
    },
    {
      "name": "千葉船橋サービスセンター",
      "name_kana": "チバフナバシサービスセンター",
      "business_type": "⑦ 野菜果物販売業",
      "address": "千葉県船橋市豊富町631-7",
      "lat": 35.76759,
      "lng": 140.072568,
      "geocoding_level": null,
      "phone": "047-490-6602",
      "license_no": "",
      "license_date": null,
      "expire_date": null
    },
    {
      "name": "株式会社クレア・ドール",
      "name_kana": "カブシキガイシャ　クレア・ドール",
      "business_type": "⑤ コップ式自動販売機（自動洗浄・屋内設置）",
      "address": "千葉県船橋市薬円台5－36－17",
      "lat": 35.710515,
      "lng": 140.045118,
      "geocoding_level": null,
      "phone": "0474630105",
      "license_no": "",
      "license_date": null,
      "expire_date": null
    },
    {
      "name": "千葉日石",
      "name_kana": "チバニッセキ",
      "business_type": "⑤ コップ式自動販売機（自動洗浄・屋内設置）",
      "address": "千葉県船橋市南本町11－11",
      "lat": 35.698164,
      "lng": 139.97776,
      "geocoding_level": null,
      "phone": "0474320051",
      "license_no": "",
      "license_date": null,
      "expire_date": null
    },
    {
      "name": "日本ペイント2F",
      "name_kana": "ニホンペイント",
      "business_type": "⑤ コップ式自動販売機（自動洗浄・屋内設置）",
      "address": "千葉県船橋市西浦3－7－1",
      "lat": 35.687283,
      "lng": 139.964447,
      "geocoding_level": null,
      "phone": "",
      "license_no": "",
      "license_date": null,
      "expire_date": null
    },
    {
      "name": "船橋興産",
      "name_kana": "フナバシコウサン",
      "business_type": "⑤ コップ式自動販売機（自動洗浄・屋内設置）",
      "address": "千葉県船橋市高瀬町31－2",
      "lat": 35.675433,
      "lng": 139.997017,
      "geocoding_level": null,
      "phone": "",
      "license_no": "",
      "license_date": null,
      "expire_date": null
    },
    {
      "name": "サッポロビール千葉工場",
      "name_kana": "サッポロビールチバコウジョウ",
      "business_type": "⑤ コップ式自動販売機（自動洗浄・屋内設置）",
      "address": "千葉県船橋市高瀬町2",
      "lat": 35.667924,
      "lng": 139.992824,
      "geocoding_level": null,
      "phone": "",
      "license_no": "",
      "license_date": null,
      "expire_date": null
    },
    {
      "name": "フォルテ船橋１Fホットスペース",
      "name_kana": "フォルテフナバシイチエフホットスペース",
      "business_type": "⑤ コップ式自動販売機（自動洗浄・屋内設置）",
      "address": "千葉県船橋市行田1-50-2",
      "lat": 35.719547,
      "lng": 139.979156,
      "geocoding_level": null,
      "phone": "047-406-6500",
      "license_no": "",
      "license_date": null,
      "expire_date": null
    },
    {
      "name": "一蔵　ららぽーと船橋店",
      "name_kana": "イチクラ　ララポートフナバシテン",
      "business_type": "⑤ コップ式自動販売機（自動洗浄・屋内設置）",
      "address": "千葉県船橋市浜町2-1-1 ららぽーと三井ビルヂング９階",
      "lat": 35.68732,
      "lng": 139.987793,
      "geocoding_level": null,
      "phone": "",
      "license_no": "",
      "license_date": null,
      "expire_date": null
    },
    {
      "name": "小さな森の家船橋三山",
      "name_kana": "チイサナモリノイエフナバシミヤマ",
      "business_type": "⑤ コップ式自動販売機（自動洗浄・屋内設置）",
      "address": "千葉県船橋市三山6－41－26",
      "lat": 35.698603,
      "lng": 140.057032,
      "geocoding_level": null,
      "phone": "",
      "license_no": "",
      "license_date": null,
      "expire_date": null
    },
    {
      "name": "ベルク船橋藤原店",
      "name_kana": "ベルクフナバシフジワラテン",
      "business_type": "⑤ コップ式自動販売機（自動洗浄・屋内設置）",
      "address": "千葉県船橋市藤原5-6-1",
      "lat": 35.739983,
      "lng": 139.978515,
      "geocoding_level": null,
      "phone": "047-438-7010",
      "license_no": "",
      "license_date": null,
      "expire_date": null
    },
    {
      "name": "金宝堂　柏高柳店",
      "name_kana": "キンポウドウ　カシワタカヤナギテン",
      "business_type": "⑤ コップ式自動販売機（自動洗浄・屋内設置）",
      "address": "千葉県船橋市藤原1142-7",
      "lat": 35.741308,
      "lng": 139.976431,
      "geocoding_level": null,
      "phone": "070-4459-4507",
      "license_no": "",
      "license_date": null,
      "expire_date": null
    },
    {
      "name": "ムラック",
      "name_kana": "ムラック",
      "business_type": "⑤ コップ式自動販売機（自動洗浄・屋内設置）",
      "address": "千葉県船橋市高瀬町62－1",
      "lat": 35.674076,
      "lng": 139.996612,
      "geocoding_level": null,
      "phone": "",
      "license_no": "",
      "license_date": null,
      "expire_date": null
    },
    {
      "name": "快活CLUB　FiT24　船橋習志野店",
      "name_kana": "カイカツクラブ　フナバシナラシノ",
      "business_type": "⑫ 自動販売機による販売業（コップ式自動販売機（自動洗浄・屋内設置）及び営業許可の対象となる自動販売機を除く）",
      "address": "千葉県船橋市習志野4丁目6-3",
      "lat": 35.7014,
      "lng": 140.058696,
      "geocoding_level": null,
      "phone": "0459052330",
      "license_no": "",
      "license_date": null,
      "expire_date": null
    },
    {
      "name": "FIT PLACE 24 津田沼",
      "name_kana": "フィットプレイスニジュウヨンツダヌマ",
      "business_type": "⑫ 自動販売機による販売業（コップ式自動販売機（自動洗浄・屋内設置）及び営業許可の対象となる自動販売機を除く）",
      "address": "千葉県船橋市前原西5-7-14",
      "lat": 35.697493,
      "lng": 140.023377,
      "geocoding_level": null,
      "phone": "",
      "license_no": "",
      "license_date": null,
      "expire_date": null
    },
    {
      "name": "FASTGYM24　船橋市場",
      "name_kana": "ファストジムニジュウヨンフナバシイチバ",
      "business_type": "⑫ 自動販売機による販売業（コップ式自動販売機（自動洗浄・屋内設置）及び営業許可の対象となる自動販売機を除く）",
      "address": "千葉県船橋市市場3-15-5 2階",
      "lat": 35.704492,
      "lng": 139.995509,
      "geocoding_level": null,
      "phone": "",
      "license_no": "",
      "license_date": null,
      "expire_date": null
    },
    {
      "name": "ジムスタイル24　前原",
      "name_kana": "ジムスタイルニジュウヨンマエバラ",
      "business_type": "⑫ 自動販売機による販売業（コップ式自動販売機（自動洗浄・屋内設置）及び営業許可の対象となる自動販売機を除く）",
      "address": "千葉県船橋市前原東4丁目18-5 1階",
      "lat": 35.700784,
      "lng": 140.02835,
      "geocoding_level": null,
      "phone": "",
      "license_no": "",
      "license_date": null,
      "expire_date": null
    },
    {
      "name": "船橋旭こども園",
      "name_kana": "フナバシアサヒコドモエン",
      "business_type": "㉖ 集団給食施設",
      "address": "千葉県船橋市夏見台5-7-13",
      "lat": 35.730533,
      "lng": 139.992806,
      "geocoding_level": null,
      "phone": "0474390010",
      "license_no": "",
      "license_date": null,
      "expire_date": null
    },
    {
      "name": "丸山旭保育園",
      "name_kana": "マルヤマアサヒホイクエン",
      "business_type": "㉖ 集団給食施設",
      "address": "千葉県船橋市丸山5-33-25",
      "lat": 35.743108,
      "lng": 139.993585,
      "geocoding_level": null,
      "phone": "0474383383",
      "license_no": "",
      "license_date": null,
      "expire_date": null
    },
    {
      "name": "サニーライフ船橋",
      "name_kana": "サニーライフフナバシ",
      "business_type": "㉖ 集団給食施設",
      "address": "千葉県船橋市前原西４－２１－１７",
      "lat": 35.697778,
      "lng": 140.016759,
      "geocoding_level": null,
      "phone": "047-403-3600",
      "license_no": "",
      "license_date": null,
      "expire_date": null
    },
    {
      "name": "イオンモール船橋",
      "name_kana": "イオンモールフナバシ",
      "business_type": "⑬ その他の食料・飲料販売業",
      "address": "千葉県船橋市山手1-1-8",
      "lat": 35.711455,
      "lng": 139.978715,
      "geocoding_level": null,
      "phone": "",
      "license_no": "",
      "license_date": null,
      "expire_date": null
    },
    {
      "name": "ふなばし工房",
      "name_kana": "フナバシ　コウボウ",
      "business_type": "① 飲食店営業",
      "address": "千葉県船橋市金堀町432-2",
      "lat": 35.753995,
      "lng": 140.061913,
      "geocoding_level": null,
      "phone": "047-457-8600",
      "license_no": "第04-723号",
      "license_date": "2023-03-10",
      "expire_date": "2029-03-31"
    },
    {
      "name": "ふなばし工房",
      "name_kana": "フナバシ　コウボウ",
      "business_type": "⑪ 菓子製造業",
      "address": "千葉県船橋市金堀町432-2",
      "lat": 35.753995,
      "lng": 140.061913,
      "geocoding_level": null,
      "phone": "047-457-8600",
      "license_no": "第04-43号",
      "license_date": "2023-03-10",
      "expire_date": "2029-03-31"
    },
    {
      "name": "ふなばし工房",
      "name_kana": "フナバシ　コウボウ",
      "business_type": "㉙ 漬物製造業",
      "address": "千葉県船橋市金堀町432-2",
      "lat": 35.753995,
      "lng": 140.061913,
      "geocoding_level": null,
      "phone": "047-457-8600",
      "license_no": "第03-1002号",
      "license_date": "2021-11-12",
      "expire_date": "2027-11-30"
    },
    {
      "name": "ふなばし工房",
      "name_kana": "フナバシ　コウボウ",
      "business_type": "⑦ 野菜果物販売業",
      "address": "千葉県船橋市金堀町432-2",
      "lat": 35.753995,
      "lng": 140.061913,
      "geocoding_level": null,
      "phone": "047-457-8600",
      "license_no": "",
      "license_date": null,
      "expire_date": null
    },
    {
      "name": "Hatch Coffee Roasters",
      "name_kana": "ハッチコーヒーロースタリー",
      "business_type": "⑬ その他の食料・飲料販売業",
      "address": "千葉県船橋市三山8-24-12",
      "lat": 35.698107,
      "lng": 140.05717,
      "geocoding_level": null,
      "phone": "0477677728",
      "license_no": "",
      "license_date": null,
      "expire_date": null
    },
    {
      "name": "Hatch Coffee Roasters",
      "name_kana": "ハッチコーヒーロースタリー",
      "business_type": "⑯ コーヒー製造・加工業（飲料の製造を除く。）",
      "address": "千葉県船橋市三山8-24-12",
      "lat": 35.698107,
      "lng": 140.05717,
      "geocoding_level": null,
      "phone": "0477677728",
      "license_no": "",
      "license_date": null,
      "expire_date": null
    },
    {
      "name": "Hatch Coffee Roastery",
      "name_kana": "ハッチコーヒーロースタリー",
      "business_type": "① 飲食店営業",
      "address": "千葉県船橋市三山8-24-12",
      "lat": 35.698107,
      "lng": 140.05717,
      "geocoding_level": null,
      "phone": "0477677728",
      "license_no": "第05-478号",
      "license_date": "2023-11-07",
      "expire_date": "2029-11-30"
    },
    {
      "name": "キッチンオリジン　東船橋店",
      "name_kana": "キッチンオリジンヒガシフナバシテン",
      "business_type": "① 飲食店営業",
      "address": "千葉県船橋市東船橋4丁目31番3号",
      "lat": 35.699237,
      "lng": 140.004926,
      "geocoding_level": null,
      "phone": "047-460-3068",
      "license_no": "第04-614号",
      "license_date": "2023-02-10",
      "expire_date": "2030-02-28"
    },
    {
      "name": "キッチンオリジン　東船橋店",
      "name_kana": "キッチンオリジンヒガシフナバシテン",
      "business_type": "⑬ その他の食料・飲料販売業",
      "address": "千葉県船橋市東船橋4丁目31番3号",
      "lat": 35.699237,
      "lng": 140.004926,
      "geocoding_level": null,
      "phone": "047-460-3068",
      "license_no": "",
      "license_date": null,
      "expire_date": null
    },
    {
      "name": "キッチンオリジン　津田沼店",
      "name_kana": "キッチンオリジンツダヌマテン",
      "business_type": "① 飲食店営業",
      "address": "千葉県船橋市前原西２丁目33番8号　東京パイプ津田沼ビル１Ｆ",
      "lat": 35.69353,
      "lng": 140.022867,
      "geocoding_level": null,
      "phone": "047-403-3355",
      "license_no": "第06-519号",
      "license_date": "2025-01-17",
      "expire_date": "2031-01-31"
    },
    {
      "name": "キッチンオリジン　津田沼店",
      "name_kana": "キッチンオリジンツダヌマテン",
      "business_type": "⑬ その他の食料・飲料販売業",
      "address": "千葉県船橋市前原西２丁目33番8号　東京パイプ津田沼ビル１Ｆ",
      "lat": 35.658052,
      "lng": 139.757564,
      "geocoding_level": null,
      "phone": "047-403-3355",
      "license_no": "",
      "license_date": null,
      "expire_date": null
    },
    {
      "name": "キッチンオリジン　薬園台店",
      "name_kana": "キッチンオリジン　ヤクエンダイテン",
      "business_type": "① 飲食店営業",
      "address": "千葉県船橋市滝台町107番地11",
      "lat": 35.710278,
      "lng": 140.037026,
      "geocoding_level": null,
      "phone": "047-402-5581",
      "license_no": "第03-1573号",
      "license_date": "2022-03-08",
      "expire_date": "2029-03-31"
    },
    {
      "name": "キッチンオリジン　薬園台店",
      "name_kana": "キッチンオリジンヤクエンダイテン",
      "business_type": "⑬ その他の食料・飲料販売業",
      "address": "千葉県船橋市滝台町107番地11",
      "lat": 35.710278,
      "lng": 140.037026,
      "geocoding_level": null,
      "phone": "047-402-5581",
      "license_no": "",
      "license_date": null,
      "expire_date": null
    },
    {
      "name": "キッチンオリジン　原木中山店",
      "name_kana": "キッチンオリジンバラキナカヤマテン",
      "business_type": "① 飲食店営業",
      "address": "千葉県船橋市本中山7丁目5番6号　山野貸店舗",
      "lat": 35.702202,
      "lng": 139.942052,
      "geocoding_level": null,
      "phone": "047-320-1061",
      "license_no": "第06-518号",
      "license_date": "2025-01-24",
      "expire_date": "2032-01-31"
    },
    {
      "name": "キッチンオリジン　原木中山店",
      "name_kana": "キッチンオリジンバラキナカヤマテン",
      "business_type": "⑬ その他の食料・飲料販売業",
      "address": "千葉県船橋市本中山7丁目5番6号　山野貸店舗",
      "lat": 35.702202,
      "lng": 139.942052,
      "geocoding_level": null,
      "phone": "047-320-1061",
      "license_no": "",
      "license_date": null,
      "expire_date": null
    },
    {
      "name": "オリジン弁当　マックスバリュ習志野台店",
      "name_kana": "オリジンベントウマックスバリュナラシノダイ",
      "business_type": "⑬ その他の食料・飲料販売業",
      "address": "千葉県船橋市習志野台5丁目39番1号",
      "lat": 35.717002,
      "lng": 140.054307,
      "geocoding_level": null,
      "phone": "047-496-5560",
      "license_no": "",
      "license_date": null,
      "expire_date": null
    },
    {
      "name": "オリジンデリカ　フードスクエアカスミ咲が丘店",
      "name_kana": "オリジンデリカカスミフナバシサキガオカテン",
      "business_type": "⑬ その他の食料・飲料販売業",
      "address": "千葉県船橋市咲が丘３丁目29番1号",
      "lat": 35.756174,
      "lng": 140.024988,
      "geocoding_level": null,
      "phone": "047-404-1295",
      "license_no": "",
      "license_date": null,
      "expire_date": null
    },
    {
      "name": "オリジンデリカ　フードスクエアカスミ高根台店",
      "name_kana": "オリジンデリカフードスクエアカスミタカネダイテン",
      "business_type": "① 飲食店営業",
      "address": "千葉県船橋市高根台1丁目2番5号",
      "lat": 35.730453,
      "lng": 140.03147,
      "geocoding_level": null,
      "phone": "047-402-3962",
      "license_no": "第05-192号",
      "license_date": "2023-07-14",
      "expire_date": "2029-07-31"
    },
    {
      "name": "オリジンデリカ　フードスクエアカスミ高根台店",
      "name_kana": "オリジンデリカフードスクエアカスミタカネダイテン",
      "business_type": "⑬ その他の食料・飲料販売業",
      "address": "千葉県船橋市高根台1丁目2番5号",
      "lat": 35.730453,
      "lng": 140.03147,
      "geocoding_level": null,
      "phone": "047-402-3962",
      "license_no": "",
      "license_date": null,
      "expire_date": null
    },
    {
      "name": "キッチンオリジン　船橋店",
      "name_kana": "キッチンオリジンフナバシテン",
      "business_type": "① 飲食店営業",
      "address": "千葉県船橋市本町3丁目36番29号",
      "lat": 35.696738,
      "lng": 139.985629,
      "geocoding_level": null,
      "phone": "047-460-0701",
      "license_no": "第04-569号",
      "license_date": "2023-01-13",
      "expire_date": "2030-01-31"
    },
    {
      "name": "キッチンオリジン　船橋店",
      "name_kana": "キッチンオリジンフナバシテン",
      "business_type": "⑬ その他の食料・飲料販売業",
      "address": "千葉県船橋市本町3丁目36番29号",
      "lat": 35.696738,
      "lng": 139.985629,
      "geocoding_level": null,
      "phone": "047-460-0701",
      "license_no": "",
      "license_date": null,
      "expire_date": null
    },
    {
      "name": "オリジンデリカ　フードスクエアカスミ咲が丘店",
      "name_kana": "オリジンデリカフードスクエアカスミサキガオカテン",
      "business_type": "① 飲食店営業",
      "address": "千葉県船橋市咲が丘３丁目29番1号",
      "lat": 35.756174,
      "lng": 140.024988,
      "geocoding_level": null,
      "phone": "047-404-1295",
      "license_no": "第04-124号",
      "license_date": "2022-06-15",
      "expire_date": "2029-06-30"
    },
    {
      "name": "キッチンオリジン　馬込沢駅前店",
      "name_kana": "キッチンオリジンマゴメザワエキマエテン",
      "business_type": "① 飲食店営業",
      "address": "千葉県船橋市藤原7-2-1",
      "lat": 35.74221079,
      "lng": 139.9874687,
      "geocoding_level": 8,
      "phone": "047-497-8811",
      "license_no": "第07-374号",
      "license_date": "2025-09-24",
      "expire_date": "2031-09-30"
    },
    {
      "name": "キッチンオリジン　馬込沢駅前店",
      "name_kana": "キッチンオリジンマゴメザワエキマエテン",
      "business_type": "⑬ その他の食料・飲料販売業",
      "address": "千葉県船橋市藤原7-2-1",
      "lat": 35.741675,
      "lng": 139.992423,
      "geocoding_level": null,
      "phone": "047-497-8811",
      "license_no": "",
      "license_date": null,
      "expire_date": null
    },
    {
      "name": "スターバックスコーヒーイオンモール船橋店",
      "name_kana": "スターバックスコーヒーイオンモールフナバシテン",
      "business_type": "⑬ その他の食料・飲料販売業",
      "address": "千葉県船橋市山手1-1-8 イオンモール船橋 1F",
      "lat": 35.711455,
      "lng": 139.978715,
      "geocoding_level": null,
      "phone": "047-420-7520",
      "license_no": "",
      "license_date": null,
      "expire_date": null
    },
    {
      "name": "スターバックスコーヒーシャポー船橋本館店",
      "name_kana": "スターバックスコーヒーシャポーフナバシホンカンテン",
      "business_type": "⑬ その他の食料・飲料販売業",
      "address": "千葉県船橋市本町7-1-1 シャポー船橋本館1F",
      "lat": 35.701433,
      "lng": 139.986561,
      "geocoding_level": null,
      "phone": "047-460-3821",
      "license_no": "",
      "license_date": null,
      "expire_date": null
    },
    {
      "name": "スターバックスコーヒー  津田沼ビート店",
      "name_kana": "スターバックスコーヒー　ツダヌマビートテン",
      "business_type": "⑬ その他の食料・飲料販売業",
      "address": "千葉県船橋市前原西２－１９－１ Ｖｉｉｔ",
      "lat": 35.692362,
      "lng": 140.022134,
      "geocoding_level": null,
      "phone": "047-493-5700",
      "license_no": "",
      "license_date": null,
      "expire_date": null
    },
    {
      "name": "スターバックスコーヒー　シャポー船橋本館店",
      "name_kana": "スターバックスコーヒーシャポーフナバシホンカンテン",
      "business_type": "① 飲食店営業",
      "address": "千葉県船橋市本町７－１－１ シャポー船橋１Ｆ",
      "lat": 35.701433,
      "lng": 139.986561,
      "geocoding_level": null,
      "phone": "047-460-3821",
      "license_no": "第03-1333号",
      "license_date": "2021-11-10",
      "expire_date": "2027-11-30"
    },
    {
      "name": "スターバックスコーヒーシャポー船橋南館店",
      "name_kana": "スターバックスコーヒーシャポーフナバシミナミカンテン",
      "business_type": "⑬ その他の食料・飲料販売業",
      "address": "千葉県船橋市本町7-1-1 シャポー船橋南館2F",
      "lat": 35.701433,
      "lng": 139.986561,
      "geocoding_level": null,
      "phone": "047-421-4000",
      "license_no": "",
      "license_date": null,
      "expire_date": null
    },
    {
      "name": "スターバックスコーヒー西船橋メトロピア店",
      "name_kana": "スターバックスコーヒーニシフナバシメトロピアテン",
      "business_type": "⑬ その他の食料・飲料販売業",
      "address": "千葉県船橋市西船4-27-7 東京地下鉄東西線西船橋駅構内",
      "lat": 35.707969,
      "lng": 139.957699,
      "geocoding_level": null,
      "phone": "047-495-1661",
      "license_no": "",
      "license_date": null,
      "expire_date": null
    },
    {
      "name": "スターバックスコーヒーららぽーとTOKYO-BAY　南館店",
      "name_kana": "スターバックスコーヒーララポートトウキョウベイミナミカンテン",
      "business_type": "⑬ その他の食料・飲料販売業",
      "address": "千葉県船橋市浜町2-1-1 ららぽーとTOKYO-BAY南館2Ｆ",
      "lat": 35.687317,
      "lng": 139.987769,
      "geocoding_level": null,
      "phone": "047-437-7068",
      "license_no": "",
      "license_date": null,
      "expire_date": null
    },
    {
      "name": "スターバックスコーヒー船橋東武店",
      "name_kana": "スターバックスコーヒーフナバシトウブテン",
      "business_type": "① 飲食店営業",
      "address": "千葉県船橋市本町7ｰ1-1 東武百貨店船橋店2F",
      "lat": 35.701433,
      "lng": 139.986561,
      "geocoding_level": null,
      "phone": "047-409-5830",
      "license_no": "第04-300号",
      "license_date": "2022-09-16",
      "expire_date": "2028-09-30"
    },
    {
      "name": "スターバックスコーヒー船橋東武店",
      "name_kana": "スターバックスコーヒーフナバシトウブテン",
      "business_type": "⑬ その他の食料・飲料販売業",
      "address": "千葉県船橋市本町７－１－１ 東武百貨店船橋店２Ｆ",
      "lat": 35.701433,
      "lng": 139.986561,
      "geocoding_level": null,
      "phone": "047-409-5830",
      "license_no": "",
      "license_date": null,
      "expire_date": null
    },
    {
      "name": "スターバックスコーヒー　津田沼ビート店",
      "name_kana": "スターバックスコーヒーツダヌマビートテン",
      "business_type": "① 飲食店営業",
      "address": "千葉県船橋市前原西２－１９－１ Ｖｉｉｔ",
      "lat": 35.692362,
      "lng": 140.022134,
      "geocoding_level": null,
      "phone": "047-493-5700",
      "license_no": "第05-429号",
      "license_date": "2023-10-20",
      "expire_date": "2029-10-31"
    },
    {
      "name": "スターバックスコーヒー　イオンモール船橋店",
      "name_kana": "スターバックスコーヒーイオンモールフナバシテン",
      "business_type": "① 飲食店営業",
      "address": "千葉県船橋市山手１－１－８ イオンモール船橋１F",
      "lat": 35.711455,
      "lng": 139.978715,
      "geocoding_level": null,
      "phone": "047-420-7520",
      "license_no": "第06-38号",
      "license_date": "2024-04-24",
      "expire_date": "2030-04-30"
    },
    {
      "name": "スターバックスコーヒー　ららぽーとTOKYO-BAY　北館店",
      "name_kana": "スターバックスコーヒーララポートトウキョウベイ　キタカン",
      "business_type": "① 飲食店営業",
      "address": "千葉県船橋市浜町2-1-1 ららぽーとTOKYO－BAY  北館１階",
      "lat": 35.686139,
      "lng": 139.99124,
      "geocoding_level": null,
      "phone": "047-401-9533",
      "license_no": "第07-382号",
      "license_date": "2025-09-22",
      "expire_date": "2031-09-30"
    },
    {
      "name": "スターバックスコーヒー　ららぽーとTOKYO-BAY  北館店",
      "name_kana": "スターバックスコーヒーララポートトウキョウベイ  キタカン",
      "business_type": "⑬ その他の食料・飲料販売業",
      "address": "千葉県船橋市浜町2-1-1 ららぽーとTOKYO－BAY  北館１階  N１０２５０",
      "lat": 35.687317,
      "lng": 139.987769,
      "geocoding_level": null,
      "phone": "047-401-9533",
      "license_no": "",
      "license_date": null,
      "expire_date": null
    },
    {
      "name": "興和冷蔵株式会社　船橋工場",
      "name_kana": "コウワレイゾウカブシキガイシャ　フナバシコウジョウ",
      "business_type": "① 魚介類販売業（包装済みの魚介類のみの販売）",
      "address": "千葉県船橋市浜町3丁目1番5",
      "lat": 35.677807,
      "lng": 139.990626,
      "geocoding_level": null,
      "phone": "0474374081",
      "license_no": "",
      "license_date": null,
      "expire_date": null
    },
    {
      "name": "興和冷蔵株式会社　船橋工場",
      "name_kana": "コウワレイゾウカブシキガイシャ　フナバシコウジョウ",
      "business_type": "② 食肉販売業（包装済みの食肉のみの販売）",
      "address": "千葉県船橋市浜町3丁目1番5",
      "lat": 35.677807,
      "lng": 139.990626,
      "geocoding_level": null,
      "phone": "0474374081",
      "license_no": "",
      "license_date": null,
      "expire_date": null
    },
    {
      "name": "興和冷蔵株式会社　船橋工場",
      "name_kana": "コウワレイゾウカブシキガイシャ　フナバシコウジョウ",
      "business_type": "③ 乳類販売業",
      "address": "千葉県船橋市浜町3丁目1番5",
      "lat": 35.677807,
      "lng": 139.990626,
      "geocoding_level": null,
      "phone": "0474374081",
      "license_no": "",
      "license_date": null,
      "expire_date": null
    },
    {
      "name": "興和冷蔵株式会社　船橋工場",
      "name_kana": "コウワレイゾウカブシキガイシャ　フナバシコウジョウ",
      "business_type": "④ 氷雪販売業",
      "address": "千葉県船橋市浜町3丁目1番5",
      "lat": 35.677807,
      "lng": 139.990626,
      "geocoding_level": null,
      "phone": "0474374081",
      "license_no": "",
      "license_date": null,
      "expire_date": null
    },
    {
      "name": "興和冷蔵株式会社　船橋工場",
      "name_kana": "コウワレイゾウカブシキガイシャ　フナバシコウジョウ",
      "business_type": "⑦ 野菜果物販売業",
      "address": "千葉県船橋市浜町3丁目1番5",
      "lat": 35.677807,
      "lng": 139.990626,
      "geocoding_level": null,
      "phone": "0474374081",
      "license_no": "",
      "license_date": null,
      "expire_date": null
    },
    {
      "name": "興和冷蔵株式会社　船橋工場",
      "name_kana": "コウワレイゾウカブシキガイシャ　フナバシコウジョウ",
      "business_type": "⑧ 米穀類販売業",
      "address": "千葉県船橋市浜町3丁目1番5",
      "lat": 35.677807,
      "lng": 139.990626,
      "geocoding_level": null,
      "phone": "0474374081",
      "license_no": "",
      "license_date": null,
      "expire_date": null
    },
    {
      "name": "興和冷蔵株式会社　船橋工場",
      "name_kana": "コウワレイゾウカブシキガイシャ　フナバシコウジョウ",
      "business_type": "⑬ その他の食料・飲料販売業",
      "address": "千葉県船橋市浜町3丁目1番5",
      "lat": 35.677807,
      "lng": 139.990626,
      "geocoding_level": null,
      "phone": "0474374081",
      "license_no": "",
      "license_date": null,
      "expire_date": null
    },
    {
      "name": "Philocoffea201",
      "name_kana": "フィロコフィアニマルイチ",
      "business_type": "① 飲食店営業",
      "address": "千葉県船橋市本町2丁目２－１３ 滝口ビル２０１",
      "lat": 35.696854,
      "lng": 139.985108,
      "geocoding_level": null,
      "phone": "047-401-5950",
      "license_no": "第03-1077号",
      "license_date": "2021-07-13",
      "expire_date": "2027-07-31"
    },
    {
      "name": "Philocoffea シャポー船橋店",
      "name_kana": "フィロコフィア　シャポーフナバシテン",
      "business_type": "① 飲食店営業",
      "address": "千葉県船橋市本町７－１－１ シャポー船橋南館１F",
      "lat": 35.701433,
      "lng": 139.986561,
      "geocoding_level": null,
      "phone": "0474095655",
      "license_no": "第05-562号",
      "license_date": "2023-12-20",
      "expire_date": "2029-12-31"
    },
    {
      "name": "Philocoffea Roastery",
      "name_kana": "フィロコフィア ロースタリー",
      "business_type": "⑯ コーヒー製造・加工業（飲料の製造を除く。）",
      "address": "千葉県船橋市海神町南1-1544-1",
      "lat": 35.700997,
      "lng": 139.971106,
      "geocoding_level": null,
      "phone": "047-460-9400",
      "license_no": "",
      "license_date": null,
      "expire_date": null
    },
    {
      "name": "礎",
      "name_kana": "イシズエ",
      "business_type": "⑦ 野菜果物販売業",
      "address": "千葉県船橋市高根台6-1-12",
      "lat": 35.728213,
      "lng": 140.032639,
      "geocoding_level": null,
      "phone": "0474615516",
      "license_no": "",
      "license_date": null,
      "expire_date": null
    },
    {
      "name": "にじいろ",
      "name_kana": "ニジイロ",
      "business_type": "① 飲食店営業",
      "address": "千葉県船橋市新高根5-25-12",
      "lat": 35.73052397,
      "lng": 140.0274163,
      "geocoding_level": 8,
      "phone": "0474622572",
      "license_no": "第06-596号",
      "license_date": "2025-01-29",
      "expire_date": "2031-01-31"
    },
    {
      "name": "にじいろ",
      "name_kana": "ニジイロ",
      "business_type": "⑪ 菓子製造業",
      "address": "千葉県船橋市新高根5-25-12",
      "lat": 35.73052397,
      "lng": 140.0274163,
      "geocoding_level": 8,
      "phone": "0474622572",
      "license_no": "第06-39号",
      "license_date": "2025-01-29",
      "expire_date": "2031-01-31"
    },
    {
      "name": "そらいろ",
      "name_kana": "ソライロ",
      "business_type": "① 飲食店営業",
      "address": "千葉県船橋市新高根4-18-1",
      "lat": 35.729676000000005,
      "lng": 140.025063,
      "geocoding_level": 3,
      "phone": "047-462-2572",
      "license_no": "第06-770号",
      "license_date": "2025-03-31",
      "expire_date": "2032-03-31"
    },
    {
      "name": "そらいろ",
      "name_kana": "ソライロ",
      "business_type": "⑪ 菓子製造業",
      "address": "千葉県船橋市新高根4-18-1",
      "lat": 35.729676000000005,
      "lng": 140.025063,
      "geocoding_level": 3,
      "phone": "047-462-2572",
      "license_no": "第06-56号",
      "license_date": "2025-03-31",
      "expire_date": "2032-03-31"
    },
    {
      "name": "そらいろ",
      "name_kana": "ソライロ",
      "business_type": "㉕ そうざい製造業",
      "address": "千葉県船橋市新高根4-18-1",
      "lat": 35.729676000000005,
      "lng": 140.025063,
      "geocoding_level": 3,
      "phone": "047-462-2572",
      "license_no": "第06-17号",
      "license_date": "2025-03-31",
      "expire_date": "2032-03-31"
    },
    {
      "name": "朋和産業株式会社　習志野工場",
      "name_kana": "ホウワサンギョウカブシキガイシャ　ナラシノコウジョウ",
      "business_type": "㉗ 器具、容器包装の製造・加工業（合成樹脂が使用された器具又は容器包装の製造、加工に限る。）",
      "address": "千葉県船橋市習志野4-11-10",
      "lat": 35.706574,
      "lng": 140.060087,
      "geocoding_level": null,
      "phone": "0474764111",
      "license_no": "",
      "license_date": null,
      "expire_date": null
    },
    {
      "name": "元氣七輪焼肉  牛繁　津田沼店",
      "name_kana": "ゲンキシチリンヤキニクギュウシゲツダヌマテン",
      "business_type": "① 飲食店営業",
      "address": "千葉県船橋市前原西２丁目１５番 あずまビル１F",
      "lat": 35.692484,
      "lng": 140.020449,
      "geocoding_level": null,
      "phone": "0474555129",
      "license_no": "第03-1308号",
      "license_date": "2021-10-28",
      "expire_date": "2027-10-31"
    },
    {
      "name": "元氣七輪焼肉　牛繁船橋店",
      "name_kana": "ゲンキシチリンヤキニクギュウシゲフナバシテン",
      "business_type": "① 飲食店営業",
      "address": "千葉県船橋市本町４－４３－９",
      "lat": 35.699022,
      "lng": 139.987419,
      "geocoding_level": null,
      "phone": "047-460-6360",
      "license_no": "第06-26号",
      "license_date": "2024-04-23",
      "expire_date": "2030-04-30"
    },
    {
      "name": "シンシア船橋",
      "name_kana": "シンシアフナバシ",
      "business_type": "① 飲食店営業",
      "address": "千葉県船橋市小室町３０６０番地１",
      "lat": 35.793194,
      "lng": 140.071298,
      "geocoding_level": null,
      "phone": "070-5079-2391",
      "license_no": "第03-1683号",
      "license_date": "2022-04-20",
      "expire_date": "2029-04-30"
    },
    {
      "name": "銀座ライオンＬＥＯネクスト船橋店",
      "name_kana": "ギンザライオンレオネクストフナバシテン",
      "business_type": "① 飲食店営業",
      "address": "千葉県船橋市本町一丁目5番1号 ネクスト船橋1階",
      "lat": 35.700103,
      "lng": 139.985532,
      "geocoding_level": null,
      "phone": "047-401-2500",
      "license_no": "第04-29号",
      "license_date": "2022-06-17",
      "expire_date": "2029-06-30"
    },
    {
      "name": "サッポロビール千葉ビール園",
      "name_kana": "サッポロビールチバビールエン",
      "business_type": "① 飲食店営業",
      "address": "千葉県船橋市高瀬町2番地 サッポロビール千葉工場内",
      "lat": 35.666251,
      "lng": 139.992525,
      "geocoding_level": null,
      "phone": "047-436-4388",
      "license_no": "第07-182号",
      "license_date": "2025-07-01",
      "expire_date": "2032-07-31"
    },
    {
      "name": "RF1",
      "name_kana": "アールエフワン",
      "business_type": "① 飲食店営業",
      "address": "千葉県船橋市本町7丁目1番1号 東武百貨店B１",
      "lat": 35.701433,
      "lng": 139.986561,
      "geocoding_level": null,
      "phone": "047-426-3867",
      "license_no": "第03-1246号",
      "license_date": "2021-09-30",
      "expire_date": "2027-09-30"
    },
    {
      "name": "東武船橋　神戸コロッケ",
      "name_kana": "トウブフナバシコウベコロッケ",
      "business_type": "① 飲食店営業",
      "address": "千葉県船橋市本町７－１－１ 東武百貨店　船橋店Ｂ１",
      "lat": 35.70595,
      "lng": 139.98338,
      "geocoding_level": 3,
      "phone": "047-422-9610",
      "license_no": "第06-429号",
      "license_date": "2024-10-22",
      "expire_date": "2031-10-31"
    },
    {
      "name": "千葉県ヤクルト販売㈱ヤクルト法典センター",
      "name_kana": "チバケンヤクルトハンバイカブシキガイシャヤクルトホウテンセンター",
      "business_type": "⑬ その他の食料・飲料販売業",
      "address": "千葉県船橋市藤原1-27-27",
      "lat": 35.731643,
      "lng": 139.965708,
      "geocoding_level": null,
      "phone": "047-338-9866",
      "license_no": "",
      "license_date": null,
      "expire_date": null
    },
    {
      "name": "千葉県ヤクルト販売㈱ヤクルト夏見センター",
      "name_kana": "チバケンヤクルトハンバイカブシキガイシャヤクルトナツミセンター",
      "business_type": "⑬ その他の食料・飲料販売業",
      "address": "千葉県船橋市夏見4-35-12",
      "lat": 35.716653,
      "lng": 139.991888,
      "geocoding_level": null,
      "phone": "047-407-0960",
      "license_no": "",
      "license_date": null,
      "expire_date": null
    },
    {
      "name": "千葉県ヤクルト販売㈱ヤクルト行田センター",
      "name_kana": "チバケンヤクルトハンバイカブシキガイシャヤクルトギョウダセンター",
      "business_type": "⑬ その他の食料・飲料販売業",
      "address": "千葉県船橋市西船2-26-4",
      "lat": 35.714491,
      "lng": 139.971281,
      "geocoding_level": null,
      "phone": "047-432-5013",
      "license_no": "",
      "license_date": null,
      "expire_date": null
    },
    {
      "name": "千葉県ヤクルト販売㈱ヤクルト新船橋センター",
      "name_kana": "チバケンヤクルトハンバイカブシキガイシャヤクルトシンフナバシセンター",
      "business_type": "③ 乳類販売業",
      "address": "千葉県船橋市宮本2-2-35",
      "lat": 35.695807,
      "lng": 139.990929,
      "geocoding_level": null,
      "phone": "047-423-7495",
      "license_no": "",
      "license_date": null,
      "expire_date": null
    },
    {
      "name": "千葉県ヤクルト販売㈱ヤクルト新船橋センター",
      "name_kana": "チバケンヤクルトハンバイカブシキガイシャヤクルトシンフナバシセンター",
      "business_type": "⑬ その他の食料・飲料販売業",
      "address": "千葉県船橋市宮本2-2-35",
      "lat": 35.695807,
      "lng": 139.990929,
      "geocoding_level": null,
      "phone": "047-423-7495",
      "license_no": "",
      "license_date": null,
      "expire_date": null
    },
    {
      "name": "千葉県ヤクルト販売㈱ヤクルト津田沼センター",
      "name_kana": "チバケンヤクルトハンバイカブシキガイシャヤクルトツダヌマセンター",
      "business_type": "③ 乳類販売業",
      "address": "千葉県船橋市前原西1-1-24",
      "lat": 35.695797,
      "lng": 140.009445,
      "geocoding_level": null,
      "phone": "047-409-8960",
      "license_no": "",
      "license_date": null,
      "expire_date": null
    },
    {
      "name": "千葉県ヤクルト販売㈱ヤクルト津田沼センター",
      "name_kana": "チバケンヤクルトハンバイカブシキガイシャヤクルトツダヌマセンター",
      "business_type": "⑬ その他の食料・飲料販売業",
      "address": "千葉県船橋市前原西1-1-24",
      "lat": 35.695797,
      "lng": 140.009445,
      "geocoding_level": null,
      "phone": "047-409-8960",
      "license_no": "",
      "license_date": null,
      "expire_date": null
    },
    {
      "name": "千葉県ヤクルト販売㈱ヤクルト習志野台センター",
      "name_kana": "チバケンヤクルトハンバイカブシキガイシャヤクルトナラシノダイセンター",
      "business_type": "③ 乳類販売業",
      "address": "千葉県船橋市習志野台4-77-4",
      "lat": 35.713534,
      "lng": 140.051163,
      "geocoding_level": null,
      "phone": "047-467-6637",
      "license_no": "",
      "license_date": null,
      "expire_date": null
    },
    {
      "name": "千葉県ヤクルト販売㈱ヤクルト習志野台センター",
      "name_kana": "チバケンヤクルトハンバイカブシキガイシャヤクルトナラシノダイセンター",
      "business_type": "⑬ その他の食料・飲料販売業",
      "address": "千葉県船橋市習志野台4-77-4",
      "lat": 35.713534,
      "lng": 140.051163,
      "geocoding_level": null,
      "phone": "047-467-6637",
      "license_no": "",
      "license_date": null,
      "expire_date": null
    },
    {
      "name": "千葉県ヤクルト販売㈱ヤクルト薬円台センター",
      "name_kana": "チバケンヤクルトハンバイカブシキガイシャヤクルトヤクエンダイセンター",
      "business_type": "③ 乳類販売業",
      "address": "千葉県船橋市飯山満町3-1559-1",
      "lat": 35.712694,
      "lng": 140.033745,
      "geocoding_level": null,
      "phone": "047-467-0238",
      "license_no": "",
      "license_date": null,
      "expire_date": null
    },
    {
      "name": "千葉県ヤクルト販売㈱ヤクルト薬円台センター",
      "name_kana": "チバケンヤクルトハンバイカブシキガイシャヤクルトヤクエンダイセンター",
      "business_type": "⑬ その他の食料・飲料販売業",
      "address": "千葉県船橋市飯山満町3-1559-1",
      "lat": 35.712694,
      "lng": 140.033745,
      "geocoding_level": null,
      "phone": "047-467-0238",
      "license_no": "",
      "license_date": null,
      "expire_date": null
    },
    {
      "name": "千葉県ヤクルト販売㈱ヤクルト金杉センター",
      "name_kana": "チバケンヤクルトハンバイカブシキガイシャヤクルトカナスギセンター",
      "business_type": "③ 乳類販売業",
      "address": "千葉県船橋市南三咲1-25-58",
      "lat": 35.735286,
      "lng": 140.023323,
      "geocoding_level": null,
      "phone": "047-447-8003",
      "license_no": "",
      "license_date": null,
      "expire_date": null
    },
    {
      "name": "千葉県ヤクルト販売㈱ヤクルト金杉センター",
      "name_kana": "チバケンヤクルトハンバイカブシキガイシャヤクルトカナスギセンター",
      "business_type": "⑬ その他の食料・飲料販売業",
      "address": "千葉県船橋市南三咲1-25-58",
      "lat": 35.735286,
      "lng": 140.023323,
      "geocoding_level": null,
      "phone": "047-447-8003",
      "license_no": "",
      "license_date": null,
      "expire_date": null
    },
    {
      "name": "千葉県ヤクルト販売㈱ヤクルト松が丘センター",
      "name_kana": "チバケンヤクルトハンバイカブシキガイシャヤクルトマツガオカセンター",
      "business_type": "③ 乳類販売業",
      "address": "千葉県船橋市松が丘3-72-24",
      "lat": 35.737504,
      "lng": 140.050988,
      "geocoding_level": null,
      "phone": "047-464-1815",
      "license_no": "",
      "license_date": null,
      "expire_date": null
    },
    {
      "name": "千葉県ヤクルト販売㈱ヤクルト松が丘センター",
      "name_kana": "チバケンヤクルトハンバイカブシキガイシャヤクルトマツガオカセンター",
      "business_type": "⑬ その他の食料・飲料販売業",
      "address": "千葉県船橋市松が丘3-72-24",
      "lat": 35.737504,
      "lng": 140.050988,
      "geocoding_level": null,
      "phone": "047-464-1815",
      "license_no": "",
      "license_date": null,
      "expire_date": null
    },
    {
      "name": "千葉県ヤクルト販売㈱ヤクルト三咲センター",
      "name_kana": "チバケンヤクルトハンバイカブシキガイシャヤクルトミサキセンター",
      "business_type": "⑬ その他の食料・飲料販売業",
      "address": "千葉県船橋市みやぎ台1-1-24",
      "lat": 35.754855,
      "lng": 140.029875,
      "geocoding_level": null,
      "phone": "047-407-8610",
      "license_no": "",
      "license_date": null,
      "expire_date": null
    },
    {
      "name": "粉もんや　うどん粉",
      "name_kana": "コナモンヤ　ウドンコ",
      "business_type": "① 飲食店営業",
      "address": "千葉県船橋市本中山2-22-13-203 プラザレジデンス中山",
      "lat": 35.715458,
      "lng": 139.942236,
      "geocoding_level": null,
      "phone": "0473216970",
      "license_no": "第06-532号",
      "license_date": "2024-12-04",
      "expire_date": "2030-12-31"
    },
    {
      "name": "ヤオコー　船橋三咲店　(惣菜厨房)",
      "name_kana": "ヤオコー　フナバシミサキテン　ソウザイチュウボウ",
      "business_type": "① 飲食店営業",
      "address": "千葉県船橋市三咲5-33-1",
      "lat": 35.748111,
      "lng": 140.029112,
      "geocoding_level": null,
      "phone": "047-440-3811",
      "license_no": "第03-1052号",
      "license_date": "2021-06-25",
      "expire_date": "2028-06-30"
    },
    {
      "name": "ヤオコー　船橋三咲店",
      "name_kana": "ヤオコー　フナバシミサキテン",
      "business_type": "⑪ 百貨店、総合スーパー",
      "address": "千葉県船橋市三咲５－３３－１",
      "lat": 35.748111,
      "lng": 140.029112,
      "geocoding_level": null,
      "phone": "047-440-3811",
      "license_no": "",
      "license_date": null,
      "expire_date": null
    },
    {
      "name": "ヤオコー　船橋三咲店",
      "name_kana": "ヤオコー　フナバシミサキテン",
      "business_type": "⑫ 自動販売機による販売業（コップ式自動販売機（自動洗浄・屋内設置）及び営業許可の対象となる自動販売機を除く）",
      "address": "千葉県船橋市三咲５－３３－１",
      "lat": 35.748111,
      "lng": 140.029112,
      "geocoding_level": null,
      "phone": "047-440-3811",
      "license_no": "",
      "license_date": null,
      "expire_date": null
    },
    {
      "name": "ヤオコー　船橋三山店",
      "name_kana": "ヤオコー　フナバシミヤマテン",
      "business_type": "⑪ 百貨店、総合スーパー",
      "address": "千葉県船橋市三山8丁目22番1号",
      "lat": 35.697387,
      "lng": 140.05668,
      "geocoding_level": null,
      "phone": "047-455-7811",
      "license_no": "",
      "license_date": null,
      "expire_date": null
    },
    {
      "name": "ヤオコー　船橋三山店",
      "name_kana": "ヤオコー　フナバシミヤマテン",
      "business_type": "⑫ 自動販売機による販売業（コップ式自動販売機（自動洗浄・屋内設置）及び営業許可の対象となる自動販売機を除く）",
      "address": "千葉県船橋市三山8丁目22番1号",
      "lat": 35.697387,
      "lng": 140.05668,
      "geocoding_level": null,
      "phone": "047-455-7811",
      "license_no": "",
      "license_date": null,
      "expire_date": null
    },
    {
      "name": "ヤオコー　船橋三咲店　(鮮魚)",
      "name_kana": "ヤオコー　フナバシミサキテン　センギョ",
      "business_type": "④ 魚介類販売業",
      "address": "千葉県船橋市三咲5丁目33番1号",
      "lat": 35.748111,
      "lng": 140.029112,
      "geocoding_level": null,
      "phone": "047-440-3811",
      "license_no": "第05-5号",
      "license_date": "2023-07-07",
      "expire_date": "2030-07-31"
    },
    {
      "name": "ヤオコー　船橋三山店　(精肉)",
      "name_kana": "ヤオコー　フナバシミヤマテン　セイニク",
      "business_type": "① 飲食店営業",
      "address": "千葉県船橋市三山8丁目22番1号",
      "lat": 35.69698,
      "lng": 140.058108,
      "geocoding_level": 3,
      "phone": "047-455-7811",
      "license_no": "第07-142号",
      "license_date": "2025-06-19",
      "expire_date": "2032-06-30"
    },
    {
      "name": "ヤオコー　船橋三山店　(精肉)",
      "name_kana": "ヤオコー　フナバシミヤマテン　セイニク",
      "business_type": "③ 食肉販売業",
      "address": "千葉県船橋市三山8丁目22番1号",
      "lat": 35.69698,
      "lng": 140.058108,
      "geocoding_level": 3,
      "phone": "047-455-7811",
      "license_no": "第07-2号",
      "license_date": "2025-06-19",
      "expire_date": "2032-06-30"
    },
    {
      "name": "ヤオコー　船橋三山店　(鮮魚)",
      "name_kana": "ヤオコー　フナバシミヤマテン　センギョ",
      "business_type": "④ 魚介類販売業",
      "address": "千葉県船橋市三山8丁目22番1号",
      "lat": 35.69698,
      "lng": 140.058108,
      "geocoding_level": 3,
      "phone": "047-455-7811",
      "license_no": "第07-4号",
      "license_date": "2025-06-19",
      "expire_date": "2032-06-30"
    },
    {
      "name": "ヤオコー　船橋三山店　(寿司)",
      "name_kana": "ヤオコー　フナバシミヤマテン　スシ",
      "business_type": "① 飲食店営業",
      "address": "千葉県船橋市三山8丁目22番1号",
      "lat": 35.69698,
      "lng": 140.058108,
      "geocoding_level": 3,
      "phone": "047-455-7811",
      "license_no": "第07-145号",
      "license_date": "2025-06-19",
      "expire_date": "2032-06-30"
    },
    {
      "name": "ヤオコー　船橋三山店　(惣菜)",
      "name_kana": "ヤオコー　フナバシミヤマテン　ソウザイ",
      "business_type": "① 飲食店営業",
      "address": "千葉県船橋市三山8丁目22番1号",
      "lat": 35.69698,
      "lng": 140.058108,
      "geocoding_level": 3,
      "phone": "047-455-7811",
      "license_no": "第07-143号",
      "license_date": "2025-06-19",
      "expire_date": "2032-06-30"
    },
    {
      "name": "ヤオコー　船橋三山店　(惣菜厨房)",
      "name_kana": "ヤオコー　フナバシミヤマテン　ソウザイチュウボウ",
      "business_type": "① 飲食店営業",
      "address": "千葉県船橋市三山8丁目22番1号",
      "lat": 35.697387,
      "lng": 140.05668,
      "geocoding_level": null,
      "phone": "047-455-7811",
      "license_no": "第07-144号",
      "license_date": "2025-06-19",
      "expire_date": "2032-06-30"
    },
    {
      "name": "ヤオコー　船橋三山店　(ベーカリー)",
      "name_kana": "ヤオコー　フナバシミヤマテン　ベーカリー",
      "business_type": "⑪ 菓子製造業",
      "address": "千葉県船橋市三山8丁目22番1号",
      "lat": 35.69698,
      "lng": 140.058108,
      "geocoding_level": 3,
      "phone": "047-455-7811",
      "license_no": "第07-4号",
      "license_date": "2025-06-19",
      "expire_date": "2032-06-30"
    },
    {
      "name": "ANYTIME FITNESS原木中山店",
      "name_kana": "エニタイムフィットネスバラキナカヤマテン",
      "business_type": "⑫ 自動販売機による販売業（コップ式自動販売機（自動洗浄・屋内設置）及び営業許可の対象となる自動販売機を除く）",
      "address": "千葉県船橋市本中山7-22-6-1F",
      "lat": 35.70222,
      "lng": 139.941195,
      "geocoding_level": null,
      "phone": "0473696061",
      "license_no": "",
      "license_date": null,
      "expire_date": null
    },
    {
      "name": "ANYTIME FITNESS船橋二和東店",
      "name_kana": "エニタイムフィットネスフナバシフタワヒガシテン",
      "business_type": "⑫ 自動販売機による販売業（コップ式自動販売機（自動洗浄・屋内設置）及び営業許可の対象となる自動販売機を除く）",
      "address": "千葉県船橋市二和東6-24-12",
      "lat": 35.755494,
      "lng": 140.025561,
      "geocoding_level": null,
      "phone": "047-401-9195",
      "license_no": "",
      "license_date": null,
      "expire_date": null
    },
    {
      "name": "ANYTIME FITNESS西習志野店",
      "name_kana": "エニタイムフィットネスニシナラシノテン",
      "business_type": "⑫ 自動販売機による販売業（コップ式自動販売機（自動洗浄・屋内設置）及び営業許可の対象となる自動販売機を除く）",
      "address": "千葉県船橋市西習志野1丁目1−1 2F",
      "lat": 35.72339,
      "lng": 140.03545,
      "geocoding_level": null,
      "phone": "",
      "license_no": "",
      "license_date": null,
      "expire_date": null
    },
    {
      "name": "スーパーベルクス　西船橋店",
      "name_kana": "スーパーベルクス　ニシフナバシテン",
      "business_type": "⑪ 百貨店、総合スーパー",
      "address": "千葉県船橋市山野町90",
      "lat": 35.705123,
      "lng": 139.961606,
      "geocoding_level": null,
      "phone": "047-495-8719",
      "license_no": "",
      "license_date": null,
      "expire_date": null
    },
    {
      "name": "ベルクス西船橋店",
      "name_kana": "ベルクスニシフナバシテン",
      "business_type": "㉙ 漬物製造業",
      "address": "千葉県船橋市山野町90",
      "lat": 35.705123,
      "lng": 139.961606,
      "geocoding_level": null,
      "phone": "047-495-8719",
      "license_no": "第05-1号",
      "license_date": "2023-04-18",
      "expire_date": "2030-04-30"
    },
    {
      "name": "太陽の子塚田保育園",
      "name_kana": "タイヨウノコツカダホイクエン",
      "business_type": "㉖ 集団給食施設",
      "address": "千葉県船橋市行田町352-5",
      "lat": 35.72333,
      "lng": 139.981187,
      "geocoding_level": null,
      "phone": "047-406-6006",
      "license_no": "",
      "license_date": null,
      "expire_date": null
    },
    {
      "name": "太陽の子　船橋三咲保育園",
      "name_kana": "タイヨウノコフナバシミサキホイクエン",
      "business_type": "㉖ 集団給食施設",
      "address": "千葉県船橋市南三咲1-20-10",
      "lat": 35.736059,
      "lng": 140.023874,
      "geocoding_level": null,
      "phone": "047-440-6585",
      "license_no": "",
      "license_date": null,
      "expire_date": null
    },
    {
      "name": "有限会社藤井商店",
      "name_kana": "ユウゲンカイシャフジイショウテン",
      "business_type": "⑧ 米穀類販売業",
      "address": "千葉県船橋市本中山2丁目1-24",
      "lat": 35.714472,
      "lng": 139.947964,
      "geocoding_level": null,
      "phone": "0473345005",
      "license_no": "",
      "license_date": null,
      "expire_date": null
    },
    {
      "name": "ベイシア津田沼店",
      "name_kana": "ベイシアツダヌマテン",
      "business_type": "① 飲食店営業",
      "address": "千葉県船橋市前原西２－１９－１ 津田沼ビート地下一階",
      "lat": 35.692362,
      "lng": 140.022134,
      "geocoding_level": null,
      "phone": "047-471-3111",
      "license_no": "第05-370号",
      "license_date": "2023-10-18",
      "expire_date": "2030-10-31"
    },
    {
      "name": "ベイシア津田沼店",
      "name_kana": "ベイシアツダヌマテン",
      "business_type": "③ 食肉販売業",
      "address": "千葉県船橋市前原西２－１９－１ 津田沼ビート地下一階",
      "lat": 35.692362,
      "lng": 140.022134,
      "geocoding_level": null,
      "phone": "047-471-3111",
      "license_no": "第05-9号",
      "license_date": "2023-10-18",
      "expire_date": "2030-10-31"
    },
    {
      "name": "ベイシア津田沼店",
      "name_kana": "ベイシアツダヌマテン",
      "business_type": "⑪ 菓子製造業",
      "address": "千葉県船橋市前原西２－１９－１ 津田沼ビート地下一階",
      "lat": 35.692362,
      "lng": 140.022134,
      "geocoding_level": null,
      "phone": "047-471-3111",
      "license_no": "第05-29号",
      "license_date": "2023-10-18",
      "expire_date": "2030-10-31"
    },
    {
      "name": "ベイシア津田沼店",
      "name_kana": "ベイシアツダヌマテン",
      "business_type": "⑪ 百貨店、総合スーパー",
      "address": "千葉県船橋市前原西２－１９－１ 津田沼ビート地下一階",
      "lat": 35.692362,
      "lng": 140.022134,
      "geocoding_level": null,
      "phone": "",
      "license_no": "",
      "license_date": null,
      "expire_date": null
    },
    {
      "name": "ベイシア津田沼店",
      "name_kana": "ベイシアツダヌマテン",
      "business_type": "① 飲食店営業",
      "address": "千葉県船橋市前原西２－１９－１ 津田沼ビート地下地下一階",
      "lat": 35.692362,
      "lng": 140.022134,
      "geocoding_level": null,
      "phone": "047-471-3111",
      "license_no": "第05‐371号",
      "license_date": "2023-10-18",
      "expire_date": "2030-10-31"
    },
    {
      "name": "果汁工房果琳　ららぽーとTOKYO-BAY店",
      "name_kana": "カジュウコウボウカリン　ララポートトウキョウベイテン",
      "business_type": "① 飲食店営業",
      "address": "千葉県船橋市浜町2丁目1番1号 ららぽーとTOKYO-BAY　西館　1階",
      "lat": 35.687317,
      "lng": 139.987769,
      "geocoding_level": null,
      "phone": "047-421-7848",
      "license_no": "第04‐653号",
      "license_date": "2023-02-13",
      "expire_date": "2030-02-28"
    },
    {
      "name": "ワインショップ・エノテカ 船橋東武店",
      "name_kana": "ワインショップ・エノテカ フナバシトウブテン",
      "business_type": "⑬ その他の食料・飲料販売業",
      "address": "千葉県船橋市本町7丁目1番1号 東武百貨店船橋店 地下1階",
      "lat": 35.702449,
      "lng": 139.98447,
      "geocoding_level": null,
      "phone": "0474568737",
      "license_no": "",
      "license_date": null,
      "expire_date": null
    },
    {
      "name": "ワインショップ・エノテカ　船橋東武店",
      "name_kana": "ワインショップ・エノテカフナバシトウブテン",
      "business_type": "① 飲食店営業",
      "address": "千葉県船橋市本町7丁目1番1号 東武百貨店船橋店　地下1階",
      "lat": 35.701433,
      "lng": 139.986591,
      "geocoding_level": null,
      "phone": "047-456-8737",
      "license_no": "第05-775号",
      "license_date": "2024-03-29",
      "expire_date": "2030-03-31"
    },
    {
      "name": "京葉帝酸株式会社",
      "name_kana": "ケイヨウテイサンカブシキガイシャ",
      "business_type": "⑭ 添加物製造・加工業（法第13 条第１項の規定により規格が定められた添加物の製造を除く。）",
      "address": "千葉県船橋市船橋市1-10-2",
      "lat": 35.701735,
      "lng": 139.985381,
      "geocoding_level": null,
      "phone": "0474225535",
      "license_no": "",
      "license_date": null,
      "expire_date": null
    },
    {
      "name": "サンドラッグ北習志野店",
      "name_kana": "サンドラッグキタナラシノテン",
      "business_type": "⑪ 百貨店、総合スーパー",
      "address": "千葉県船橋市習志野台２－６－１８ タイセイビル１Ｆ",
      "lat": 35.722253,
      "lng": 140.043494,
      "geocoding_level": null,
      "phone": "047-465-0996",
      "license_no": "",
      "license_date": null,
      "expire_date": null
    },
    {
      "name": "サンドラッグ東習志野店",
      "name_kana": "サンドラッグヒガシナラシノテン",
      "business_type": "⑪ 百貨店、総合スーパー",
      "address": "千葉県船橋市習志野５丁目２－１",
      "lat": 35.699973,
      "lng": 140.060152,
      "geocoding_level": null,
      "phone": "047-455-5571",
      "license_no": "",
      "license_date": null,
      "expire_date": null
    },
    {
      "name": "サンドラッグ藤原店",
      "name_kana": "サンドラッグフジワラテン",
      "business_type": "⑪ 百貨店、総合スーパー",
      "address": "千葉県船橋市藤原３－３６－１",
      "lat": 35.736801,
      "lng": 139.978905,
      "geocoding_level": null,
      "phone": "047-429-0311",
      "license_no": "",
      "license_date": null,
      "expire_date": null
    },
    {
      "name": "株式会社東洋食彩　習志野工場",
      "name_kana": "カブシキガイシャトウヨウショクサイ ナラシノコウジョウ",
      "business_type": "㉖ 複合型そうざい製造業",
      "address": "千葉県船橋市習志野4-10-4",
      "lat": 35.70602,
      "lng": 140.060607,
      "geocoding_level": null,
      "phone": "047-470-8510",
      "license_no": "第03-1002号",
      "license_date": "2021-09-14",
      "expire_date": "2028-09-30"
    },
    {
      "name": "リブレ京成　高根グリーンハイツ店",
      "name_kana": "リブレケイセイ　タカネグリーンハイツテン",
      "business_type": "① 飲食店営業",
      "address": "千葉県船橋市緑台2-6-13",
      "lat": 35.728521,
      "lng": 140.016841,
      "geocoding_level": null,
      "phone": "047-448-5407",
      "license_no": "第04-638号",
      "license_date": "2023-01-27",
      "expire_date": "2029-01-31"
    },
    {
      "name": "リブレ京成　高根グリーンハイツ店",
      "name_kana": "リブレケイセイ　タカネグリーンハイツテン",
      "business_type": "④ 魚介類販売業",
      "address": "千葉県船橋市緑台2-6-13",
      "lat": 35.728521,
      "lng": 140.016841,
      "geocoding_level": null,
      "phone": "047-448-5407",
      "license_no": "第04-28号",
      "license_date": "2023-01-27",
      "expire_date": "2029-01-31"
    },
    {
      "name": "ドラックストア　マツモトキヨシ船橋前原店",
      "name_kana": "ドラックストアマツモトキヨシフナバシマエバラテン",
      "business_type": "⑬ その他の食料・飲料販売業",
      "address": "千葉県船橋市前原西８－２４－１",
      "lat": 35.703176,
      "lng": 140.026314,
      "geocoding_level": null,
      "phone": "",
      "license_no": "",
      "license_date": null,
      "expire_date": null
    },
    {
      "name": "株式会社マルエツ　スマートプチ船橋流通センター店",
      "name_kana": "カブシキガイシャマルエツ　スマートプチフナバシリュウツウセンターテン",
      "business_type": "⑬ その他の食料・飲料販売業",
      "address": "千葉県船橋市日の出２－１６－３　1階",
      "lat": 35.684296,
      "lng": 139.97683,
      "geocoding_level": null,
      "phone": "047-437-3401",
      "license_no": "",
      "license_date": null,
      "expire_date": null
    },
    {
      "name": "株式会社マルエツ　下総中山店",
      "name_kana": "カブシキガイシャマルエツシモウサナカヤマテン",
      "business_type": "① 飲食店営業",
      "address": "千葉県船橋市本中山２－１０－１",
      "lat": 35.714338,
      "lng": 139.944087,
      "geocoding_level": null,
      "phone": "047-333-8884",
      "license_no": "第03-1380号",
      "license_date": "2021-11-17",
      "expire_date": "2028-11-30"
    },
    {
      "name": "株式会社マルエツ　下総中山店",
      "name_kana": "カブシキガイシャマルエツシモウサナカヤマテン",
      "business_type": "③ 食肉販売業",
      "address": "千葉県船橋市本中山２－１０－１",
      "lat": 35.714338,
      "lng": 139.944087,
      "geocoding_level": null,
      "phone": "047-333-8884",
      "license_no": "第03-1012号",
      "license_date": "2021-11-17",
      "expire_date": "2028-11-30"
    },
    {
      "name": "株式会社マルエツ　下総中山店",
      "name_kana": "カブシキガイシャマルエツシモウサナカヤマテン",
      "business_type": "④ 魚介類販売業",
      "address": "千葉県船橋市本中山２－１０－１",
      "lat": 35.714338,
      "lng": 139.944087,
      "geocoding_level": null,
      "phone": "047-333-8884",
      "license_no": "第03-1017号",
      "license_date": "2021-11-17",
      "expire_date": "2028-11-30"
    },
    {
      "name": "株式会社マルエツ　下総中山店",
      "name_kana": "カブシキガイシャマルエツシモウサナカヤマテン",
      "business_type": "⑪ 菓子製造業",
      "address": "千葉県船橋市本中山２－１０－１",
      "lat": 35.714338,
      "lng": 139.944087,
      "geocoding_level": null,
      "phone": "047-333-8884",
      "license_no": "第06-37号",
      "license_date": "2024-12-25",
      "expire_date": "2031-12-31"
    },
    {
      "name": "株式会社マルエツ習志野店",
      "name_kana": "カブシキガイシャマルエツナラシノテン",
      "business_type": "⑪ 百貨店、総合スーパー",
      "address": "千葉県船橋市習志野台4丁目2番13号102",
      "lat": 35.715342,
      "lng": 140.04372,
      "geocoding_level": null,
      "phone": "047-462-1321",
      "license_no": "",
      "license_date": null,
      "expire_date": null
    },
    {
      "name": "株式会社マルエツ高根台店",
      "name_kana": "カブシキガイシャマルエツタカネダイテン",
      "business_type": "⑪ 百貨店、総合スーパー",
      "address": "千葉県船橋市松が丘1丁目32番15号",
      "lat": 35.73551,
      "lng": 140.040719,
      "geocoding_level": null,
      "phone": "047-462-8051",
      "license_no": "",
      "license_date": null,
      "expire_date": null
    },
    {
      "name": "株式会社マルエツ二和向台店",
      "name_kana": "カブシキガイシャマルエツフタワムコウダイテン",
      "business_type": "⑪ 百貨店、総合スーパー",
      "address": "千葉県船橋市咲が丘3丁目1番22号",
      "lat": 35.756751,
      "lng": 140.022534,
      "geocoding_level": null,
      "phone": "047-447-2001",
      "license_no": "",
      "license_date": null,
      "expire_date": null
    },
    {
      "name": "株式会社　マルエツ　東習志野店",
      "name_kana": "カブシキガイシャマルエツヒガシナラシノテン",
      "business_type": "① 飲食店営業",
      "address": "千葉県船橋市習志野5丁目2番1号",
      "lat": 35.699973,
      "lng": 140.060152,
      "geocoding_level": null,
      "phone": "047-479-5793",
      "license_no": "第05-119号",
      "license_date": "2023-06-21",
      "expire_date": "2030-06-30"
    },
    {
      "name": "株式会社マルエツ東習志野店",
      "name_kana": "カブシキガイシャマルエツヒガシナラシノテン",
      "business_type": "⑪ 百貨店、総合スーパー",
      "address": "千葉県船橋市習志野5丁目2番1号",
      "lat": 35.699973,
      "lng": 140.060152,
      "geocoding_level": null,
      "phone": "047-479-5793",
      "license_no": "",
      "license_date": null,
      "expire_date": null
    },
    {
      "name": "株式会社マルエツ金杉店",
      "name_kana": "カブシキガイシャマルエツカナスギテン",
      "business_type": "⑪ 百貨店、総合スーパー",
      "address": "千葉県船橋市金杉7丁目5番1号",
      "lat": 35.735408,
      "lng": 140.01801,
      "geocoding_level": null,
      "phone": "047-449-6251",
      "license_no": "",
      "license_date": null,
      "expire_date": null
    },
    {
      "name": "株式会社マルエツ下総中山店",
      "name_kana": "カブシキガイシャマルエツシモウサナカヤマテン",
      "business_type": "⑪ 百貨店、総合スーパー",
      "address": "千葉県船橋市本中山2丁目10番1号",
      "lat": 35.714338,
      "lng": 139.944087,
      "geocoding_level": null,
      "phone": "047-333-8884",
      "license_no": "",
      "license_date": null,
      "expire_date": null
    },
    {
      "name": "株式会社マルエツ東中山店",
      "name_kana": "カブシキガイシャマルエツヒガシナカヤマテン",
      "business_type": "⑪ 百貨店、総合スーパー",
      "address": "千葉県船橋市東中山1丁目24番11号",
      "lat": 35.711297,
      "lng": 139.950576,
      "geocoding_level": null,
      "phone": "047-332-2761",
      "license_no": "",
      "license_date": null,
      "expire_date": null
    },
    {
      "name": "マルエツ船橋三山店",
      "name_kana": "マルエツフナバシミヤマテン",
      "business_type": "⑪ 百貨店、総合スーパー",
      "address": "千葉県船橋市三山9丁目9番31号",
      "lat": 35.695803,
      "lng": 140.061611,
      "geocoding_level": null,
      "phone": "047-403-1120",
      "license_no": "",
      "license_date": null,
      "expire_date": null
    },
    {
      "name": "株式会社マルエツ　スマートプチムラック店",
      "name_kana": "カブシキガイシャマルエツ　スマートプチムラックテン",
      "business_type": "⑬ その他の食料・飲料販売業",
      "address": "千葉県船橋市高瀬町62-1",
      "lat": 35.674085,
      "lng": 139.996617,
      "geocoding_level": null,
      "phone": "",
      "license_no": "",
      "license_date": null,
      "expire_date": null
    },
    {
      "name": "株式会社　マルエツ　東習志野店",
      "name_kana": "カブシキガイシャマルエツヒガシナラシノテン",
      "business_type": "① 飲食店営業",
      "address": "千葉県船橋市習志野5丁目2番1号",
      "lat": 35.699973,
      "lng": 140.060152,
      "geocoding_level": null,
      "phone": "047-479-5793",
      "license_no": "第05-173号",
      "license_date": "2023-06-21",
      "expire_date": "2030-06-30"
    },
    {
      "name": "株式会社　マルエツ習志野店",
      "name_kana": "マルエツナラシノテン",
      "business_type": "① 飲食店営業",
      "address": "千葉県船橋市習志野台４－２－１３",
      "lat": 35.715342,
      "lng": 140.04372,
      "geocoding_level": null,
      "phone": "047-462-1321",
      "license_no": "第05-380号",
      "license_date": "2023-10-26",
      "expire_date": "2029-10-31"
    },
    {
      "name": "株式会社　マルエツ　東習志野店",
      "name_kana": "マルエツヒガシナラシノテン",
      "business_type": "① 飲食店営業",
      "address": "千葉県船橋市習志野５－２－１",
      "lat": 35.699973,
      "lng": 140.060152,
      "geocoding_level": null,
      "phone": "047-479-5793",
      "license_no": "第05-435号",
      "license_date": "2023-10-26",
      "expire_date": "2030-10-31"
    },
    {
      "name": "株式会社マルエツ二和向台店",
      "name_kana": "カブシキガイシャマルエツフタワムコウダイテン",
      "business_type": "① 飲食店営業",
      "address": "千葉県船橋市咲が丘３－１－２２",
      "lat": 35.756751,
      "lng": 140.022534,
      "geocoding_level": null,
      "phone": "047-447-2001",
      "license_no": "第06-93号",
      "license_date": "2024-05-29",
      "expire_date": "2030-05-31"
    },
    {
      "name": "株式会社　マルエツ　東習志野店",
      "name_kana": "カブシキガイシャマルエツヒガシナラシノテン",
      "business_type": "① 飲食店営業",
      "address": "千葉県船橋市習志野５－２－１",
      "lat": 35.699973,
      "lng": 140.060152,
      "geocoding_level": null,
      "phone": "047-479-5793",
      "license_no": "第06-342号",
      "license_date": "2024-09-04",
      "expire_date": "2031-09-30"
    },
    {
      "name": "株式会社　マルエツ　東習志野店",
      "name_kana": "カブシキガイシャマルエツヒガシナラシノテン",
      "business_type": "③ 食肉販売業",
      "address": "千葉県船橋市習志野５－２－１",
      "lat": 35.699973,
      "lng": 140.060152,
      "geocoding_level": null,
      "phone": "047-479-5793",
      "license_no": "第06-9号",
      "license_date": "2024-09-04",
      "expire_date": "2031-09-30"
    },
    {
      "name": "株式会社　マルエツ　東習志野店",
      "name_kana": "カブシキガイシャマルエツヒガシナラシノテン",
      "business_type": "④ 魚介類販売業",
      "address": "千葉県船橋市習志野５－２－１",
      "lat": 35.699973,
      "lng": 140.060152,
      "geocoding_level": null,
      "phone": "047-479-5793",
      "license_no": "第06-9号",
      "license_date": "2024-09-04",
      "expire_date": "2031-09-30"
    },
    {
      "name": "株式会社　マルエツ　東習志野店",
      "name_kana": "カブシキガイシャマルエツ　ヒガシナラシノテン",
      "business_type": "⑪ 菓子製造業",
      "address": "千葉県船橋市習志野5-2-1",
      "lat": 35.699973,
      "lng": 140.060152,
      "geocoding_level": null,
      "phone": "047-479-5793",
      "license_no": "第06-57号",
      "license_date": "2025-04-18",
      "expire_date": "2032-04-30"
    },
    {
      "name": "株式会社　マルエツ　東習志野店　ドムドム",
      "name_kana": "カブシキガイシャマルエツ　ヒガシナラシノテン　ドムドム",
      "business_type": "① 飲食店営業",
      "address": "千葉県船橋市習志野5-2-1",
      "lat": 35.699973,
      "lng": 140.060152,
      "geocoding_level": null,
      "phone": "047-479-5793",
      "license_no": "第06-778号",
      "license_date": "2025-04-18",
      "expire_date": "2032-04-30"
    },
    {
      "name": "株式会社マルエツ二和向台店",
      "name_kana": "カブシキガイシャマルエツフタワムコウダイテン",
      "business_type": "③ 食肉販売業",
      "address": "千葉県船橋市咲が丘３丁目１番２２号",
      "lat": 35.756735,
      "lng": 140.022552,
      "geocoding_level": null,
      "phone": "047-447-2001",
      "license_no": "第08-2号",
      "license_date": "2026-04-28",
      "expire_date": "2033-04-30"
    },
    {
      "name": "株式会社マルエツ　二和向台店",
      "name_kana": "カブシキガイシャマルエツフタワムコウダイテン",
      "business_type": "④ 魚介類販売業",
      "address": "千葉県船橋市咲が丘３丁目１番２２号",
      "lat": 35.756735,
      "lng": 140.022552,
      "geocoding_level": null,
      "phone": "047-447-2001",
      "license_no": "第08-1号",
      "license_date": "2026-04-28",
      "expire_date": "2033-04-30"
    },
    {
      "name": "イオンモール船橋店　催事　谷中福丸饅頭",
      "name_kana": "イオンモールフナバシテン　サイジ　ヤナカフクマルマンジュウ",
      "business_type": "⑬ その他の食料・飲料販売業",
      "address": "千葉県船橋市山手1-1-8",
      "lat": 35.711455,
      "lng": 139.978715,
      "geocoding_level": null,
      "phone": "",
      "license_no": "",
      "license_date": null,
      "expire_date": null
    },
    {
      "name": "有限会社丸夏石井商店",
      "name_kana": "ユウゲンカイシャマルナツイシイショウテン",
      "business_type": "⑧ 米穀類販売業",
      "address": "千葉県船橋市三咲町１４４番地３",
      "lat": 35.757679,
      "lng": 140.040124,
      "geocoding_level": null,
      "phone": "0474473794",
      "license_no": "",
      "license_date": null,
      "expire_date": null
    },
    {
      "name": "サンベルクス西船橋店",
      "name_kana": "サンベルクスニシフナバシテン",
      "business_type": "⑫ 自動販売機による販売業（コップ式自動販売機（自動洗浄・屋内設置）及び営業許可の対象となる自動販売機を除く）",
      "address": "千葉県船橋市山野町90番",
      "lat": 35.705167,
      "lng": 139.961619,
      "geocoding_level": null,
      "phone": "047-495-8719",
      "license_no": "",
      "license_date": null,
      "expire_date": null
    },
    {
      "name": "せんどば船橋店",
      "name_kana": "センドバフナバシテン",
      "business_type": "⑪ 百貨店、総合スーパー",
      "address": "千葉県船橋市宮本9丁目5-15",
      "lat": 35.688525,
      "lng": 139.999008,
      "geocoding_level": null,
      "phone": "042-352-1310",
      "license_no": "",
      "license_date": null,
      "expire_date": null
    },
    {
      "name": "ヤックスドラッグ船橋習志野店",
      "name_kana": "ヤックスドラッグフナバシナラシノテン",
      "business_type": "⑪ 百貨店、総合スーパー",
      "address": "千葉県船橋市西習志野4-20-10",
      "lat": 35.715846,
      "lng": 140.042283,
      "geocoding_level": null,
      "phone": "0474657103",
      "license_no": "",
      "license_date": null,
      "expire_date": null
    },
    {
      "name": "株式会社　金庄",
      "name_kana": "カブシキガイシャカネショウ",
      "business_type": "㉛ 食品の小分け業",
      "address": "千葉県船橋市東船橋4-27-5",
      "lat": 35.69863091,
      "lng": 140.0055791,
      "geocoding_level": 8,
      "phone": "",
      "license_no": "第07-2号",
      "license_date": "2025-07-25",
      "expire_date": "2031-07-31"
    },
    {
      "name": "オーケー株式会社船橋競馬場店",
      "name_kana": "オーケーカブシキガイシャフナバシケイバジョウテン",
      "business_type": "⑪ 百貨店、総合スーパー",
      "address": "千葉県船橋市若松1丁目2番30号",
      "lat": 35.68738,
      "lng": 139.996998,
      "geocoding_level": null,
      "phone": "0474042553",
      "license_no": "",
      "license_date": null,
      "expire_date": null
    },
    {
      "name": "オーケー海神南店（惣菜・寿司作業室）",
      "name_kana": "オーケーカイジンミナミテンソウザイスシサギョウシツ",
      "business_type": "① 飲食店営業",
      "address": "千葉県船橋市海神町南１－１５６１－１",
      "lat": 35.699866,
      "lng": 139.970986,
      "geocoding_level": null,
      "phone": "047-401-7744",
      "license_no": "第05-66号",
      "license_date": "2023-06-02",
      "expire_date": "2030-06-30"
    },
    {
      "name": "オーケー海神南店",
      "name_kana": "オーケーカイジンミナミテン",
      "business_type": "⑪ 百貨店、総合スーパー",
      "address": "千葉県船橋市海神町南１－１５６１－１",
      "lat": 35.699866,
      "lng": 139.970986,
      "geocoding_level": null,
      "phone": "047-401-7744",
      "license_no": "",
      "license_date": null,
      "expire_date": null
    },
    {
      "name": "オーケー海神南店（精肉作業室）",
      "name_kana": "オーケーカイジンミナミテンセイニクサギョウシツ",
      "business_type": "③ 食肉販売業",
      "address": "千葉県船橋市海神町南１－１５６１－１",
      "lat": 35.699866,
      "lng": 139.970986,
      "geocoding_level": null,
      "phone": "047-401-7744",
      "license_no": "第05－2号",
      "license_date": "2023-06-02",
      "expire_date": "2030-06-30"
    },
    {
      "name": "オーケー海神南店（水産作業室）",
      "name_kana": "オーケーカイジンミナミテンスイサンサギョウシツ",
      "business_type": "④ 魚介類販売業",
      "address": "千葉県船橋市海神町南１－１５６１－１",
      "lat": 35.699866,
      "lng": 139.970986,
      "geocoding_level": null,
      "phone": "047-401-7744",
      "license_no": "第05-2号",
      "license_date": "2023-06-02",
      "expire_date": "2030-06-30"
    },
    {
      "name": "オーケー海神南店（ベーカリー作業室）",
      "name_kana": "オーケーカイジンミナミテンベーカリーサギョウシツ",
      "business_type": "⑪ 菓子製造業",
      "address": "千葉県船橋市海神町南１－１５６１－１",
      "lat": 35.699866,
      "lng": 139.970986,
      "geocoding_level": null,
      "phone": "047-401-7744",
      "license_no": "第05-7号",
      "license_date": "2023-06-02",
      "expire_date": "2030-06-30"
    },
    {
      "name": "オーケー海神南店（サンドイッチ兼ローストビーフカット作業室）",
      "name_kana": "オーケーカイジンミナミテンサンドイッチケンローストビーフカットサギョウシツ",
      "business_type": "① 飲食店営業",
      "address": "千葉県船橋市海神町南１－１５６１－１",
      "lat": 35.699866,
      "lng": 139.970986,
      "geocoding_level": null,
      "phone": "047-401-7744",
      "license_no": "第05-67号",
      "license_date": "2023-06-02",
      "expire_date": "2030-06-30"
    },
    {
      "name": "スギドラッグ　船橋本町店",
      "name_kana": "スギドラッグ　フナバシホンチョウテン",
      "business_type": "③ 乳類販売業",
      "address": "千葉県船橋市本町二丁目1番30号 船橋104号ビル1階",
      "lat": 35.698118,
      "lng": 139.984807,
      "geocoding_level": null,
      "phone": "047-468-8061",
      "license_no": "",
      "license_date": null,
      "expire_date": null
    },
    {
      "name": "スギドラッグ  津田沼駅北店",
      "name_kana": "スギドラッグ  ツダヌマエキキタテン",
      "business_type": "⑬ その他の食料・飲料販売業",
      "address": "千葉県船橋市前原西二丁目38番10号",
      "lat": 35.694096,
      "lng": 140.020983,
      "geocoding_level": null,
      "phone": "047-409-8861",
      "license_no": "",
      "license_date": null,
      "expire_date": null
    },
    {
      "name": "スギ薬局  船橋藤原店",
      "name_kana": "スギヤッキョク  フナバシフジワラテン",
      "business_type": "⑬ その他の食料・飲料販売業",
      "address": "千葉県船橋市藤原一丁目3番30号",
      "lat": 35.729025,
      "lng": 139.962551,
      "geocoding_level": null,
      "phone": "047-712-0900",
      "license_no": "",
      "license_date": null,
      "expire_date": null
    },
    {
      "name": "スギドラッグ  船橋駅南店",
      "name_kana": "スギドラッグ  フナバシエキミナミテン",
      "business_type": "⑬ その他の食料・飲料販売業",
      "address": "千葉県船橋市本町四丁目41番25号 ステージ船橋　1階",
      "lat": 35.698696,
      "lng": 139.986199,
      "geocoding_level": null,
      "phone": "047-409-7862",
      "license_no": "",
      "license_date": null,
      "expire_date": null
    },
    {
      "name": "スギ薬局  西船橋駅前店",
      "name_kana": "スギヤッキョク  ニシフナハシエキマエテン",
      "business_type": "⑪ 百貨店、総合スーパー",
      "address": "千葉県船橋市葛飾町2丁目351番地",
      "lat": 35.707396,
      "lng": 139.957062,
      "geocoding_level": null,
      "phone": "047-420-1521",
      "license_no": "",
      "license_date": null,
      "expire_date": null
    },
    {
      "name": "スギ薬局  津田沼店",
      "name_kana": "スギヤッキョク ツダヌマテン",
      "business_type": "⑪ 百貨店、総合スーパー",
      "address": "千葉県船橋市前原東二丁目23番1号",
      "lat": 35.698913,
      "lng": 140.031019,
      "geocoding_level": null,
      "phone": "047-403-3921",
      "license_no": "",
      "license_date": null,
      "expire_date": null
    },
    {
      "name": "ミアヘルサ保育園ひびき新船橋北",
      "name_kana": "ミアヘルサホイクエンヒビキシンフナバシキタ",
      "business_type": "㉖ 集団給食施設",
      "address": "千葉県船橋市山手1-1-11",
      "lat": 35.713191,
      "lng": 139.980005,
      "geocoding_level": null,
      "phone": "047-498-9370",
      "license_no": "",
      "license_date": null,
      "expire_date": null
    },
    {
      "name": "ミアヘルサ保育園ひびき新船橋",
      "name_kana": "ミアヘルサホイクエンヒビキシンフナバシ",
      "business_type": "㉖ 集団給食施設",
      "address": "千葉県船橋市海神3丁目26-30",
      "lat": 35.709653,
      "lng": 139.979295,
      "geocoding_level": null,
      "phone": "047-401-3875",
      "license_no": "",
      "license_date": null,
      "expire_date": null
    },
    {
      "name": "スイーツマニア",
      "name_kana": "スイーツマニア",
      "business_type": "⑬ その他の食料・飲料販売業",
      "address": "千葉県船橋市山手１丁目1-8",
      "lat": 35.712585,
      "lng": 139.978117,
      "geocoding_level": null,
      "phone": "",
      "license_no": "",
      "license_date": null,
      "expire_date": null
    },
    {
      "name": "有限会社清水屋商店",
      "name_kana": "ユウゲンガイシャシミズヤショウテン",
      "business_type": "⑧ 米穀類販売業",
      "address": "千葉県船橋市宮本５丁目１番５号",
      "lat": 35.695359,
      "lng": 139.992283,
      "geocoding_level": null,
      "phone": "",
      "license_no": "",
      "license_date": null,
      "expire_date": null
    },
    {
      "name": "有限会社斉藤米店",
      "name_kana": "ユウゲンガイシャサイトウコメテン",
      "business_type": "⑧ 米穀類販売業",
      "address": "千葉県船橋市大穴北7-27-1",
      "lat": 35.748075,
      "lng": 140.056293,
      "geocoding_level": null,
      "phone": "0474571203",
      "license_no": "",
      "license_date": null,
      "expire_date": null
    },
    {
      "name": "株式会社　ウインファーム",
      "name_kana": "カブシキガイシャ　ウインファーム",
      "business_type": "㉙ その他",
      "address": "千葉県船橋市高瀬町62－2",
      "lat": 35.674733,
      "lng": 139.999413,
      "geocoding_level": null,
      "phone": "047-435-0700",
      "license_no": "",
      "license_date": null,
      "expire_date": null
    },
    {
      "name": "船橋市場営業所",
      "name_kana": "フナバシイチバエイギョウショ",
      "business_type": "㉙ その他",
      "address": "千葉県船橋市市場1－8－1",
      "lat": 35.703948,
      "lng": 139.994733,
      "geocoding_level": null,
      "phone": "0474231663",
      "license_no": "",
      "license_date": null,
      "expire_date": null
    },
    {
      "name": "有限会社文山紙工",
      "name_kana": "ユウゲンガイシャフミヤマシコウ",
      "business_type": "㉗ 器具、容器包装の製造・加工業（合成樹脂が使用された器具又は容器包装の製造、加工に限る。）",
      "address": "千葉県船橋市神保町182-9",
      "lat": 35.764685,
      "lng": 140.046182,
      "geocoding_level": null,
      "phone": "047-457-6014",
      "license_no": "",
      "license_date": null,
      "expire_date": null
    },
    {
      "name": "パラッツォ船橋店パートⅠ　B1階",
      "name_kana": "パラッツォフナバシテン",
      "business_type": "⑤ コップ式自動販売機（自動洗浄・屋内設置）",
      "address": "千葉県船橋市本町1-6-12",
      "lat": 35.699899,
      "lng": 139.985363,
      "geocoding_level": null,
      "phone": "0120-157-428",
      "license_no": "",
      "license_date": null,
      "expire_date": null
    },
    {
      "name": "パラッツォ船橋店パートⅠ　1階",
      "name_kana": "パラッツォフナバシテン",
      "business_type": "⑤ コップ式自動販売機（自動洗浄・屋内設置）",
      "address": "千葉県船橋市本町1-6-12",
      "lat": 35.699899,
      "lng": 139.985363,
      "geocoding_level": null,
      "phone": "0120-157-428",
      "license_no": "",
      "license_date": null,
      "expire_date": null
    },
    {
      "name": "パラッツォ船橋店パートⅠ　2階",
      "name_kana": "パラッツォフナバシテン",
      "business_type": "⑤ コップ式自動販売機（自動洗浄・屋内設置）",
      "address": "千葉県船橋市本町1-6-12",
      "lat": 35.69985,
      "lng": 139.985368,
      "geocoding_level": null,
      "phone": "0120-157-428",
      "license_no": "",
      "license_date": null,
      "expire_date": null
    },
    {
      "name": "パラッツォ船橋店パートⅡ",
      "name_kana": "パラッツォフナバシテン",
      "business_type": "⑤ コップ式自動販売機（自動洗浄・屋内設置）",
      "address": "千葉県船橋市本町1-7-20",
      "lat": 35.699603,
      "lng": 139.985457,
      "geocoding_level": null,
      "phone": "0120-157-428",
      "license_no": "",
      "license_date": null,
      "expire_date": null
    },
    {
      "name": "椿　製菓",
      "name_kana": "ツバキセイカ",
      "business_type": "③ 乳類販売業",
      "address": "千葉県船橋市松が丘２丁目１８番１８号",
      "lat": 35.737842,
      "lng": 140.045209,
      "geocoding_level": null,
      "phone": "047-465-6910",
      "license_no": "",
      "license_date": null,
      "expire_date": null
    },
    {
      "name": "佐川急便浦安営業所　１Ｆカップ",
      "name_kana": "サガワキュビンウラヤスエイギョウショ　イチエフ",
      "business_type": "⑤ コップ式自動販売機（自動洗浄・屋内設置）",
      "address": "千葉県船橋市西浦2丁目14－1",
      "lat": 35.685423,
      "lng": 139.966712,
      "geocoding_level": null,
      "phone": "0570-010-793",
      "license_no": "",
      "license_date": null,
      "expire_date": null
    },
    {
      "name": "BLUE HONEY",
      "name_kana": "ブルーハニー",
      "business_type": "⑨ 通信販売・訪問販売による販売業",
      "address": "千葉県船橋市本町1-13-10-302 船橋本町パークホームズ",
      "lat": 35.698887,
      "lng": 139.983494,
      "geocoding_level": null,
      "phone": "09055607898",
      "license_no": "",
      "license_date": null,
      "expire_date": null
    },
    {
      "name": "BLUE HONEY",
      "name_kana": "ブルーハニー",
      "business_type": "⑬ その他の食料・飲料販売業",
      "address": "千葉県船橋市本町1-13-10-302 船橋本町パークホームズ",
      "lat": 35.698887,
      "lng": 139.983494,
      "geocoding_level": null,
      "phone": "09055607898",
      "license_no": "",
      "license_date": null,
      "expire_date": null
    },
    {
      "name": "BLUE HONEY",
      "name_kana": "ブルーハニー",
      "business_type": "㉑ 製茶業",
      "address": "千葉県船橋市本町1-13-10-302 船橋本町パークホームズ",
      "lat": 35.698887,
      "lng": 139.983494,
      "geocoding_level": null,
      "phone": "09055607898",
      "license_no": "",
      "license_date": null,
      "expire_date": null
    },
    {
      "name": "生鮮＆業務スーパー船橋南店",
      "name_kana": "セイセンアンドギョウムスーパーフナバシミナミテン",
      "business_type": "① 飲食店営業",
      "address": "千葉県船橋市南本町１３－６",
      "lat": 35.697568,
      "lng": 139.976832,
      "geocoding_level": null,
      "phone": "047-402-3149",
      "license_no": "第07-400号",
      "license_date": "2025-10-03",
      "expire_date": "2032-10-31"
    },
    {
      "name": "生鮮＆業務スーパー船橋南店",
      "name_kana": "セイセンアンドギョウムスーパーフナバシミナミテン",
      "business_type": "③ 食肉販売業",
      "address": "千葉県船橋市南本町１３－６",
      "lat": 35.697568,
      "lng": 139.976832,
      "geocoding_level": null,
      "phone": "047-402-3149",
      "license_no": "第07-5号",
      "license_date": "2025-10-03",
      "expire_date": "2031-10-31"
    },
    {
      "name": "業務スーパー船橋南店",
      "name_kana": "ギョウムスーパーフナバシミナミテン",
      "business_type": "⑪ 百貨店、総合スーパー",
      "address": "千葉県船橋市南本町13-16",
      "lat": 35.69755,
      "lng": 139.976883,
      "geocoding_level": null,
      "phone": "044-789-8326",
      "license_no": "",
      "license_date": null,
      "expire_date": null
    },
    {
      "name": "ビビット南船橋・北海道物産展",
      "name_kana": "ビビットミナミフナバシ・ホッカイドウブッサンテン",
      "business_type": "⑬ その他の食料・飲料販売業",
      "address": "千葉県船橋市浜町2-2-7",
      "lat": 35.687531,
      "lng": 139.992793,
      "geocoding_level": null,
      "phone": "",
      "license_no": "",
      "license_date": null,
      "expire_date": null
    },
    {
      "name": "八幡餃子  下総中山店",
      "name_kana": "ハチマンギョウザ シモフサナカヤマテン",
      "business_type": "⑬ その他の食料・飲料販売業",
      "address": "千葉県船橋市本中山4丁目25番16号",
      "lat": 35.712758,
      "lng": 139.940397,
      "geocoding_level": null,
      "phone": "",
      "license_no": "",
      "license_date": null,
      "expire_date": null
    },
    {
      "name": "eashion　船橋東武店",
      "name_kana": "イーション　フナバシトウブテン",
      "business_type": "① 飲食店営業",
      "address": "千葉県船橋市本町7丁目1番1号 東武百貨店　地下1階",
      "lat": 35.701433,
      "lng": 139.986561,
      "geocoding_level": null,
      "phone": "047-423-8781",
      "license_no": "第08-39号",
      "license_date": "2026-04-22",
      "expire_date": "2033-04-30"
    },
    {
      "name": "イーション　船橋東武店　船橋店　B1",
      "name_kana": "イーション　フナバシトウブテン　フナバシテン",
      "business_type": "⑬ その他の食料・飲料販売業",
      "address": "千葉県船橋市本町7丁目1番1号 東武百貨店",
      "lat": 35.701433,
      "lng": 139.986561,
      "geocoding_level": null,
      "phone": "047-423-8781",
      "license_no": "",
      "license_date": null,
      "expire_date": null
    },
    {
      "name": "おそうざい村",
      "name_kana": "オソウザイムラ",
      "business_type": "① 飲食店営業",
      "address": "千葉県船橋市本町7-1-1 シャポー船橋店1階",
      "lat": 35.702449,
      "lng": 139.98447,
      "geocoding_level": null,
      "phone": "047-409-1569",
      "license_no": "第03-1026号",
      "license_date": "2021-06-11",
      "expire_date": "2028-06-30"
    },
    {
      "name": "チェリーマート今村酒店",
      "name_kana": "チェリーマートイマムラサケテン",
      "business_type": "③ 乳類販売業",
      "address": "千葉県船橋市田喜野井1-4-10",
      "lat": 35.69918,
      "lng": 140.037824,
      "geocoding_level": null,
      "phone": "",
      "license_no": "",
      "license_date": null,
      "expire_date": null
    },
    {
      "name": "チェリーマート今村酒店",
      "name_kana": "チェリーマートイマムラサケテン",
      "business_type": "⑥ 弁当販売業",
      "address": "千葉県船橋市田喜野井1-4-10",
      "lat": 35.69918,
      "lng": 140.037824,
      "geocoding_level": null,
      "phone": "",
      "license_no": "",
      "license_date": null,
      "expire_date": null
    },
    {
      "name": "チェリーマート今村酒店",
      "name_kana": "チェリーマートイマムラサケテン",
      "business_type": "⑧ 米穀類販売業",
      "address": "千葉県船橋市田喜野井1-4-10",
      "lat": 35.69918,
      "lng": 140.037824,
      "geocoding_level": null,
      "phone": "",
      "license_no": "",
      "license_date": null,
      "expire_date": null
    },
    {
      "name": "まいばすけっと原木中山駅前店",
      "name_kana": "マイバスケットバラキナカヤマエキマエテン",
      "business_type": "⑬ その他の食料・飲料販売業",
      "address": "千葉県船橋市本中山7丁目9-3 エストフォート原木中山",
      "lat": 35.703429,
      "lng": 139.941239,
      "geocoding_level": null,
      "phone": "047-711-0282",
      "license_no": "",
      "license_date": null,
      "expire_date": null
    },
    {
      "name": "まいばすけっと西船橋駅北店",
      "name_kana": "マイバスケットニシフナバシエキキタテン",
      "business_type": "⑬ その他の食料・飲料販売業",
      "address": "千葉県船橋市西船4丁目11-10 第５田中ビル",
      "lat": 35.708713,
      "lng": 139.960621,
      "geocoding_level": null,
      "phone": "",
      "license_no": "",
      "license_date": null,
      "expire_date": null
    },
    {
      "name": "まいばすけっと習志野台2丁目店",
      "name_kana": "マイバスケットナラシノダイニチョウメテン",
      "business_type": "⑬ その他の食料・飲料販売業",
      "address": "千葉県船橋市習志野台2丁目73-16 十字ビル",
      "lat": 35.724385,
      "lng": 140.050174,
      "geocoding_level": null,
      "phone": "047-465-2021",
      "license_no": "",
      "license_date": null,
      "expire_date": null
    },
    {
      "name": "まいばすけっと船橋本町6丁目店",
      "name_kana": "マイバスケットフナバシホンチョウロクチョウメテン",
      "business_type": "⑬ その他の食料・飲料販売業",
      "address": "千葉県船橋市本町6丁目3-15 ＭＳビル船橋",
      "lat": 35.703777,
      "lng": 139.987671,
      "geocoding_level": null,
      "phone": "047-426-8230",
      "license_no": "",
      "license_date": null,
      "expire_date": null
    },
    {
      "name": "まいばすけっと北習志野駅前店",
      "name_kana": "マイバスケットキタナラシノエキマエテン",
      "business_type": "⑬ その他の食料・飲料販売業",
      "address": "千葉県船橋市習志野台2丁目6-1",
      "lat": 35.722133,
      "lng": 140.042869,
      "geocoding_level": null,
      "phone": "047-460-9057",
      "license_no": "",
      "license_date": null,
      "expire_date": null
    },
    {
      "name": "まいばすけっと船橋宮本2丁目店",
      "name_kana": "マイバスケットフナバシミヤモトニチョウメテン",
      "business_type": "⑬ その他の食料・飲料販売業",
      "address": "千葉県船橋市宮本2丁目2-41",
      "lat": 35.694867,
      "lng": 139.99118,
      "geocoding_level": null,
      "phone": "047-421-0066",
      "license_no": "",
      "license_date": null,
      "expire_date": null
    },
    {
      "name": "まいばすけっと船橋本町7丁目店",
      "name_kana": "マイバスケットフナバシホンチョウナナチョウメテン",
      "business_type": "⑬ その他の食料・飲料販売業",
      "address": "千葉県船橋市本町7丁目20-31",
      "lat": 35.706789,
      "lng": 139.982982,
      "geocoding_level": null,
      "phone": "047-455-8071",
      "license_no": "",
      "license_date": null,
      "expire_date": null
    },
    {
      "name": "まいばすけっと船橋三咲4丁目店",
      "name_kana": "マイバスケットフナバシミサキヨンチョウメテン",
      "business_type": "⑬ その他の食料・飲料販売業",
      "address": "千葉県船橋市三咲4丁目11-1",
      "lat": 35.751361,
      "lng": 140.034563,
      "geocoding_level": null,
      "phone": "047-407-1917",
      "license_no": "",
      "license_date": null,
      "expire_date": null
    },
    {
      "name": "まいばすけっと津田沼駅北店",
      "name_kana": "マイバスケットツダヌマエキキタテン",
      "business_type": "⑬ その他の食料・飲料販売業",
      "address": "千葉県船橋市前原西2丁目11-5 松田第三ビル",
      "lat": 35.693503,
      "lng": 140.02077,
      "geocoding_level": null,
      "phone": "047-405-2516",
      "license_no": "",
      "license_date": null,
      "expire_date": null
    },
    {
      "name": "まいばすけっと西船橋駅南店",
      "name_kana": "マイバスケットニシフナバシエキミナミテン",
      "business_type": "⑬ その他の食料・飲料販売業",
      "address": "千葉県船橋市印内町638-1",
      "lat": 35.70558,
      "lng": 139.958942,
      "geocoding_level": null,
      "phone": "047-433-1707",
      "license_no": "",
      "license_date": null,
      "expire_date": null
    },
    {
      "name": "ＭＦＬＰ船橋３売店",
      "name_kana": "エムエフレルピーフナバシバイテン",
      "business_type": "⑤ コップ式自動販売機（自動洗浄・屋内設置）",
      "address": "千葉県船橋市浜町２－１－１ 5階",
      "lat": 35.679301,
      "lng": 139.989817,
      "geocoding_level": null,
      "phone": "",
      "license_no": "",
      "license_date": null,
      "expire_date": null
    },
    {
      "name": "ヤマイチ船橋店",
      "name_kana": "ヤマイチフナバシテン",
      "business_type": "⑫ 自動販売機による販売業（コップ式自動販売機（自動洗浄・屋内設置）及び営業許可の対象となる自動販売機を除く）",
      "address": "千葉県船橋市本町4-3-28",
      "lat": 35.700676,
      "lng": 139.98645,
      "geocoding_level": null,
      "phone": "",
      "license_no": "",
      "license_date": null,
      "expire_date": null
    },
    {
      "name": "ＮＩＰＰＯ新京葉合材工場　カップ",
      "name_kana": "ニッポーシンケイヨウゴウザイコウジョウ　カップ",
      "business_type": "⑫ 自動販売機による販売業（コップ式自動販売機（自動洗浄・屋内設置）及び営業許可の対象となる自動販売機を除く）",
      "address": "千葉県船橋市西浦2-17-1",
      "lat": 35.683293,
      "lng": 139.96564,
      "geocoding_level": null,
      "phone": "047-435-0861",
      "license_no": "",
      "license_date": null,
      "expire_date": null
    },
    {
      "name": "船橋整形外科　３階休憩室ＣＶＭ",
      "name_kana": "フナバシセイケイゲカ　サンカイキュウケイシツシーブィエム",
      "business_type": "⑫ 自動販売機による販売業（コップ式自動販売機（自動洗浄・屋内設置）及び営業許可の対象となる自動販売機を除く）",
      "address": "千葉県船橋市飯山満町1-833",
      "lat": 35.708663,
      "lng": 140.011255,
      "geocoding_level": null,
      "phone": "047-425-9340",
      "license_no": "",
      "license_date": null,
      "expire_date": null
    },
    {
      "name": "くすりの福太郎船橋南口店",
      "name_kana": "クスリノフクタロウフナバシミナミグチテン",
      "business_type": "⑫ 自動販売機による販売業（コップ式自動販売機（自動洗浄・屋内設置）及び営業許可の対象となる自動販売機を除く）",
      "address": "千葉県船橋市本町一丁目",
      "lat": 35.698138,
      "lng": 139.985817,
      "geocoding_level": null,
      "phone": "03-3502-7222",
      "license_no": "",
      "license_date": null,
      "expire_date": null
    },
    {
      "name": "ナイキ船橋４F休憩室",
      "name_kana": "ナイキフナバシヨンカイキュウケイシツ",
      "business_type": "⑤ コップ式自動販売機（自動洗浄・屋内設置）",
      "address": "千葉県船橋市浜町2-6-25 MFLPⅡ",
      "lat": 35.681325,
      "lng": 139.98605,
      "geocoding_level": null,
      "phone": "0476-90-1343",
      "license_no": "",
      "license_date": null,
      "expire_date": null
    },
    {
      "name": "船橋市立船橋高等学校　昇降口",
      "name_kana": "フナバシシリツフナバシコウトウガッコウ",
      "business_type": "③ 乳類販売業",
      "address": "千葉県船橋市市場４丁目５",
      "lat": 35.701218,
      "lng": 139.999198,
      "geocoding_level": null,
      "phone": "０４７４２２５５１６",
      "license_no": "",
      "license_date": null,
      "expire_date": null
    },
    {
      "name": "みずほ銀行　津田沼支店",
      "name_kana": "ミズホギンコウ　ツダヌマシテン",
      "business_type": "⑤ コップ式自動販売機（自動洗浄・屋内設置）",
      "address": "千葉県船橋市前原西２丁目１４番５号",
      "lat": 35.692055,
      "lng": 140.020893,
      "geocoding_level": null,
      "phone": "０４７４７６２１５１",
      "license_no": "",
      "license_date": null,
      "expire_date": null
    },
    {
      "name": "住友大阪セメント株式会社事務所２F",
      "name_kana": "スミトモオオサカセメントカブシキガイシャニカイ",
      "business_type": "⑤ コップ式自動販売機（自動洗浄・屋内設置）",
      "address": "千葉県船橋市豊富町５８５",
      "lat": 35.772517,
      "lng": 140.069838,
      "geocoding_level": null,
      "phone": "",
      "license_no": "",
      "license_date": null,
      "expire_date": null
    },
    {
      "name": "住友大阪セメント株式会社　パック機",
      "name_kana": "スミトモオオサカセメントカブシキガイシャパックキ",
      "business_type": "③ 乳類販売業",
      "address": "千葉県船橋市５８５",
      "lat": 35.694548,
      "lng": 139.982727,
      "geocoding_level": null,
      "phone": "",
      "license_no": "",
      "license_date": null,
      "expire_date": null
    },
    {
      "name": "イオン高根木戸店２Ｆギャザリング",
      "name_kana": "イオンタカネキド",
      "business_type": "⑤ コップ式自動販売機（自動洗浄・屋内設置）",
      "address": "千葉県船橋市習志野台1-5",
      "lat": 35.72612,
      "lng": 140.036894,
      "geocoding_level": null,
      "phone": "",
      "license_no": "",
      "license_date": null,
      "expire_date": null
    },
    {
      "name": "住友大阪セメント株式会社事務所２F",
      "name_kana": "スミトモオオサカセメントカブシキガイシャニカイ",
      "business_type": "⑤ コップ式自動販売機（自動洗浄・屋内設置）",
      "address": "千葉県船橋市豊富町５８５－１",
      "lat": 35.772133,
      "lng": 140.07032,
      "geocoding_level": null,
      "phone": "",
      "license_no": "",
      "license_date": null,
      "expire_date": null
    },
    {
      "name": "船橋整形外科病院１階職員食堂カップ",
      "name_kana": "フナバシセイケイゲカビョウインカイショクインショクドウカップ",
      "business_type": "⑤ コップ式自動販売機（自動洗浄・屋内設置）",
      "address": "千葉県船橋市飯山満町１丁目833",
      "lat": 35.708663,
      "lng": 140.011255,
      "geocoding_level": null,
      "phone": "",
      "license_no": "",
      "license_date": null,
      "expire_date": null
    },
    {
      "name": "ホンダカーズ千葉　北習志野店",
      "name_kana": "ホンダカーズチバ　キタナラシノテン",
      "business_type": "⑤ コップ式自動販売機（自動洗浄・屋内設置）",
      "address": "千葉県船橋市習志野１丁目１０−５",
      "lat": 35.712654,
      "lng": 140.054523,
      "geocoding_level": null,
      "phone": "047-463-9011",
      "license_no": "",
      "license_date": null,
      "expire_date": null
    },
    {
      "name": "ホンダカーズ千葉　習志野東店",
      "name_kana": "ホンダカーズチバナラシノヒガシ",
      "business_type": "⑤ コップ式自動販売機（自動洗浄・屋内設置）",
      "address": "千葉県船橋市習志野４丁目９−３",
      "lat": 35.704415,
      "lng": 140.059321,
      "geocoding_level": null,
      "phone": "",
      "license_no": "",
      "license_date": null,
      "expire_date": null
    },
    {
      "name": "ホンダカーズ千葉　習志野東店",
      "name_kana": "ホンダカーズチバナラシノヒガシ",
      "business_type": "⑫ 自動販売機による販売業（コップ式自動販売機（自動洗浄・屋内設置）及び営業許可の対象となる自動販売機を除く）",
      "address": "千葉県船橋市習志野４丁目９−３",
      "lat": 35.704478,
      "lng": 140.059303,
      "geocoding_level": null,
      "phone": "",
      "license_no": "",
      "license_date": null,
      "expire_date": null
    },
    {
      "name": "フロントンビル",
      "name_kana": "フロントンビル",
      "business_type": "⑤ コップ式自動販売機（自動洗浄・屋内設置）",
      "address": "千葉県船橋市葛飾町２丁目３４０番地 フロントンビル",
      "lat": 35.706805,
      "lng": 139.957438,
      "geocoding_level": null,
      "phone": "047-432-4541",
      "license_no": "",
      "license_date": null,
      "expire_date": null
    },
    {
      "name": "ドン・キホーテ原木西船橋店",
      "name_kana": "ドン・キホーテバラキニシフナバシテン",
      "business_type": "⑪ 百貨店、総合スーパー",
      "address": "千葉県船橋市本郷町474番地1",
      "lat": 35.708931,
      "lng": 139.953489,
      "geocoding_level": null,
      "phone": "047-302-8311",
      "license_no": "",
      "license_date": null,
      "expire_date": null
    },