{
  "meta": {
    "updated": 1783568789,
    "sources": [
      {
        "source": "厚生労働省 食品衛生申請等システム（オープンデータ）",
        "license": "公共データ利用規約（第1.0版, PDL1.0）"
      }
    ]
  },
  "data": [
    {
      "name": "ダイソー　イオンタウン水戸南店",
      "name_kana": "ダイソー　イオンタウンミトミナミテン",
      "business_type": "⑬ その他の食料・飲料販売業",
      "address": "茨城県東茨城郡茨城町長岡３４８０ イオンタウン水戸南店内",
      "lat": 36.312578,
      "lng": 140.43957,
      "geocoding_level": null,
      "phone": "",
      "license_no": "",
      "license_date": null,
      "expire_date": null
    },
    {
      "name": "水戸ヤクルト販売㈱茨城町センター",
      "name_kana": "ミトヤクルトハンバイカブシキガイシャイバラキマチセンター",
      "business_type": "⑬ その他の食料・飲料販売業",
      "address": "茨城県東茨城郡茨城町前田538-2",
      "lat": 36.302684,
      "lng": 140.431522,
      "geocoding_level": null,
      "phone": "029-292-8941",
      "license_no": "",
      "license_date": null,
      "expire_date": null
    },
    {
      "name": "ダイナム茨城イオンタウン水戸南店",
      "name_kana": "ダイナムイバラキイオンタウンミトミナミテン",
      "business_type": "⑤ コップ式自動販売機（自動洗浄・屋内設置）",
      "address": "茨城県東茨城郡茨城町長岡字新田3486番地1",
      "lat": 36.310681,
      "lng": 140.446146,
      "geocoding_level": null,
      "phone": "03-3802-8141",
      "license_no": "",
      "license_date": null,
      "expire_date": null
    },
    {
      "name": "ヨークベニマル茨城町店",
      "name_kana": "ヨークベニマルイバラキマチテン",
      "business_type": "⑪ 百貨店、総合スーパー",
      "address": "茨城県東茨城郡茨城町大字長岡字中丸原3481番地577",
      "lat": 37.838789,
      "lng": 140.505884,
      "geocoding_level": null,
      "phone": "0292190555",
      "license_no": "",
      "license_date": null,
      "expire_date": null
    },
    {
      "name": "ツルハドラッグ茨城桜の郷店",
      "name_kana": "ツルハドラッグイバラギサクラノサトテン",
      "business_type": "⑪ 百貨店、総合スーパー",
      "address": "茨城県東茨城郡茨城町桜の郷3294-6",
      "lat": 36.326533,
      "lng": 140.414166,
      "geocoding_level": null,
      "phone": "029-219-0268",
      "license_no": "",
      "license_date": null,
      "expire_date": null
    },
    {
      "name": "ネクステージ水戸店",
      "name_kana": "ネクステージミトテン",
      "business_type": "⑤ コップ式自動販売機（自動洗浄・屋内設置）",
      "address": "茨城県東茨城郡茨城町長岡3528",
      "lat": 36.318426,
      "lng": 140.452858,
      "geocoding_level": null,
      "phone": "",
      "license_no": "",
      "license_date": null,
      "expire_date": null
    },
    {
      "name": "(株)カスミフードスクエア　イオンタウン水戸南店",
      "name_kana": "カブシキガイシャカスミフードスクエア　イオンタウンミトミナミテン",
      "business_type": "⑪ 百貨店、総合スーパー",
      "address": "茨城県東茨城郡茨城町長岡3480-101",
      "lat": 36.311072,
      "lng": 140.440668,
      "geocoding_level": null,
      "phone": "0292190078",
      "license_no": "",
      "license_date": null,
      "expire_date": null
    },
    {
      "name": "バーミヤン　水戸南店",
      "name_kana": "バーミヤンミトミナミテン",
      "business_type": "⑬ その他の食料・飲料販売業",
      "address": "茨城県東茨城郡茨城町長岡３４８０－１",
      "lat": 36.310944,
      "lng": 140.441177,
      "geocoding_level": null,
      "phone": "029-219-0019",
      "license_no": "",
      "license_date": null,
      "expire_date": null
    },
    {
      "name": "ビッグハウス桜の郷店",
      "name_kana": "ビッグハウスサクラノサトテン",
      "business_type": "⑪ 百貨店、総合スーパー",
      "address": "茨城県東茨城郡茨城町桜の郷3344-2",
      "lat": 36.326656,
      "lng": 140.414862,
      "geocoding_level": null,
      "phone": "029-246-6161",
      "license_no": "",
      "license_date": null,
      "expire_date": null
    },
    {
      "name": "菓匠将満",
      "name_kana": "カショウマサミツ",
      "business_type": "⑬ その他の食料・飲料販売業",
      "address": "茨城県東茨城郡茨城町長岡3480-101 オンタウン水戸南",
      "lat": 36.311299,
      "lng": 140.442969,
      "geocoding_level": null,
      "phone": "029-219-0609",
      "license_no": "",
      "license_date": null,
      "expire_date": null
    },
    {
      "name": "トライアルbox水戸南店",
      "name_kana": "トライアルボックスミトミナミテン",
      "business_type": "⑪ 百貨店、総合スーパー",
      "address": "茨城県東茨城郡茨城町長岡３４８１番地９７",
      "lat": 36.312791,
      "lng": 140.442156,
      "geocoding_level": null,
      "phone": "029-219-2206",
      "license_no": "",
      "license_date": null,
      "expire_date": null
    },
    {
      "name": "メガセンタートライアル　桜の郷店",
      "name_kana": "メガセンタートライアル　サクラノサトテン",
      "business_type": "③ 食肉販売業",
      "address": "茨城県東茨城郡茨城町桜の郷１５００番地",
      "lat": 36.326074,
      "lng": 140.413776,
      "geocoding_level": null,
      "phone": "029-350-8061",
      "license_no": "中保指令法第240682号",
      "license_date": "2024-11-19",
      "expire_date": "2031-02-28"
    },
    {
      "name": "メガセンタートライアル　桜の郷店",
      "name_kana": "メガセンタートライアル　サクラノサトテン",
      "business_type": "① 飲食店営業",
      "address": "茨城県東茨城郡茨城町桜の郷１５００番地",
      "lat": 36.326074,
      "lng": 140.413776,
      "geocoding_level": null,
      "phone": "029-350-8061",
      "license_no": "中保指令法第240679号",
      "license_date": "2024-11-19",
      "expire_date": "2031-02-28"
    },
    {
      "name": "メガセンタートライアル　桜の郷店",
      "name_kana": "メガセンタートライアル　サクラノサトテン",
      "business_type": "④ 魚介類販売業",
      "address": "茨城県東茨城郡茨城町桜の郷１５００番地",
      "lat": 36.326074,
      "lng": 140.413776,
      "geocoding_level": null,
      "phone": "029-350-8061",
      "license_no": "中保指令法第240683号",
      "license_date": "2024-11-19",
      "expire_date": "2031-02-28"
    },
    {
      "name": "メガセンタートライアル　桜の郷店",
      "name_kana": "メガセンタートライアル　サクラノサトテン",
      "business_type": "① 飲食店営業",
      "address": "茨城県東茨城郡茨城町桜の郷１５００番地",
      "lat": 36.326074,
      "lng": 140.413776,
      "geocoding_level": null,
      "phone": "029-350-8061",
      "license_no": "中保指令法第240680号",
      "license_date": "2024-11-19",
      "expire_date": "2031-02-28"
    },
    {
      "name": "メガセンタートライアル　桜の郷店",
      "name_kana": "メガセンタートライアル　サクラノサトテン",
      "business_type": "⑪ 菓子製造業",
      "address": "茨城県東茨城郡茨城町桜の郷１５００番地",
      "lat": 36.326074,
      "lng": 140.413776,
      "geocoding_level": null,
      "phone": "029-350-8061",
      "license_no": "中保指令法第240681号",
      "license_date": "2024-11-19",
      "expire_date": "2031-02-28"
    },
    {
      "name": "メガセンタートライアル　桜の郷店",
      "name_kana": "メガセンタートライアル　サクラノサトテン",
      "business_type": "⑪ 百貨店、総合スーパー",
      "address": "茨城県東茨城郡茨城町桜の郷１５００番地",
      "lat": 36.326074,
      "lng": 140.413776,
      "geocoding_level": null,
      "phone": "029-350-8061",
      "license_no": "",
      "license_date": null,
      "expire_date": null
    },
    {
      "name": "華果",
      "name_kana": "ハナカ",
      "business_type": "⑥ 弁当販売業",
      "address": "茨城県東茨城郡茨城町長岡3480-101",
      "lat": 36.30946,
      "lng": 140.443212,
      "geocoding_level": null,
      "phone": "",
      "license_no": "",
      "license_date": null,
      "expire_date": null
    },
    {
      "name": "ラーメン山岡家水戸南店",
      "name_kana": "ラーメンヤマオカヤミトミナミテン",
      "business_type": "⑬ その他の食料・飲料販売業",
      "address": "茨城県東茨城郡茨城町長岡4294-1",
      "lat": 36.312968,
      "lng": 140.448886,
      "geocoding_level": null,
      "phone": "029-292-6168",
      "license_no": "",
      "license_date": null,
      "expire_date": null
    },
    {
      "name": "セイコーマート　きど桜の郷",
      "name_kana": "セイコーマート　キドサクラノサト",
      "business_type": "⑩ コンビニエンスストア",
      "address": "茨城県東茨城郡茨城町大戸3421番地7",
      "lat": 36.327598,
      "lng": 140.41382,
      "geocoding_level": null,
      "phone": "0292911688",
      "license_no": "",
      "license_date": null,
      "expire_date": null
    },
    {
      "name": "滝沢ハム株式会社茨城ビーフセンター",
      "name_kana": "タキザワハムカブシキガイシャイバラキビーフセンター",
      "business_type": "② 食肉販売業（包装済みの食肉のみの販売）",
      "address": "茨城県東茨城郡茨城町下土師高山1975 茨城県中央食肉公社内",
      "lat": 36.279154,
      "lng": 140.391665,
      "geocoding_level": null,
      "phone": "029-239-3335",
      "license_no": "",
      "license_date": null,
      "expire_date": null
    },
    {
      "name": "コープの移動店舗1号車",
      "name_kana": "コープノイドウテンポイチゴウシャ",
      "business_type": "⑩ コンビニエンスストア",
      "address": "茨城県東茨城郡茨城町茨城町･城里町など水戸市を除く県内一円拠点は水戸市元吉田町1048-1コープ水戸店",
      "lat": 36.286921,
      "lng": 140.424517,
      "geocoding_level": 2,
      "phone": "",
      "license_no": "",
      "license_date": null,
      "expire_date": null
    },
    {
      "name": "天平フーズ　イオンタウン水戸南店",
      "name_kana": "テンペイフーズ　イオンタウンミトミナミテン",
      "business_type": "⑬ その他の食料・飲料販売業",
      "address": "茨城県東茨城郡茨城町長岡3480-101 1階催事スペース",
      "lat": 36.311313,
      "lng": 140.442902,
      "geocoding_level": null,
      "phone": "",
      "license_no": "",
      "license_date": null,
      "expire_date": null
    },
    {
      "name": "ローソン茨城町小鶴店",
      "name_kana": "ローソンイバラキマチコヅルテン",
      "business_type": "⑩ コンビニエンスストア",
      "address": "茨城県東茨城郡茨城町小鶴関田4-2",
      "lat": 36.296249,
      "lng": 140.42865,
      "geocoding_level": null,
      "phone": "0292912011",
      "license_no": "",
      "license_date": null,
      "expire_date": null
    },
    {
      "name": "JA涸沼直売所販売",
      "name_kana": "ジェイエイヒヌマチョクバイジョハンバイ",
      "business_type": "⑬ その他の食料・飲料販売業",
      "address": "茨城県東茨城郡茨城町城之内684-26",
      "lat": 36.240394,
      "lng": 140.445456,
      "geocoding_level": null,
      "phone": "029-293-6606",
      "license_no": "",
      "license_date": null,
      "expire_date": null
    },
    {
      "name": "ポケットファームどきどき　茨城町店",
      "name_kana": "ポケットファームドキドキ　イバラキマチテン",
      "business_type": "⑪ 百貨店、総合スーパー",
      "address": "茨城県東茨城郡茨城町下土師字高山1945 ポケットファームどきどき茨城町店",
      "lat": 36.279524,
      "lng": 140.386835,
      "geocoding_level": null,
      "phone": "029-240-7777",
      "license_no": "",
      "license_date": null,
      "expire_date": null
    },
    {
      "name": "さくらこども園",
      "name_kana": "サクラコドモエン",
      "business_type": "㉖ 集団給食施設",
      "address": "茨城県東茨城郡茨城町小幡2162-3",
      "lat": 36.256741,
      "lng": 140.396174,
      "geocoding_level": null,
      "phone": "0292190007",
      "license_no": "",
      "license_date": null,
      "expire_date": null
    },
    {
      "name": "ミスタードーナツイオンタウン水戸南店",
      "name_kana": "ミスタードーナツイオンタウンミトミナミテン",
      "business_type": "⑬ その他の食料・飲料販売業",
      "address": "茨城県東茨城郡茨城町長岡3480-101",
      "lat": 36.311299,
      "lng": 140.442969,
      "geocoding_level": null,
      "phone": "029-219-0080",
      "license_no": "",
      "license_date": null,
      "expire_date": null
    },
    {
      "name": "介護老人保健　桜の郷敬愛の杜",
      "name_kana": "カイゴロウジンホケンシセツ　サクラノサトケイアイノモリ",
      "business_type": "㉖ 集団給食施設",
      "address": "茨城県東茨城郡茨城町桜の郷1000番地2",
      "lat": 36.322541,
      "lng": 140.414501,
      "geocoding_level": null,
      "phone": "029-353-6581",
      "license_no": "",
      "license_date": null,
      "expire_date": null
    },
    {
      "name": "リンガーハット　イオンタウン水戸南店",
      "name_kana": "リンガーハット　イオンタウンミトミナミテン",
      "business_type": "⑬ その他の食料・飲料販売業",
      "address": "茨城県東茨城郡茨城町長岡3480-101 イオンタウン水戸南内",
      "lat": 36.30946,
      "lng": 140.443212,
      "geocoding_level": null,
      "phone": "0292190105",
      "license_no": "",
      "license_date": null,
      "expire_date": null
    },
    {
      "name": "小幡畜産",
      "name_kana": "オバタチクサン",
      "business_type": "㉓ 卵選別包装業",
      "address": "茨城県東茨城郡茨城町城之内408-1",
      "lat": 36.244211,
      "lng": 140.448906,
      "geocoding_level": null,
      "phone": "029-293-9041",
      "license_no": "",
      "license_date": null,
      "expire_date": null
    },
    {
      "name": "茨城中央園芸農業協同組合",
      "name_kana": "イバラキチュウオウエンゲイノウギョウキョウドウクミアイ",
      "business_type": "⑰ 農産保存食料品製造・加工業",
      "address": "茨城県東茨城郡茨城町小幡18-27",
      "lat": 36.25885,
      "lng": 140.382738,
      "geocoding_level": null,
      "phone": "0292923303",
      "license_no": "",
      "license_date": null,
      "expire_date": null
    },
    {
      "name": "いばらき中央認定こども園",
      "name_kana": "イバラキチュウオウニンテイコドモエン",
      "business_type": "㉖ 集団給食施設",
      "address": "茨城県東茨城郡茨城町小堤９９０",
      "lat": 36.284858,
      "lng": 140.423932,
      "geocoding_level": null,
      "phone": "",
      "license_no": "",
      "license_date": null,
      "expire_date": null
    },
    {
      "name": "茨城町社会福祉協議会　デイサービス",
      "name_kana": "イバラキマチシャカイフクシキョウギカイ　デイサービス",
      "business_type": "㉖ 集団給食施設",
      "address": "茨城県東茨城郡茨城町小堤1037-1",
      "lat": 36.288511,
      "lng": 140.425098,
      "geocoding_level": null,
      "phone": "029-292-6179",
      "license_no": "",
      "license_date": null,
      "expire_date": null
    },
    {
      "name": "無人冷凍弁当販売水戸南店",
      "name_kana": "ムジンレイトウベントウハンバイミトミナミテン",
      "business_type": "⑥ 弁当販売業",
      "address": "茨城県東茨城郡茨城町長岡字新田3486番地1 ダイナム茨城イオンタウン水戸南店",
      "lat": 36.304441,
      "lng": 140.440036,
      "geocoding_level": null,
      "phone": "029-240-7826",
      "license_no": "",
      "license_date": null,
      "expire_date": null
    },
    {
      "name": "ウェルユー・ミール東日本株式会社　みどりの杜事業所",
      "name_kana": "ウェルユーミールヒガシニホンカブシキガイシャ　ミドリノモリジギョウショ",
      "business_type": "① 飲食店営業",
      "address": "茨城県東茨城郡茨城町小幡2765-4",
      "lat": 36.276646,
      "lng": 140.413194,
      "geocoding_level": null,
      "phone": "",
      "license_no": "中保指令法第260242号",
      "license_date": "2026-05-15",
      "expire_date": "2032-08-31"
    },
    {
      "name": "カスミ移動スーパー",
      "name_kana": "カスミイドウスーパー",
      "business_type": "⑬ その他の食料・飲料販売業",
      "address": "茨城県東茨城郡茨城町一円",
      "lat": 36.286943,
      "lng": 140.424536,
      "geocoding_level": null,
      "phone": "029-219-0078",
      "license_no": "",
      "license_date": null,
      "expire_date": null
    },
    {
      "name": "コメリハードアンドグリーン茨城町店",
      "name_kana": "コメリハードアンドグリーンイバラキマチテン",
      "business_type": "⑧ 米穀類販売業",
      "address": "茨城県東茨城郡茨城町桜の郷３４０５番１２",
      "lat": 36.327739,
      "lng": 140.415693,
      "geocoding_level": null,
      "phone": "029-219-2151",
      "license_no": "",
      "license_date": null,
      "expire_date": null
    }
  ]
}
