{
  "meta": {
    "updated": 1783568789,
    "sources": [
      {
        "source": "厚生労働省 食品衛生申請等システム（オープンデータ）",
        "license": "公共データ利用規約（第1.0版, PDL1.0）"
      }
    ]
  },
  "data": [
    {
      "name": "Crest",
      "name_kana": "クレスト",
      "business_type": "① 飲食店営業",
      "address": "北海道余市郡赤井川村字常盤128番地1 キロロリゾート内",
      "lat": 43.067333,
      "lng": 140.989032,
      "geocoding_level": null,
      "phone": "090-3773-9755",
      "license_no": "4-358",
      "license_date": "2024-12-06",
      "expire_date": "2030-10-31"
    },
    {
      "name": "マーゴズガーデン",
      "name_kana": "マーゴズガーデン",
      "business_type": "⑪ 菓子製造業",
      "address": "北海道余市郡赤井川村常盤356番地1",
      "lat": 43.090485,
      "lng": 140.974402,
      "geocoding_level": null,
      "phone": "090-3773-9755",
      "license_no": "4-364",
      "license_date": "2024-12-11",
      "expire_date": "2030-10-31"
    },
    {
      "name": "マーゴズガーデン",
      "name_kana": "マーゴズガーデン",
      "business_type": "① 飲食店営業",
      "address": "北海道余市郡赤井川村常盤356番地1",
      "lat": 43.090485,
      "lng": 140.974402,
      "geocoding_level": null,
      "phone": "090-3773-9755",
      "license_no": "4-365",
      "license_date": "2024-12-11",
      "expire_date": "2030-10-31"
    },
    {
      "name": "KURO　彩",
      "name_kana": "クロサイ",
      "business_type": "① 飲食店営業",
      "address": "北海道余市郡赤井川村字常盤128番地1 キロロリゾート内",
      "lat": 43.067333,
      "lng": 140.989032,
      "geocoding_level": null,
      "phone": "080-7803-3377",
      "license_no": "4-387",
      "license_date": "2024-12-23",
      "expire_date": "2030-10-31"
    },
    {
      "name": "ホクショク吉田建設事業所",
      "name_kana": "ホクショクヨシダケンセツジギョウショ",
      "business_type": "① 飲食店営業",
      "address": "北海道余市郡赤井川村字落合２５７－６",
      "lat": 43.080005,
      "lng": 140.887091,
      "geocoding_level": null,
      "phone": "",
      "license_no": "27-311",
      "license_date": "2022-10-18",
      "expire_date": "2028-10-31"
    },
    {
      "name": "ホクショク西松建設",
      "name_kana": "ホクショクニシマツケンセツ",
      "business_type": "① 飲食店営業",
      "address": "北海道余市郡赤井川村字落合２５７－６",
      "lat": 43.080005,
      "lng": 140.887091,
      "geocoding_level": null,
      "phone": "",
      "license_no": "27-312",
      "license_date": "2022-10-18",
      "expire_date": "2028-10-31"
    },
    {
      "name": "ホクショク後志事業所",
      "name_kana": "ホクショクシリベシジギョウショ",
      "business_type": "① 飲食店営業",
      "address": "北海道余市郡赤井川村字赤井川３１８－１",
      "lat": 43.08639,
      "lng": 140.812387,
      "geocoding_level": null,
      "phone": "",
      "license_no": "27-313",
      "license_date": "2022-10-18",
      "expire_date": "2027-10-31"
    },
    {
      "name": "道の駅あかいがわ",
      "name_kana": "ミチノエキアカイガワ",
      "business_type": "⑬ その他の食料・飲料販売業",
      "address": "北海道余市郡赤井川村都１９０番地１６",
      "lat": 43.051419,
      "lng": 140.844384,
      "geocoding_level": null,
      "phone": "",
      "license_no": "",
      "license_date": null,
      "expire_date": null
    },
    {
      "name": "有限会社どさんこ農産センター",
      "name_kana": "ユウゲンガイシャドサンコノウサンセンター",
      "business_type": "⑦ 野菜果物販売業",
      "address": "北海道余市郡赤井川村字赤井川259番地７",
      "lat": 43.085109,
      "lng": 140.822186,
      "geocoding_level": null,
      "phone": "0135346175",
      "license_no": "",
      "license_date": null,
      "expire_date": null
    },
    {
      "name": "赤井川村構造改善センター（赤井川村保養センター）",
      "name_kana": "アカイガワムラコウゾウカイゼンセンター　アカイガワムラホヨウセンター",
      "business_type": "⑬ その他の食料・飲料販売業",
      "address": "北海道余市郡赤井川村赤井川７１番地２",
      "lat": 43.081017,
      "lng": 140.812288,
      "geocoding_level": null,
      "phone": "",
      "license_no": "",
      "license_date": null,
      "expire_date": null
    },
    {
      "name": "新アリス・ファーム",
      "name_kana": "シンアリス・ファーム",
      "business_type": "⑬ その他の食料・飲料販売業",
      "address": "北海道余市郡赤井川村日ノ出２５３番地",
      "lat": 43.103507,
      "lng": 140.823986,
      "geocoding_level": null,
      "phone": "",
      "license_no": "",
      "license_date": null,
      "expire_date": null
    },
    {
      "name": "アリス・ファーム　ブルーベリーカフェ",
      "name_kana": "アリス・ファーム　ブルーベリーカフェ",
      "business_type": "① 飲食店営業",
      "address": "北海道余市郡赤井川村日ノ出２５３番地",
      "lat": 43.103507,
      "lng": 140.823986,
      "geocoding_level": null,
      "phone": "0135-34-7000",
      "license_no": "21-241",
      "license_date": "2023-10-02",
      "expire_date": "2028-10-31"
    },
    {
      "name": "株式会社　アリス・ファーム",
      "name_kana": "カブシキガイシャ　アリス　ファーム",
      "business_type": "⑪ 菓子製造業",
      "address": "北海道余市郡赤井川村字日ノ出253番地",
      "lat": 43.103507,
      "lng": 140.823986,
      "geocoding_level": null,
      "phone": "0135-34-7000",
      "license_no": "4-142",
      "license_date": "2024-06-12",
      "expire_date": "2029-10-31"
    },
    {
      "name": "アリス・ファーム　食品工房",
      "name_kana": "アリス・ファーム　ショクヒンコウボウ",
      "business_type": "㉚ 密封包装食品製造業",
      "address": "北海道余市郡赤井川村日ノ出２５３",
      "lat": 43.103507,
      "lng": 140.823986,
      "geocoding_level": null,
      "phone": "0135-34-7000",
      "license_no": "4-179",
      "license_date": "2024-07-16",
      "expire_date": "2030-10-31"
    },
    {
      "name": "クラブメッド北海道キロロピーク Shakotan",
      "name_kana": "クラブメッドホッカイドウキロロピークシャコタン",
      "business_type": "① 飲食店営業",
      "address": "北海道余市郡赤井川村字常盤650番地",
      "lat": 43.077736,
      "lng": 140.980758,
      "geocoding_level": null,
      "phone": "0135-35-3117",
      "license_no": "21-268",
      "license_date": "2023-10-20",
      "expire_date": "2030-10-31"
    },
    {
      "name": "クラブメッド北海道キロロピーク Main Kitchen",
      "name_kana": "クラブメッドホッカイドウキロロピークメインキッチン",
      "business_type": "① 飲食店営業",
      "address": "北海道余市郡赤井川村字常盤650番地",
      "lat": 43.077736,
      "lng": 140.980758,
      "geocoding_level": null,
      "phone": "",
      "license_no": "21-269",
      "license_date": "2023-10-20",
      "expire_date": "2030-10-31"
    },
    {
      "name": "クラブメッド北海道キロロピーク Misaki",
      "name_kana": "クラブメッドホッカイドウキロロピークミサキ",
      "business_type": "① 飲食店営業",
      "address": "北海道余市郡赤井川村字常盤650番地",
      "lat": 43.077736,
      "lng": 140.980758,
      "geocoding_level": null,
      "phone": "",
      "license_no": "21-271",
      "license_date": "2023-10-20",
      "expire_date": "2030-10-31"
    },
    {
      "name": "クラブメッド北海道キロロピーク The View Bar",
      "name_kana": "クラブメッドホッカイドウキロロピークザビューバー",
      "business_type": "① 飲食店営業",
      "address": "北海道余市郡赤井川村字常盤650番地",
      "lat": 43.077736,
      "lng": 140.980758,
      "geocoding_level": null,
      "phone": "",
      "license_no": "21-272",
      "license_date": "2023-10-20",
      "expire_date": "2030-10-31"
    },
    {
      "name": "クラブメッド北海道キロログランド Yoichi + Yotei",
      "name_kana": "クラブメッドホッカイドウキロログランドヨイチヨウテイ",
      "business_type": "① 飲食店営業",
      "address": "北海道余市郡赤井川村字常盤128番地1",
      "lat": 43.067333,
      "lng": 140.989032,
      "geocoding_level": null,
      "phone": "",
      "license_no": "21-267",
      "license_date": "2023-10-20",
      "expire_date": "2030-10-31"
    },
    {
      "name": "クラブメッド北海道キロログランド Main Kitchen",
      "name_kana": "クラブメッドホッカイドウキロログランドメインキッチン",
      "business_type": "① 飲食店営業",
      "address": "北海道余市郡赤井川村字常盤128番地1",
      "lat": 43.067333,
      "lng": 140.989032,
      "geocoding_level": null,
      "phone": "",
      "license_no": "21-264",
      "license_date": "2023-10-20",
      "expire_date": "2030-10-31"
    },
    {
      "name": "クラブメッド北海道キロログランド Bakery Room",
      "name_kana": "クラブメッドホッカイドウキロログランドベーカリールーム",
      "business_type": "⑪ 菓子製造業",
      "address": "北海道余市郡赤井川村字常盤128番地1",
      "lat": 43.067333,
      "lng": 140.989032,
      "geocoding_level": null,
      "phone": "",
      "license_no": "21-270",
      "license_date": "2023-10-20",
      "expire_date": "2030-10-31"
    },
    {
      "name": "クラブメッド北海道キロログランド The Ebisu",
      "name_kana": "クラブメッドホッカイドウキロログランドザエビス",
      "business_type": "① 飲食店営業",
      "address": "北海道余市郡赤井川村字常盤128番地1",
      "lat": 43.067333,
      "lng": 140.989032,
      "geocoding_level": null,
      "phone": "",
      "license_no": "21-266",
      "license_date": "2023-10-20",
      "expire_date": "2030-10-31"
    },
    {
      "name": "クラブメッド北海道キロログランド Alpine Brasserie",
      "name_kana": "クラブメッドホッカイドウキロログランドアルパインブラッセリー",
      "business_type": "① 飲食店営業",
      "address": "北海道余市郡赤井川村字常盤128番地1",
      "lat": 43.067333,
      "lng": 140.989032,
      "geocoding_level": null,
      "phone": "",
      "license_no": "21-265",
      "license_date": "2023-10-20",
      "expire_date": "2030-10-31"
    },
    {
      "name": "株式会社山中牧場",
      "name_kana": "カブシキガイシャヤマナカボクジョウ",
      "business_type": "⑬ その他の食料・飲料販売業",
      "address": "北海道余市郡赤井川村落合４７８番地１",
      "lat": 43.086815,
      "lng": 140.920819,
      "geocoding_level": null,
      "phone": "",
      "license_no": "",
      "license_date": null,
      "expire_date": null
    },
    {
      "name": "山中ミルクプラント",
      "name_kana": "ヤマナカミルクプラント",
      "business_type": "⑦ 乳処理業",
      "address": "北海道余市郡赤井川村落合４７８番地１",
      "lat": 43.086815,
      "lng": 140.920819,
      "geocoding_level": null,
      "phone": "0135-34-6711",
      "license_no": "21-253",
      "license_date": "2023-10-13",
      "expire_date": "2030-10-31"
    },
    {
      "name": "山中ミルクプラント",
      "name_kana": "ヤマナカミルクプラント",
      "business_type": "⑬ 乳製品製造業",
      "address": "北海道余市郡赤井川村落合４７８番地１",
      "lat": 43.086815,
      "lng": 140.920819,
      "geocoding_level": null,
      "phone": "0135-34-6711",
      "license_no": "21-253",
      "license_date": "2023-10-13",
      "expire_date": "2030-10-31"
    },
    {
      "name": "株式会社山中牧場",
      "name_kana": "カブシキガイシャヤマナカボクジョウ",
      "business_type": "① 飲食店営業",
      "address": "北海道余市郡赤井川村落合４７８番地１",
      "lat": 43.086815,
      "lng": 140.920819,
      "geocoding_level": null,
      "phone": "0135-34-6711",
      "license_no": "21-255",
      "license_date": "2023-10-13",
      "expire_date": "2030-10-31"
    },
    {
      "name": "株式会社山中牧場",
      "name_kana": "カブシキガイシャヤマナカボクジョウ",
      "business_type": "⑬ 乳製品製造業",
      "address": "北海道余市郡赤井川村落合４７８番地１",
      "lat": 43.086815,
      "lng": 140.920819,
      "geocoding_level": null,
      "phone": "0135-34-6711",
      "license_no": "21-254",
      "license_date": "2023-10-13",
      "expire_date": "2030-10-31"
    },
    {
      "name": "株式会社　山中牧場",
      "name_kana": "カブシキガイシャ　ヤマナカボクジョウ",
      "business_type": "⑪ 菓子製造業",
      "address": "北海道余市郡赤井川村落合478番地１",
      "lat": 43.086815,
      "lng": 140.920819,
      "geocoding_level": null,
      "phone": "",
      "license_no": "4-137",
      "license_date": "2024-06-12",
      "expire_date": "2031-10-31"
    },
    {
      "name": "山中牧場",
      "name_kana": "ヤマナカボクジョウ",
      "business_type": "⑮ 食肉製品製造業",
      "address": "北海道余市郡赤井川村落合478番地1",
      "lat": 43.086815,
      "lng": 140.920819,
      "geocoding_level": null,
      "phone": "0135-34-6711",
      "license_no": "14-339",
      "license_date": "2021-12-09",
      "expire_date": "2029-10-31"
    },
    {
      "name": "大成　JV後志トンネル",
      "name_kana": "タイセイ　ジェイブイシリベシトンネル",
      "business_type": "① 飲食店営業",
      "address": "北海道余市郡赤井川村字赤井川318-1",
      "lat": 43.08639,
      "lng": 140.812387,
      "geocoding_level": null,
      "phone": "",
      "license_no": "14-249",
      "license_date": "2021-10-05",
      "expire_date": "2027-10-31"
    },
    {
      "name": "成豊建設　赤井川食堂",
      "name_kana": "セイホウケンセツ　アカイガワショクドウ",
      "business_type": "① 飲食店営業",
      "address": "北海道余市郡赤井川村字都174-10",
      "lat": 43.04996,
      "lng": 140.83828,
      "geocoding_level": null,
      "phone": "",
      "license_no": "14-410",
      "license_date": "2022-02-28",
      "expire_date": "2028-10-31"
    },
    {
      "name": "東亜建設工業　赤井川食堂",
      "name_kana": "トウアケンセツコウギョウ　アカイガワショクドウ",
      "business_type": "① 飲食店営業",
      "address": "北海道余市郡赤井川村字都305-2",
      "lat": 43.053965,
      "lng": 140.83404,
      "geocoding_level": null,
      "phone": "",
      "license_no": "27-444",
      "license_date": "2023-01-26",
      "expire_date": "2029-10-31"
    },
    {
      "name": "東亜建設工業労務食堂",
      "name_kana": "トウアケンセツコウギョウロウムショクドウ",
      "business_type": "① 飲食店営業",
      "address": "北海道余市郡赤井川村字都188",
      "lat": 43.050824,
      "lng": 140.846997,
      "geocoding_level": null,
      "phone": "",
      "license_no": "21-120",
      "license_date": "2023-07-24",
      "expire_date": "2029-10-31"
    },
    {
      "name": "ブラッスリー　アカイガワ",
      "name_kana": "ブラッスリー　アカイガワ",
      "business_type": "① 飲食店営業",
      "address": "北海道余市郡赤井川村字常盤650",
      "lat": 43.077736,
      "lng": 140.980758,
      "geocoding_level": null,
      "phone": "0135-35-3122",
      "license_no": "27-385",
      "license_date": "2022-12-01",
      "expire_date": "2029-10-31"
    },
    {
      "name": "ピッツェリアアカイガワorカフェルリフト",
      "name_kana": "ピッツェリアアカイガワオアカフエルリフト",
      "business_type": "① 飲食店営業",
      "address": "北海道余市郡赤井川村字常盤650",
      "lat": 43.077736,
      "lng": 140.980758,
      "geocoding_level": null,
      "phone": "0135-35-3122",
      "license_no": "27-386",
      "license_date": "2022-12-01",
      "expire_date": "2029-10-31"
    },
    {
      "name": "クラブメッド・キロロ　The Kaen",
      "name_kana": "クラブメッド・キロロ　ザ　カエン",
      "business_type": "① 飲食店営業",
      "address": "北海道余市郡赤井川村字常盤128番地1",
      "lat": 43.067333,
      "lng": 140.989032,
      "geocoding_level": null,
      "phone": "0135-35-3117",
      "license_no": "27-389",
      "license_date": "2022-12-09",
      "expire_date": "2029-10-31"
    },
    {
      "name": "クラブメッド　キロロ・ピーク　ベーカリー",
      "name_kana": "クラブメッド　キロロ・ピーク　ベーカリー",
      "business_type": "⑪ 菓子製造業",
      "address": "北海道余市郡赤井川村字常盤650番地先",
      "lat": 43.077736,
      "lng": 140.980758,
      "geocoding_level": null,
      "phone": "",
      "license_no": "27-397",
      "license_date": "2022-12-14",
      "expire_date": "2030-10-31"
    },
    {
      "name": "KAKUREGA BAR",
      "name_kana": "カクレガ　バー",
      "business_type": "① 飲食店営業",
      "address": "北海道余市郡赤井川村常盤128番地1 2F",
      "lat": 43.075931,
      "lng": 140.982485,
      "geocoding_level": null,
      "phone": "0135-34-7171",
      "license_no": "30-379",
      "license_date": "2026-02-19",
      "expire_date": "2033-10-31"
    },
    {
      "name": "キッチンメープル",
      "name_kana": "キッチンメープル",
      "business_type": "② 食肉販売業（包装済みの食肉のみの販売）",
      "address": "北海道余市郡赤井川村都190-16",
      "lat": 43.051381,
      "lng": 140.844396,
      "geocoding_level": null,
      "phone": "",
      "license_no": "",
      "license_date": null,
      "expire_date": null
    },
    {
      "name": "やまでんファーム株式会社",
      "name_kana": "ヤマデンファームカブシキガイシャ",
      "business_type": "㉔ その他の食料品製造・加工業",
      "address": "北海道余市郡赤井川村字日ノ出２０３",
      "lat": 43.102849,
      "lng": 140.823342,
      "geocoding_level": null,
      "phone": "",
      "license_no": "",
      "license_date": null,
      "expire_date": null
    },
    {
      "name": "やまでんファーム株式会社",
      "name_kana": "ヤマデンファームカブシキガイシャ",
      "business_type": "① 飲食店営業",
      "address": "北海道余市郡赤井川村字日ノ出203番地",
      "lat": 43.102849,
      "lng": 140.823342,
      "geocoding_level": null,
      "phone": "0135-34-7890",
      "license_no": "後保生第14-366号",
      "license_date": "2022-01-13",
      "expire_date": "2027-10-31"
    },
    {
      "name": "隠れ家ココ",
      "name_kana": "カクレガココ",
      "business_type": "① 飲食店営業",
      "address": "北海道余市郡赤井川村常盤",
      "lat": 43.094586,
      "lng": 140.97299,
      "geocoding_level": null,
      "phone": "",
      "license_no": "27-229",
      "license_date": "2022-09-20",
      "expire_date": "2027-09-30"
    },
    {
      "name": "Yukashi",
      "name_kana": "ユカシ",
      "business_type": "① 飲食店営業",
      "address": "北海道余市郡赤井川村常盤128番地9 Yu Kiroro",
      "lat": 43.07469,
      "lng": 140.985255,
      "geocoding_level": null,
      "phone": "0135486785",
      "license_no": "27-342",
      "license_date": "2022-11-09",
      "expire_date": "2029-10-31"
    },
    {
      "name": "ペンションあかいがわ",
      "name_kana": "ペンションアカイガワ",
      "business_type": "① 飲食店営業",
      "address": "北海道余市郡赤井川村字赤井川７８－５",
      "lat": 43.080363,
      "lng": 140.812996,
      "geocoding_level": null,
      "phone": "",
      "license_no": "27-314",
      "license_date": "2022-10-18",
      "expire_date": "2028-10-31"
    },
    {
      "name": "ペンションあかいがわ",
      "name_kana": "ペンションアカイガワ",
      "business_type": "⑪ 菓子製造業",
      "address": "北海道余市郡赤井川村字赤井川７８－５",
      "lat": 43.080363,
      "lng": 140.812996,
      "geocoding_level": null,
      "phone": "",
      "license_no": "4-181",
      "license_date": "2024-07-18",
      "expire_date": "2030-10-31"
    },
    {
      "name": "オ・グルニエ",
      "name_kana": "オ・グルニエ",
      "business_type": "① 飲食店営業",
      "address": "北海道余市郡赤井川村字池田５８－１",
      "lat": 43.085436,
      "lng": 140.782605,
      "geocoding_level": null,
      "phone": "",
      "license_no": "27-409",
      "license_date": "2022-12-28",
      "expire_date": "2029-10-31"
    },
    {
      "name": "酒旅処KONTON",
      "name_kana": "サケタビドコロコントン",
      "business_type": "① 飲食店営業",
      "address": "北海道余市郡赤井川村字赤井川89",
      "lat": 43.083904,
      "lng": 140.816128,
      "geocoding_level": null,
      "phone": "",
      "license_no": "21-247",
      "license_date": "2023-10-05",
      "expire_date": "2028-10-31"
    },
    {
      "name": "CALDELOUNGE",
      "name_kana": "カルデラウンジ",
      "business_type": "① 飲食店営業",
      "address": "北海道余市郡赤井川村字都210-1",
      "lat": 43.054143,
      "lng": 140.862019,
      "geocoding_level": null,
      "phone": "090-9759-0313",
      "license_no": "後保生第27-4号",
      "license_date": "2022-04-13",
      "expire_date": "2028-10-31"
    },
    {
      "name": "カルデラ食堂　梅津",
      "name_kana": "カルデラショクドウ　ウメヅ",
      "business_type": "① 飲食店営業",
      "address": "北海道余市郡赤井川村字赤井川88番地",
      "lat": 43.083874,
      "lng": 140.815776,
      "geocoding_level": null,
      "phone": "0135-34-6633",
      "license_no": "後保生第14-248号",
      "license_date": "2021-10-05",
      "expire_date": "2026-10-31"
    },
    {
      "name": "本間食堂",
      "name_kana": "ホンマショクドウ",
      "business_type": "① 飲食店営業",
      "address": "北海道余市郡赤井川村字赤井川115-3",
      "lat": 43.080893,
      "lng": 140.81655,
      "geocoding_level": null,
      "phone": "080-6732-3613",
      "license_no": "21-96",
      "license_date": "2023-07-13",
      "expire_date": "2028-10-31"
    },
    {
      "name": "ミニキッチンうえ",
      "name_kana": "ミニキッチンウエ",
      "business_type": "① 飲食店営業",
      "address": "北海道余市郡赤井川村字落合268-3",
      "lat": 43.081377,
      "lng": 140.896708,
      "geocoding_level": null,
      "phone": "0135-34-7633",
      "license_no": "21-127",
      "license_date": "2023-07-25",
      "expire_date": "2029-10-31"
    },
    {
      "name": "手作り豆腐うえ",
      "name_kana": "テヅクリトウフウエ",
      "business_type": "㉒ 豆腐製造業",
      "address": "北海道余市郡赤井川村落合268-3",
      "lat": 43.081377,
      "lng": 140.896708,
      "geocoding_level": null,
      "phone": "090-6264-7633",
      "license_no": "21-184",
      "license_date": "2023-09-12",
      "expire_date": "2029-10-31"
    },
    {
      "name": "手造り豆腐うえ",
      "name_kana": "テヅクリトウフウエ",
      "business_type": "⑳ みそ又はしょうゆ製造業",
      "address": "北海道余市郡赤井川村落合２６８－３",
      "lat": 43.081377,
      "lng": 140.896708,
      "geocoding_level": null,
      "phone": "0135-35-3200",
      "license_no": "30-195",
      "license_date": "2025-10-15",
      "expire_date": "2031-10-31"
    },
    {
      "name": "ビレッジ",
      "name_kana": "ビレッジ",
      "business_type": "① 飲食店営業",
      "address": "北海道余市郡赤井川村字都１９０－１６",
      "lat": 43.051381,
      "lng": 140.844396,
      "geocoding_level": null,
      "phone": "0135-48-6227",
      "license_no": "21-276",
      "license_date": "2023-10-27",
      "expire_date": "2028-10-31"
    },
    {
      "name": "民宿あったべや",
      "name_kana": "ミンシュクアッタベヤ",
      "business_type": "① 飲食店営業",
      "address": "北海道余市郡赤井川村常盤１５９番地",
      "lat": 43.089145,
      "lng": 140.932611,
      "geocoding_level": null,
      "phone": "0135-34-6436",
      "license_no": "21-256",
      "license_date": "2023-10-13",
      "expire_date": "2029-10-31"
    },
    {
      "name": "永沼農園　リンフォレスト",
      "name_kana": "ナガヌマノウエン　リンフォレスト",
      "business_type": "① 飲食店営業",
      "address": "北海道余市郡赤井川村赤井川６８－６",
      "lat": 43.080098,
      "lng": 140.810724,
      "geocoding_level": null,
      "phone": "0135-34-6770",
      "license_no": "21-257",
      "license_date": "2023-10-13",
      "expire_date": "2029-10-31"
    },
    {
      "name": "永沼農園　リンフォレスト",
      "name_kana": "ナガヌマノウエン　リンフォレスト",
      "business_type": "⑪ 菓子製造業",
      "address": "北海道余市郡赤井川村赤井川６８－６",
      "lat": 43.080098,
      "lng": 140.810724,
      "geocoding_level": null,
      "phone": "0135-34-6770",
      "license_no": "21-257",
      "license_date": "2023-10-13",
      "expire_date": "2029-10-31"
    },
    {
      "name": "ひるねの里",
      "name_kana": "ヒルネノサト",
      "business_type": "⑭ 清涼飲料水製造業",
      "address": "北海道余市郡赤井川村字赤井川２１２番地３",
      "lat": 43.089864,
      "lng": 140.839652,
      "geocoding_level": null,
      "phone": "0135-34-6232",
      "license_no": "21-258",
      "license_date": "2023-10-13",
      "expire_date": "2028-10-31"
    },
    {
      "name": "ひるねの里",
      "name_kana": "ヒルネノサト",
      "business_type": "① 飲食店営業",
      "address": "北海道余市郡赤井川村字赤井川212番地３",
      "lat": 43.089864,
      "lng": 140.839652,
      "geocoding_level": null,
      "phone": "",
      "license_no": "4-134",
      "license_date": "2024-06-11",
      "expire_date": "2029-10-31"
    },
    {
      "name": "ひるねの里",
      "name_kana": "ヒルネノサト",
      "business_type": "⑮ 食肉製品製造業",
      "address": "北海道余市郡赤井川村赤井川212-3",
      "lat": 43.089864,
      "lng": 140.839652,
      "geocoding_level": null,
      "phone": "0135346232",
      "license_no": "4-264",
      "license_date": "2024-10-17",
      "expire_date": "2030-10-31"
    },
    {
      "name": "キロロマート",
      "name_kana": "キロロマート",
      "business_type": "⑩ コンビニエンスストア",
      "address": "北海道余市郡赤井川村常盤１２８番地１",
      "lat": 43.075915,
      "lng": 140.982477,
      "geocoding_level": null,
      "phone": "07076494266",
      "license_no": "",
      "license_date": null,
      "expire_date": null
    },
    {
      "name": "ＳＨＩＲＯ",
      "name_kana": "シロ",
      "business_type": "① 飲食店営業",
      "address": "北海道余市郡赤井川村常盤３７０－２０",
      "lat": 43.077976,
      "lng": 140.978016,
      "geocoding_level": null,
      "phone": "0135-34-7111",
      "license_no": "21-374",
      "license_date": "2023-12-11",
      "expire_date": "2030-10-31"
    },
    {
      "name": "ふぁーむ地球家族あかいがわ",
      "name_kana": "ファームチキュウカゾクアカイガワ",
      "business_type": "㉔ その他の食料品製造・加工業",
      "address": "北海道余市郡赤井川村都１９０－１６ 道の駅あかいがわ",
      "lat": 43.051419,
      "lng": 140.844384,
      "geocoding_level": null,
      "phone": "",
      "license_no": "",
      "license_date": null,
      "expire_date": null
    },
    {
      "name": "ふぁーむ　地球家族　あかいがわ",
      "name_kana": "ファーム　チキュウカゾク　アカイガワ",
      "business_type": "⑦ 野菜果物販売業",
      "address": "北海道余市郡赤井川村赤井川209-2（自動車保管場所）（全道一円）",
      "lat": 43.087155,
      "lng": 140.841091,
      "geocoding_level": null,
      "phone": "",
      "license_no": "",
      "license_date": null,
      "expire_date": null
    },
    {
      "name": "セイコーマート　赤井川",
      "name_kana": "セイコーマート　アカイガワ",
      "business_type": "⑩ コンビニエンスストア",
      "address": "北海道余市郡赤井川村字赤井川285番地1",
      "lat": 43.084403,
      "lng": 140.816361,
      "geocoding_level": null,
      "phone": "0135-34-6636",
      "license_no": "",
      "license_date": null,
      "expire_date": null
    },
    {
      "name": "あさひおか農園",
      "name_kana": "アサヒオカノウエン",
      "business_type": "⑪ 菓子製造業",
      "address": "北海道余市郡赤井川村字旭丘８８",
      "lat": 43.063786,
      "lng": 140.813108,
      "geocoding_level": null,
      "phone": "",
      "license_no": "21-484",
      "license_date": "2024-03-12",
      "expire_date": "2030-10-31"
    },
    {
      "name": "ＡＫＡＩＧＡＷＡ ＴＯＭＯ ＰＬＡＹＰＡＲＫ",
      "name_kana": "アカイガワトモプレイパーク",
      "business_type": "① 飲食店営業",
      "address": "北海道余市郡赤井川村明治５６",
      "lat": 43.031862,
      "lng": 140.865618,
      "geocoding_level": null,
      "phone": "",
      "license_no": "21-483",
      "license_date": "2024-03-12",
      "expire_date": "2030-10-31"
    },
    {
      "name": "AKAIGAWA TOMO PLAYPARK",
      "name_kana": "アカイガワ トモ プレイパーク",
      "business_type": "⑬ その他の食料・飲料販売業",
      "address": "北海道余市郡赤井川村明治56",
      "lat": 43.031862,
      "lng": 140.865618,
      "geocoding_level": null,
      "phone": "0135-34-7575",
      "license_no": "",
      "license_date": null,
      "expire_date": null
    },
    {
      "name": "赤井川コロポックル村",
      "name_kana": "アカイガワコロポックルムラ",
      "business_type": "㉙ 漬物製造業",
      "address": "北海道余市郡赤井川村字都209番地",
      "lat": 43.053879,
      "lng": 140.86026,
      "geocoding_level": null,
      "phone": "0135-34-6434",
      "license_no": "後保生第14-252号",
      "license_date": "2021-10-14",
      "expire_date": "2027-10-31"
    },
    {
      "name": "赤井川コロポックル村",
      "name_kana": "アカイガワコロポックルムラ",
      "business_type": "⑮ 食肉製品製造業",
      "address": "北海道余市郡赤井川村字都209番地",
      "lat": 43.053879,
      "lng": 140.86026,
      "geocoding_level": null,
      "phone": "",
      "license_no": "4-259",
      "license_date": "2024-10-10",
      "expire_date": "2030-10-31"
    },
    {
      "name": "ファーム月うさ",
      "name_kana": "ファームツキウサ",
      "business_type": "⑪ 菓子製造業",
      "address": "北海道余市郡赤井川村字赤井川５１４－１",
      "lat": 43.092977,
      "lng": 140.826986,
      "geocoding_level": null,
      "phone": "",
      "license_no": "4-135",
      "license_date": "2024-06-11",
      "expire_date": "2030-10-31"
    },
    {
      "name": "ファーム月うさ",
      "name_kana": "ファームツキウサ",
      "business_type": "㉙ 漬物製造業",
      "address": "北海道余市郡赤井川村字赤井川５１４－１",
      "lat": 43.092977,
      "lng": 140.826986,
      "geocoding_level": null,
      "phone": "",
      "license_no": "4-135",
      "license_date": "2024-06-11",
      "expire_date": "2030-10-31"
    },
    {
      "name": "道の駅　あかいがわ",
      "name_kana": "ミチノエキ　アカイガワ",
      "business_type": "① 飲食店営業",
      "address": "北海道余市郡赤井川村字都190番地16",
      "lat": 43.051381,
      "lng": 140.844396,
      "geocoding_level": null,
      "phone": "0135-34-6699",
      "license_no": "4-140",
      "license_date": "2024-06-12",
      "expire_date": "2030-10-31"
    },
    {
      "name": "道の駅　あかいがわ",
      "name_kana": "ミチノエキ　アカイガワ",
      "business_type": "⑪ 菓子製造業",
      "address": "北海道余市郡赤井川村字都190番地16",
      "lat": 43.051381,
      "lng": 140.844396,
      "geocoding_level": null,
      "phone": "0135-34-6699",
      "license_no": "4-141",
      "license_date": "2024-06-12",
      "expire_date": "2030-10-31"
    },
    {
      "name": "安達旅館",
      "name_kana": "アダチリョカン",
      "business_type": "① 飲食店営業",
      "address": "北海道余市郡赤井川村赤井川289-5",
      "lat": 43.085746,
      "lng": 140.815265,
      "geocoding_level": null,
      "phone": "0135-34-6621",
      "license_no": "4-214",
      "license_date": "2024-09-10",
      "expire_date": "2029-10-31"
    },
    {
      "name": "キッチンメープル",
      "name_kana": "キッチンメープル",
      "business_type": "② 食肉販売業（包装済みの食肉のみの販売）",
      "address": "北海道余市郡赤井川村都190-16 道の駅あかいがわ",
      "lat": 43.051381,
      "lng": 140.844396,
      "geocoding_level": null,
      "phone": "0136555986",
      "license_no": "",
      "license_date": null,
      "expire_date": null
    },
    {
      "name": "キッチン　メープル",
      "name_kana": "キッチン　メープル",
      "business_type": "① 飲食店営業",
      "address": "北海道余市郡赤井川村都190番地16 道の駅あかいがわ内",
      "lat": 43.051381,
      "lng": 140.844396,
      "geocoding_level": null,
      "phone": "0135-34-6699",
      "license_no": "21",
      "license_date": "2023-04-07",
      "expire_date": "2029-10-31"
    },
    {
      "name": "キッチンメープル",
      "name_kana": "キッチンメープル",
      "business_type": "③ 食肉販売業",
      "address": "北海道余市郡赤井川村都190-16",
      "lat": 43.051381,
      "lng": 140.844396,
      "geocoding_level": null,
      "phone": "",
      "license_no": "4-152",
      "license_date": "2024-06-20",
      "expire_date": "2029-10-31"
    },
    {
      "name": "キッチンメープル",
      "name_kana": "キッチンメープル",
      "business_type": "④ 魚介類販売業",
      "address": "北海道余市郡赤井川村都１９０－１６ 道の駅あかいがわ内",
      "lat": 43.051381,
      "lng": 140.844396,
      "geocoding_level": null,
      "phone": "090-5224-8424",
      "license_no": "21-70",
      "license_date": "2023-06-22",
      "expire_date": "2029-10-31"
    },
    {
      "name": "キッチンメープル通り",
      "name_kana": "キッチンメープルドオリ",
      "business_type": "① 飲食店営業",
      "address": "北海道余市郡赤井川村都190-16 道の駅あかいがわ",
      "lat": 43.051381,
      "lng": 140.844396,
      "geocoding_level": null,
      "phone": "0135-34-6699",
      "license_no": "14-258",
      "license_date": "2021-10-15",
      "expire_date": "2027-10-31"
    },
    {
      "name": "Village（ビレッジ）",
      "name_kana": "ビレッジ",
      "business_type": "① 飲食店営業",
      "address": "北海道余市郡赤井川村都190-16 道の駅あかいがわ",
      "lat": 43.051381,
      "lng": 140.844396,
      "geocoding_level": null,
      "phone": "0135-34-6699",
      "license_no": "14-257",
      "license_date": "2021-10-15",
      "expire_date": "2026-10-31"
    },
    {
      "name": "村の燈",
      "name_kana": "ムラノアカリ",
      "business_type": "① 飲食店営業",
      "address": "北海道余市郡赤井川村字常盤４４３－１",
      "lat": 43.091039,
      "lng": 140.952191,
      "geocoding_level": null,
      "phone": "",
      "license_no": "30-407",
      "license_date": "2026-03-30",
      "expire_date": "2032-10-31"
    },
    {
      "name": "赤井川珈琲",
      "name_kana": "アカイガワコーヒー",
      "business_type": "⑬ その他の食料・飲料販売業",
      "address": "北海道余市郡赤井川村都226-30",
      "lat": 43.05806,
      "lng": 140.868755,
      "geocoding_level": null,
      "phone": "09022650647",
      "license_no": "",
      "license_date": null,
      "expire_date": null
    },
    {
      "name": "赤井川珈琲",
      "name_kana": "アカイガワコーヒー",
      "business_type": "⑯ コーヒー製造・加工業（飲料の製造を除く。）",
      "address": "北海道余市郡赤井川村都226-30",
      "lat": 43.05806,
      "lng": 140.868755,
      "geocoding_level": null,
      "phone": "09022650647",
      "license_no": "",
      "license_date": null,
      "expire_date": null
    },
    {
      "name": "カルデラの手造りみそ",
      "name_kana": "カルデラノテヅクリミソ",
      "business_type": "⑳ みそ又はしょうゆ製造業",
      "address": "北海道余市郡赤井川村赤井川２８５番地",
      "lat": 43.08439,
      "lng": 140.816366,
      "geocoding_level": null,
      "phone": "0135-34-6153",
      "license_no": "後保生第30-199",
      "license_date": "2025-10-15",
      "expire_date": "2030-10-31"
    },
    {
      "name": "ciel 喰い処",
      "name_kana": "シエル　クイドコロ",
      "business_type": "① 飲食店営業",
      "address": "北海道余市郡赤井川村字都210番地１",
      "lat": 43.054143,
      "lng": 140.862019,
      "geocoding_level": null,
      "phone": "",
      "license_no": "30-219",
      "license_date": "2025-10-31",
      "expire_date": "2030-10-31"
    },
    {
      "name": "（株）あったべや",
      "name_kana": "カブ　アッタベヤ",
      "business_type": "⑬ その他の食料・飲料販売業",
      "address": "北海道余市郡赤井川村常盤１５９",
      "lat": 43.089157,
      "lng": 140.932624,
      "geocoding_level": null,
      "phone": "",
      "license_no": "",
      "license_date": null,
      "expire_date": null
    },
    {
      "name": "WDC WAFFLES",
      "name_kana": "ダブルディーシー　ワッフルス",
      "business_type": "① 飲食店営業",
      "address": "北海道余市郡赤井川村字常盤128番地1",
      "lat": 43.075931,
      "lng": 140.982485,
      "geocoding_level": null,
      "phone": "090-9438-8476",
      "license_no": "30-297",
      "license_date": "2025-12-09",
      "expire_date": "2032-10-31"
    },
    {
      "name": "ファームさや",
      "name_kana": "ファームサヤ",
      "business_type": "⑰ 農産保存食料品製造・加工業",
      "address": "北海道余市郡赤井川村日ノ出１４２",
      "lat": 43.11088,
      "lng": 140.819366,
      "geocoding_level": null,
      "phone": "",
      "license_no": "",
      "license_date": null,
      "expire_date": null
    },
    {
      "name": "しらかば寮",
      "name_kana": "シラカバリョウ",
      "business_type": "① 飲食店営業",
      "address": "北海道余市郡赤井川村常盤191番地1",
      "lat": 43.09127,
      "lng": 140.946308,
      "geocoding_level": null,
      "phone": "",
      "license_no": "21-273",
      "license_date": "2023-10-23",
      "expire_date": "2029-10-31"
    },
    {
      "name": "クラブメッド・キロロピーク",
      "name_kana": "クラブメッド・キロロピーク",
      "business_type": "① 飲食店営業",
      "address": "北海道余市郡赤井川村常盤128番地1",
      "lat": 43.075931,
      "lng": 140.982485,
      "geocoding_level": null,
      "phone": "",
      "license_no": "21-274",
      "license_date": "2023-10-23",
      "expire_date": "2029-10-31"
    },
    {
      "name": "クラブメッド・キロログランド",
      "name_kana": "クラブメッド・キロログランド",
      "business_type": "① 飲食店営業",
      "address": "北海道余市郡赤井川村常盤128番地1",
      "lat": 43.075931,
      "lng": 140.982485,
      "geocoding_level": null,
      "phone": "",
      "license_no": "21-275",
      "license_date": "2023-10-23",
      "expire_date": "2029-10-31"
    },
    {
      "name": "道の駅あかいがわ農産物直売所",
      "name_kana": "ミチノエキアカイガワノウサンブツチョクバイジョ",
      "business_type": "⑬ その他の食料・飲料販売業",
      "address": "北海道余市郡赤井川村都190番地１６",
      "lat": 43.051381,
      "lng": 140.844396,
      "geocoding_level": null,
      "phone": "",
      "license_no": "",
      "license_date": null,
      "expire_date": null
    }
  ]
}
