{
  "meta": {
    "updated": 1783568789,
    "sources": [
      {
        "source": "厚生労働省 食品衛生申請等システム（オープンデータ）",
        "license": "公共データ利用規約（第1.0版, PDL1.0）"
      }
    ]
  },
  "data": [
    {
      "name": "ケミコン山形　食堂",
      "name_kana": "ケミコンヤマガタ　ショクドウ",
      "business_type": "⑤ コップ式自動販売機（自動洗浄・屋内設置）",
      "address": "山形県東置賜郡川西町大字上小松2465",
      "lat": 37.999496,
      "lng": 140.044005,
      "geocoding_level": null,
      "phone": "0238-42-3135",
      "license_no": "",
      "license_date": null,
      "expire_date": null
    },
    {
      "name": "ヤマザワ川西店",
      "name_kana": "ヤマザワカワニシテン",
      "business_type": "⑪ 百貨店、総合スーパー",
      "address": "山形県東置賜郡川西町上小松1143-1",
      "lat": 38.002539,
      "lng": 140.051466,
      "geocoding_level": null,
      "phone": "0238-42-3833",
      "license_no": "",
      "license_date": null,
      "expire_date": null
    },
    {
      "name": "ヤマザワ川西メディカルタウン店",
      "name_kana": "ヤマザワカワニシメディカルタウンテン",
      "business_type": "① 飲食店営業",
      "address": "山形県東置賜郡川西町西大塚１３９０番地３",
      "lat": 38.047094,
      "lng": 140.059537,
      "geocoding_level": null,
      "phone": "0238-49-8228",
      "license_no": "2010",
      "license_date": "2023-04-18",
      "expire_date": "2030-03-31"
    },
    {
      "name": "ヤマザワ川西メディカルタウン店",
      "name_kana": "ヤマザワカワニシメディカルタウンテン",
      "business_type": "⑪ 菓子製造業",
      "address": "山形県東置賜郡川西町西大塚１３９０番地３",
      "lat": 38.047094,
      "lng": 140.059537,
      "geocoding_level": null,
      "phone": "0238-49-8228",
      "license_no": "2011",
      "license_date": "2023-04-18",
      "expire_date": "2030-03-31"
    },
    {
      "name": "ヤマザワ川西メディカルタウン店",
      "name_kana": "ヤマザワカワニシメディカルタウンテン",
      "business_type": "③ 食肉販売業",
      "address": "山形県東置賜郡川西町西大塚１３９０番地３",
      "lat": 38.047094,
      "lng": 140.059537,
      "geocoding_level": null,
      "phone": "0238-49-8228",
      "license_no": "2012",
      "license_date": "2023-04-18",
      "expire_date": "2030-03-31"
    },
    {
      "name": "ヤマザワ川西メディカルタウン店",
      "name_kana": "ヤマザワカワニシメディカルタウンテン",
      "business_type": "④ 魚介類販売業",
      "address": "山形県東置賜郡川西町西大塚１３９０番地３",
      "lat": 38.047094,
      "lng": 140.059537,
      "geocoding_level": null,
      "phone": "0238-49-8228",
      "license_no": "2013",
      "license_date": "2023-04-18",
      "expire_date": "2030-03-31"
    },
    {
      "name": "ヤマザワ川西メディカルタウン店",
      "name_kana": "ヤマザワカワニシメディカルタウンテン",
      "business_type": "⑪ 百貨店、総合スーパー",
      "address": "山形県東置賜郡川西町西大塚1390 番地 3",
      "lat": 38.047094,
      "lng": 140.059537,
      "geocoding_level": null,
      "phone": "0238-49-8228",
      "license_no": "",
      "license_date": null,
      "expire_date": null
    },
    {
      "name": "ヤマザワ川西店",
      "name_kana": "ヤマザワカワニシテン",
      "business_type": "㉕ そうざい製造業",
      "address": "山形県東置賜郡川西町上小松１１４３－１",
      "lat": 38.002539,
      "lng": 140.051466,
      "geocoding_level": null,
      "phone": "0238-42-3833",
      "license_no": "2494",
      "license_date": "2025-03-12",
      "expire_date": "2031-03-31"
    },
    {
      "name": "ヤマザワ川西店",
      "name_kana": "ヤマザワカワニシテン",
      "business_type": "③ 食肉販売業",
      "address": "山形県東置賜郡川西町上小松１１４３－１",
      "lat": 38.002539,
      "lng": 140.051466,
      "geocoding_level": null,
      "phone": "0238-42-3833",
      "license_no": "2495",
      "license_date": "2025-03-12",
      "expire_date": "2031-03-31"
    },
    {
      "name": "ヤマザワ川西店",
      "name_kana": "ヤマザワカワニシテン",
      "business_type": "④ 魚介類販売業",
      "address": "山形県東置賜郡川西町上小松１１４３－１",
      "lat": 38.001944418,
      "lng": 140.051286939,
      "geocoding_level": 8,
      "phone": "0238-42-3833",
      "license_no": "2496",
      "license_date": "2025-03-12",
      "expire_date": "2031-03-31"
    },
    {
      "name": "ヤマザワ川西店",
      "name_kana": "ヤマザワカワニシテン",
      "business_type": "① 飲食店営業",
      "address": "山形県東置賜郡川西町上小松１１４３－１",
      "lat": 38.001944418,
      "lng": 140.051286939,
      "geocoding_level": 8,
      "phone": "0238-42-3833",
      "license_no": "2497",
      "license_date": "2025-03-12",
      "expire_date": "2031-03-31"
    },
    {
      "name": "島貫電気",
      "name_kana": "シマヌキデンキ",
      "business_type": "⑤ コップ式自動販売機（自動洗浄・屋内設置）",
      "address": "山形県東置賜郡川西町洲島６３－１",
      "lat": 38.003147,
      "lng": 140.113588,
      "geocoding_level": null,
      "phone": "0238-44-2565",
      "license_no": "",
      "license_date": null,
      "expire_date": null
    },
    {
      "name": "山形南カントリークラブ",
      "name_kana": "ヤマガタミナミカントリークラブ",
      "business_type": "⑤ コップ式自動販売機（自動洗浄・屋内設置）",
      "address": "山形県東置賜郡川西町上小松5163",
      "lat": 38.00911,
      "lng": 140.020762,
      "geocoding_level": null,
      "phone": "0238-54-0412",
      "license_no": "",
      "license_date": null,
      "expire_date": null
    },
    {
      "name": "ヤマザワ川西店(従食ＣＶＭ)",
      "name_kana": "ヤマザワカワニシテンジュウショクシーブイエム",
      "business_type": "⑤ コップ式自動販売機（自動洗浄・屋内設置）",
      "address": "山形県東置賜郡川西町上小松1143-1",
      "lat": 38.002775,
      "lng": 140.051447,
      "geocoding_level": null,
      "phone": "0238-42-3833",
      "license_no": "",
      "license_date": null,
      "expire_date": null
    },
    {
      "name": "株式会社　薬王堂　山形川西店",
      "name_kana": "カブシキガイシャ　ヤクオウドウ　ヤマガタカワニシテン",
      "business_type": "⑬ その他の食料・飲料販売業",
      "address": "山形県東置賜郡川西町大字中小松2505番地1",
      "lat": 38.012693,
      "lng": 140.05508,
      "geocoding_level": null,
      "phone": "0238-46-2150",
      "license_no": "",
      "license_date": null,
      "expire_date": null
    },
    {
      "name": "きらり産直市場",
      "name_kana": "キラリサンチョクイチバ",
      "business_type": "⑦ 野菜果物販売業",
      "address": "山形県東置賜郡川西町吉田字的場5886-1番地",
      "lat": 38.004431,
      "lng": 140.045859,
      "geocoding_level": null,
      "phone": "0238-44-2840",
      "license_no": "",
      "license_date": null,
      "expire_date": null
    },
    {
      "name": "まんま屋",
      "name_kana": "マンマヤ",
      "business_type": "① 飲食店営業",
      "address": "山形県東置賜郡川西町吉田字的場5886-1",
      "lat": 38.004431,
      "lng": 140.045859,
      "geocoding_level": null,
      "phone": "0238-44-2840",
      "license_no": "2588",
      "license_date": "2024-03-04",
      "expire_date": "2029-03-31"
    },
    {
      "name": "きらりよしじまネットワーク",
      "name_kana": "キラリヨシジマネットワーク",
      "business_type": "① 飲食店営業",
      "address": "山形県東置賜郡川西町ほか県内一円",
      "lat": 38.004431,
      "lng": 140.045859,
      "geocoding_level": null,
      "phone": "",
      "license_no": "2031",
      "license_date": "2024-04-25",
      "expire_date": "2029-04-30"
    },
    {
      "name": "うめや川西店",
      "name_kana": "ウメヤカワニシテン",
      "business_type": "⑤ コップ式自動販売機（自動洗浄・屋内設置）",
      "address": "山形県東置賜郡川西町大字上小松1216-2",
      "lat": 38.001362,
      "lng": 140.050814,
      "geocoding_level": null,
      "phone": "0238-42-4626",
      "license_no": "",
      "license_date": null,
      "expire_date": null
    },
    {
      "name": "(株)エムジー",
      "name_kana": "カブシキカイシャエムジー",
      "business_type": "⑤ コップ式自動販売機（自動洗浄・屋内設置）",
      "address": "山形県東置賜郡川西町大字中小松2146",
      "lat": 38.019653,
      "lng": 140.056073,
      "geocoding_level": null,
      "phone": "0238-42-4101",
      "license_no": "",
      "license_date": null,
      "expire_date": null
    },
    {
      "name": "山形県総合コロニー希望が丘",
      "name_kana": "ヤマガタケンソウゴウコロニーキボウガオカ",
      "business_type": "㉖ 集団給食施設",
      "address": "山形県東置賜郡川西町大字下小松２０４５番地の２０",
      "lat": 38.041964,
      "lng": 140.039183,
      "geocoding_level": null,
      "phone": "0238424166",
      "license_no": "",
      "license_date": null,
      "expire_date": null
    },
    {
      "name": "希望が丘デイサポートまつかぜ",
      "name_kana": "キボウガオカデイサポートマツカゼ",
      "business_type": "㉖ 集団給食施設",
      "address": "山形県東置賜郡川西町高山1913",
      "lat": 38.004431,
      "lng": 140.045859,
      "geocoding_level": null,
      "phone": "0238279706",
      "license_no": "",
      "license_date": null,
      "expire_date": null
    },
    {
      "name": "特別養護老人ホーム　そよ風の森",
      "name_kana": "トクベツヨウゴロウジンホーム　ソヨカゼノモリ",
      "business_type": "① 飲食店営業",
      "address": "山形県東置賜郡川西町時田１４１７",
      "lat": 37.984837251,
      "lng": 140.063896307,
      "geocoding_level": 8,
      "phone": "0238-54-1085",
      "license_no": "2604",
      "license_date": "2024-03-12",
      "expire_date": "2030-03-31"
    },
    {
      "name": "置賜総合病院　売店（１Ｆ）",
      "name_kana": "オキタマソウゴウビョウイン　バイテン",
      "business_type": "② 調理機能を有する自動販売機（要許可）",
      "address": "山形県東置賜郡川西町西大塚２０００",
      "lat": 38.05108,
      "lng": 140.056755,
      "geocoding_level": null,
      "phone": "0238-42-5107",
      "license_no": "2112",
      "license_date": "2021-06-30",
      "expire_date": "2027-06-30"
    },
    {
      "name": "有限会社　酢屋吉正",
      "name_kana": "ユウゲンガイシャ　スヤキッショウ",
      "business_type": "⑳ みそ又はしょうゆ製造業",
      "address": "山形県東置賜郡川西町上小松2540-1",
      "lat": 38.002377,
      "lng": 140.031057,
      "geocoding_level": 3,
      "phone": "0238-42-2052",
      "license_no": "2520",
      "license_date": "2022-03-15",
      "expire_date": "2027-03-31"
    },
    {
      "name": "酢屋糀店",
      "name_kana": "スヤコウジテン",
      "business_type": "① 飲食店営業",
      "address": "山形県東置賜郡川西町上小松2540-1",
      "lat": 38.002377,
      "lng": 140.031057,
      "geocoding_level": 3,
      "phone": "0238-42-2052",
      "license_no": "2521",
      "license_date": "2022-03-15",
      "expire_date": "2027-03-31"
    },
    {
      "name": "有限会社　酢屋吉正",
      "name_kana": "ユウゲンガイシャ　スヤキッショウ",
      "business_type": "㉙ 漬物製造業",
      "address": "山形県東置賜郡川西町上小松2540-1",
      "lat": 38.002377,
      "lng": 140.031057,
      "geocoding_level": 3,
      "phone": "0238-42-2052",
      "license_no": "2138",
      "license_date": "2024-06-07",
      "expire_date": "2030-03-31"
    },
    {
      "name": "川西浴浴センターまどか",
      "name_kana": "カワニシヨクヨクセンターマドカ",
      "business_type": "⑫ 自動販売機による販売業（コップ式自動販売機（自動洗浄・屋内設置）及び営業許可の対象となる自動販売機を除く）",
      "address": "山形県東置賜郡川西町上小松5095-36",
      "lat": 38.001824,
      "lng": 140.031456,
      "geocoding_level": null,
      "phone": "",
      "license_no": "",
      "license_date": null,
      "expire_date": null
    },
    {
      "name": "ひらせいホームセンター川西店",
      "name_kana": "ヒラセイホームセンターカワニシテン",
      "business_type": "① 魚介類販売業（包装済みの魚介類のみの販売）",
      "address": "山形県東置賜郡川西町中小松字田仲２５０５－１",
      "lat": 38.013198,
      "lng": 140.052695,
      "geocoding_level": null,
      "phone": "0238-54-0900",
      "license_no": "",
      "license_date": null,
      "expire_date": null
    },
    {
      "name": "ひらせいホームセンター川西店",
      "name_kana": "ヒラセイホームセンターカワニシテン",
      "business_type": "② 食肉販売業（包装済みの食肉のみの販売）",
      "address": "山形県東置賜郡川西町中小松字田仲２５０５－１",
      "lat": 38.013198,
      "lng": 140.052695,
      "geocoding_level": null,
      "phone": "0238-54-0900",
      "license_no": "",
      "license_date": null,
      "expire_date": null
    },
    {
      "name": "ひらせいホームセンター川西店",
      "name_kana": "ヒラセイホームセンターカワニシテン",
      "business_type": "③ 乳類販売業",
      "address": "山形県東置賜郡川西町中小松字田仲２５０５－１",
      "lat": 38.013198,
      "lng": 140.052695,
      "geocoding_level": null,
      "phone": "0238-54-0900",
      "license_no": "",
      "license_date": null,
      "expire_date": null
    },
    {
      "name": "鈴木修一",
      "name_kana": "スズキシュウイチ",
      "business_type": "⑰ 農産保存食料品製造・加工業",
      "address": "山形県東置賜郡川西町堀金974",
      "lat": 37.981971,
      "lng": 140.080997,
      "geocoding_level": null,
      "phone": "0238-42-2070",
      "license_no": "",
      "license_date": null,
      "expire_date": null
    },
    {
      "name": "加藤敏弘",
      "name_kana": "カトウトシヒロ",
      "business_type": "⑰ 農産保存食料品製造・加工業",
      "address": "山形県東置賜郡川西町上小松4809-1",
      "lat": 37.993528,
      "lng": 140.011425,
      "geocoding_level": null,
      "phone": "090-5838-0171",
      "license_no": "",
      "license_date": null,
      "expire_date": null
    },
    {
      "name": "髙橋昌作",
      "name_kana": "タカハシショウサク",
      "business_type": "⑰ 農産保存食料品製造・加工業",
      "address": "山形県東置賜郡川西町下小松253",
      "lat": 38.014977,
      "lng": 140.043318,
      "geocoding_level": null,
      "phone": "090-6789-9553",
      "license_no": "",
      "license_date": null,
      "expire_date": null
    },
    {
      "name": "鈴木正",
      "name_kana": "スズキタダシ",
      "business_type": "⑰ 農産保存食料品製造・加工業",
      "address": "山形県東置賜郡川西町高豆蒄316-1",
      "lat": 38.018906,
      "lng": 140.072267,
      "geocoding_level": null,
      "phone": "0238-42-6773",
      "license_no": "",
      "license_date": null,
      "expire_date": null
    },
    {
      "name": "鈴木農園",
      "name_kana": "スズキノウエン",
      "business_type": "㉙ 漬物製造業",
      "address": "山形県東置賜郡川西町高豆蒄316-1",
      "lat": 38.018753,
      "lng": 140.071778,
      "geocoding_level": 3,
      "phone": "0238-42-6773",
      "license_no": "2632",
      "license_date": "2024-03-28",
      "expire_date": "2029-03-31"
    },
    {
      "name": "鈴木農園",
      "name_kana": "スズキノウエン",
      "business_type": "⑪ 菓子製造業",
      "address": "山形県東置賜郡川西町大字高豆蒄３１６－１",
      "lat": 38.018753,
      "lng": 140.071778,
      "geocoding_level": 3,
      "phone": "0238426773",
      "license_no": "2506",
      "license_date": "2026-03-04",
      "expire_date": "2031-03-31"
    },
    {
      "name": "よしじま四季の市加工所",
      "name_kana": "ヨシジマシキノイチカコウジョ",
      "business_type": "⑰ 農産保存食料品製造・加工業",
      "address": "山形県東置賜郡川西町洲島2081",
      "lat": 38.016195,
      "lng": 140.123382,
      "geocoding_level": null,
      "phone": "0238-44-2628",
      "license_no": "",
      "license_date": null,
      "expire_date": null
    },
    {
      "name": "渡部富士夫",
      "name_kana": "ワタナベフジオ",
      "business_type": "⑰ 農産保存食料品製造・加工業",
      "address": "山形県東置賜郡川西町玉庭1271",
      "lat": 37.925415,
      "lng": 139.984251,
      "geocoding_level": null,
      "phone": "0238-48-2707",
      "license_no": "",
      "license_date": null,
      "expire_date": null
    },
    {
      "name": "小鳥遊工房",
      "name_kana": "タカナシコウボウ",
      "business_type": "⑰ 農産保存食料品製造・加工業",
      "address": "山形県東置賜郡川西町吉田3398",
      "lat": 38.004431,
      "lng": 140.045859,
      "geocoding_level": null,
      "phone": "0238-44-2592",
      "license_no": "",
      "license_date": null,
      "expire_date": null
    },
    {
      "name": "遠藤久子",
      "name_kana": "エンドウヒサコ",
      "business_type": "⑰ 農産保存食料品製造・加工業",
      "address": "山形県東置賜郡川西町尾長島2936-1",
      "lat": 37.983587,
      "lng": 140.103769,
      "geocoding_level": null,
      "phone": "0238-44-2171",
      "license_no": "",
      "license_date": null,
      "expire_date": null
    },
    {
      "name": "島貫みほ",
      "name_kana": "シマヌキミホ",
      "business_type": "⑰ 農産保存食料品製造・加工業",
      "address": "山形県東置賜郡川西町吉田3601",
      "lat": 38.004431,
      "lng": 140.045859,
      "geocoding_level": null,
      "phone": "0238-44-2032",
      "license_no": "",
      "license_date": null,
      "expire_date": null
    },
    {
      "name": "渋谷千代",
      "name_kana": "シブヤチヨ",
      "business_type": "⑰ 農産保存食料品製造・加工業",
      "address": "山形県東置賜郡川西町堀金2076",
      "lat": 37.988608,
      "lng": 140.075515,
      "geocoding_level": null,
      "phone": "0238-42-6862",
      "license_no": "",
      "license_date": null,
      "expire_date": null
    },
    {
      "name": "寒河江達",
      "name_kana": "サガエトオル",
      "business_type": "⑰ 農産保存食料品製造・加工業",
      "address": "山形県東置賜郡川西町堀金1814",
      "lat": 37.989874,
      "lng": 140.086253,
      "geocoding_level": null,
      "phone": "0238-42-4550",
      "license_no": "",
      "license_date": null,
      "expire_date": null
    },
    {
      "name": "島津陽子",
      "name_kana": "シマツヨウコ",
      "business_type": "⑰ 農産保存食料品製造・加工業",
      "address": "山形県東置賜郡川西町吉田1235",
      "lat": 38.004431,
      "lng": 140.045859,
      "geocoding_level": null,
      "phone": "0238-44-2981",
      "license_no": "",
      "license_date": null,
      "expire_date": null
    },
    {
      "name": "渡部初枝",
      "name_kana": "ワタナベハツエ",
      "business_type": "⑰ 農産保存食料品製造・加工業",
      "address": "山形県東置賜郡川西町尾長島3394",
      "lat": 37.990106,
      "lng": 140.110732,
      "geocoding_level": null,
      "phone": "0238-44-2638",
      "license_no": "",
      "license_date": null,
      "expire_date": null
    },
    {
      "name": "ローソン川西中小松店",
      "name_kana": "ローソンカワニシナカコマツテン",
      "business_type": "① 飲食店営業",
      "address": "山形県東置賜郡川西町中小松字田仲2505-1",
      "lat": 38.013198,
      "lng": 140.052695,
      "geocoding_level": null,
      "phone": "0238-46-3775",
      "license_no": "2165",
      "license_date": "2025-06-20",
      "expire_date": "2032-03-31"
    },
    {
      "name": "ローソン川西中小松店",
      "name_kana": "ローソンカワニシナカコマツテン",
      "business_type": "⑩ コンビニエンスストア",
      "address": "山形県東置賜郡川西町中小松字田仲2505-1",
      "lat": 38.013198,
      "lng": 140.052695,
      "geocoding_level": null,
      "phone": "0238-46-3775",
      "license_no": "",
      "license_date": null,
      "expire_date": null
    },
    {
      "name": "つかだ",
      "name_kana": "ツカダ",
      "business_type": "⑪ 菓子製造業",
      "address": "山形県東置賜郡川西町東置賜郡川西町146",
      "lat": 38.005188,
      "lng": 140.053094,
      "geocoding_level": 2,
      "phone": "0238422384",
      "license_no": "2405",
      "license_date": "2022-10-27",
      "expire_date": "2028-03-31"
    },
    {
      "name": "つかだ",
      "name_kana": "ツカダ",
      "business_type": "① 飲食店営業",
      "address": "山形県東置賜郡川西町莅１４６",
      "lat": 37.994362247,
      "lng": 140.071213882,
      "geocoding_level": 8,
      "phone": "0238-42-2384",
      "license_no": "2500",
      "license_date": "2022-03-07",
      "expire_date": "2027-03-31"
    },
    {
      "name": "NPO法人あおぞら保育園",
      "name_kana": "アオゾラホイクエン",
      "business_type": "㉖ 集団給食施設",
      "address": "山形県東置賜郡川西町上小松5640-1",
      "lat": 38.001497,
      "lng": 140.039236,
      "geocoding_level": null,
      "phone": "0238424105",
      "license_no": "",
      "license_date": null,
      "expire_date": null
    },
    {
      "name": "嵐田礼子",
      "name_kana": "アラシダレイコ",
      "business_type": "⑰ 農産保存食料品製造・加工業",
      "address": "山形県東置賜郡川西町堀金1997",
      "lat": 37.984752,
      "lng": 140.084091,
      "geocoding_level": null,
      "phone": "0238-42-2283",
      "license_no": "",
      "license_date": null,
      "expire_date": null
    },
    {
      "name": "齋藤農園",
      "name_kana": "サイトウノウエン",
      "business_type": "⑰ 農産保存食料品製造・加工業",
      "address": "山形県東置賜郡川西町上小松1089-3",
      "lat": 38.000789,
      "lng": 140.057663,
      "geocoding_level": null,
      "phone": "090-6220-1963",
      "license_no": "",
      "license_date": null,
      "expire_date": null
    },
    {
      "name": "中野茂三",
      "name_kana": "ナカノシゲゾウ",
      "business_type": "⑰ 農産保存食料品製造・加工業",
      "address": "山形県東置賜郡川西町小松799-3",
      "lat": 38.024336,
      "lng": 140.064825,
      "geocoding_level": null,
      "phone": "0238-46-2608",
      "license_no": "",
      "license_date": null,
      "expire_date": null
    },
    {
      "name": "玉庭森組",
      "name_kana": "タマニワモリグミ",
      "business_type": "⑰ 農産保存食料品製造・加工業",
      "address": "山形県東置賜郡川西町上小松5177-17",
      "lat": 37.994631,
      "lng": 140.006502,
      "geocoding_level": null,
      "phone": "090-2848-3162",
      "license_no": "",
      "license_date": null,
      "expire_date": null
    },
    {
      "name": "鈴木光子",
      "name_kana": "スズキミツコ",
      "business_type": "⑰ 農産保存食料品製造・加工業",
      "address": "山形県東置賜郡川西町下奥田1729",
      "lat": 37.976621,
      "lng": 140.04538,
      "geocoding_level": null,
      "phone": "0238-42-5982",
      "license_no": "",
      "license_date": null,
      "expire_date": null
    },
    {
      "name": "くえむの畑　鈴木まどか",
      "name_kana": "クエムノハタケ　スズキマドカ",
      "business_type": "⑰ 農産保存食料品製造・加工業",
      "address": "山形県東置賜郡川西町黒川300",
      "lat": 38.012617,
      "lng": 140.079034,
      "geocoding_level": null,
      "phone": "0238-42-2561",
      "license_no": "",
      "license_date": null,
      "expire_date": null
    },
    {
      "name": "川西町立大塚小学校",
      "name_kana": "カワニシチョウリツオオツカショウガッコウ",
      "business_type": "㉖ 集団給食施設",
      "address": "山形県東置賜郡川西町大塚３０３０",
      "lat": 38.043816,
      "lng": 140.068317,
      "geocoding_level": null,
      "phone": "0238-42-722",
      "license_no": "",
      "license_date": null,
      "expire_date": null
    },
    {
      "name": "川西町立小松小学校",
      "name_kana": "カワニシチョウリツコマツショウガッコウ",
      "business_type": "㉖ 集団給食施設",
      "address": "山形県東置賜郡川西町上小松１４８６",
      "lat": 38.0067,
      "lng": 140.046873,
      "geocoding_level": null,
      "phone": "0238-42-3151",
      "license_no": "",
      "license_date": null,
      "expire_date": null
    },
    {
      "name": "塩蔵屋アキ",
      "name_kana": "エンゾウヤアキ",
      "business_type": "⑰ 農産保存食料品製造・加工業",
      "address": "山形県東置賜郡川西町上小松3329-2",
      "lat": 38.00547,
      "lng": 140.035309,
      "geocoding_level": null,
      "phone": "0238-42-2381",
      "license_no": "",
      "license_date": null,
      "expire_date": null
    },
    {
      "name": "島貫みよ子",
      "name_kana": "シマヌキミヨコ",
      "business_type": "⑰ 農産保存食料品製造・加工業",
      "address": "山形県東置賜郡川西町下小松952",
      "lat": 38.029409,
      "lng": 140.04639,
      "geocoding_level": null,
      "phone": "0238-46-2662",
      "license_no": "",
      "license_date": null,
      "expire_date": null
    },
    {
      "name": "後藤善一",
      "name_kana": "ゴトウゼンイチ",
      "business_type": "⑰ 農産保存食料品製造・加工業",
      "address": "山形県東置賜郡川西町上小松2345",
      "lat": 38.001779,
      "lng": 140.048074,
      "geocoding_level": null,
      "phone": "0238-54-0045",
      "license_no": "",
      "license_date": null,
      "expire_date": null
    },
    {
      "name": "島貫武彦",
      "name_kana": "シマヌキタケヒコ",
      "business_type": "⑰ 農産保存食料品製造・加工業",
      "address": "山形県東置賜郡川西町時田1039-2",
      "lat": 37.98585,
      "lng": 140.059919,
      "geocoding_level": null,
      "phone": "0238-42-6962",
      "license_no": "",
      "license_date": null,
      "expire_date": null
    },
    {
      "name": "ナウエルホール川西",
      "name_kana": "ナウエルホールカワニシ",
      "business_type": "① 飲食店営業",
      "address": "山形県東置賜郡川西町大字中小松2292-3",
      "lat": 38.014168,
      "lng": 140.054852,
      "geocoding_level": 3,
      "phone": "0238-54-1444",
      "license_no": "2502",
      "license_date": "2025-03-12",
      "expire_date": "2031-03-31"
    },
    {
      "name": "セブン‐イレブン川西町西大塚店",
      "name_kana": "セブンイレブンカワニシマチニシオオツカテン",
      "business_type": "① 飲食店営業",
      "address": "山形県東置賜郡川西町西大塚字薬師東２３７４－１",
      "lat": 37.879787,
      "lng": 140.565995,
      "geocoding_level": null,
      "phone": "",
      "license_no": "2394",
      "license_date": "2021-11-24",
      "expire_date": "2028-03-31"
    },
    {
      "name": "セブン‐イレブン川西町西大塚店",
      "name_kana": "セブンイレブンカワニシマチニシオオツカテン",
      "business_type": "⑩ コンビニエンスストア",
      "address": "山形県東置賜郡川西町西大塚字薬師東２３７４－１",
      "lat": 38.052479,
      "lng": 140.059101,
      "geocoding_level": null,
      "phone": "",
      "license_no": "",
      "license_date": null,
      "expire_date": null
    },
    {
      "name": "川西町立犬川小学校",
      "name_kana": "カワニシチョウリツイヌカワショウガッコウ",
      "business_type": "㉖ 集団給食施設",
      "address": "山形県東置賜郡川西町小松823",
      "lat": 38.024001,
      "lng": 140.061843,
      "geocoding_level": null,
      "phone": "0238-42-2674",
      "license_no": "",
      "license_date": null,
      "expire_date": null
    },
    {
      "name": "川西町立中郡小学校",
      "name_kana": "カワニシチョウリツチュウグンショウガッコウ",
      "business_type": "㉖ 集団給食施設",
      "address": "山形県東置賜郡川西町莅239",
      "lat": 37.991494,
      "lng": 140.072565,
      "geocoding_level": null,
      "phone": "0238-42-3616",
      "license_no": "",
      "license_date": null,
      "expire_date": null
    },
    {
      "name": "川西町立吉島小学校",
      "name_kana": "カワニシチョウリツヨシジマショウガッコウ",
      "business_type": "㉖ 集団給食施設",
      "address": "山形県東置賜郡川西町洲島2381",
      "lat": 38.010566,
      "lng": 140.108772,
      "geocoding_level": null,
      "phone": "0238-44-2842",
      "license_no": "",
      "license_date": null,
      "expire_date": null
    },
    {
      "name": "川西町大字玉庭小学校",
      "name_kana": "カワニシチョウリツタマニワショウガッコウ",
      "business_type": "㉖ 集団給食施設",
      "address": "山形県東置賜郡川西町玉庭5255",
      "lat": 37.944443,
      "lng": 139.981301,
      "geocoding_level": null,
      "phone": "0238-48-2030",
      "license_no": "",
      "license_date": null,
      "expire_date": null
    },
    {
      "name": "川西町立川西中学校",
      "name_kana": "カワニシチョウリツカワニシチュウガッコウ",
      "business_type": "㉖ 集団給食施設",
      "address": "山形県東置賜郡川西町中小松2493",
      "lat": 38.01121,
      "lng": 140.056628,
      "geocoding_level": null,
      "phone": "0238-42-3155",
      "license_no": "",
      "license_date": null,
      "expire_date": null
    },
    {
      "name": "山形県立置賜農業高等学校　蓬田牧場",
      "name_kana": "ヤマガタケンリツオキタマノウギョウコウトウガッコウ　ヨモギダボクジョウ",
      "business_type": "⑬ 乳製品製造業",
      "address": "山形県東置賜郡川西町上小松５２２６－１",
      "lat": 38.002377,
      "lng": 140.031057,
      "geocoding_level": 3,
      "phone": "0238-42-6207",
      "license_no": "2438",
      "license_date": "2022-02-01",
      "expire_date": "2028-03-31"
    },
    {
      "name": "山形南カントリークラブ　クラブハウス",
      "name_kana": "ヤマガタミナミカントリークラブ　クラブハウス",
      "business_type": "② 食肉販売業（包装済みの食肉のみの販売）",
      "address": "山形県東置賜郡川西町上小松字江ノ口沢５１６３",
      "lat": 38.009728,
      "lng": 140.022705,
      "geocoding_level": null,
      "phone": "0238-42-2121",
      "license_no": "",
      "license_date": null,
      "expire_date": null
    },
    {
      "name": "産直ごんべ",
      "name_kana": "サンチョクゴンベ",
      "business_type": "⑰ 農産保存食料品製造・加工業",
      "address": "山形県東置賜郡川西町大塚２６１３",
      "lat": 38.004431,
      "lng": 140.045859,
      "geocoding_level": null,
      "phone": "",
      "license_no": "",
      "license_date": null,
      "expire_date": null
    },
    {
      "name": "青木満夫",
      "name_kana": "アオキミツオ",
      "business_type": "⑰ 農産保存食料品製造・加工業",
      "address": "山形県東置賜郡川西町西大塚２７８７－１５",
      "lat": 38.044448,
      "lng": 140.0563,
      "geocoding_level": null,
      "phone": "",
      "license_no": "",
      "license_date": null,
      "expire_date": null
    },
    {
      "name": "ローソン 川西バイパス店",
      "name_kana": "ローソン カワニシバイパステン",
      "business_type": "① 飲食店営業",
      "address": "山形県東置賜郡川西町西大塚２３０９－３",
      "lat": 38.044969,
      "lng": 140.058111,
      "geocoding_level": 3,
      "phone": "0238-46-2133",
      "license_no": "2653",
      "license_date": "2023-03-22",
      "expire_date": "2029-03-31"
    },
    {
      "name": "ローソン川西バイパス店",
      "name_kana": "ローソンカワニシバイパステン",
      "business_type": "⑩ コンビニエンスストア",
      "address": "山形県東置賜郡川西町西大塚２３０９－３",
      "lat": 38.05074,
      "lng": 140.063978,
      "geocoding_level": null,
      "phone": "0238-46-2133",
      "license_no": "",
      "license_date": null,
      "expire_date": null
    },
    {
      "name": "ｍｉｇｉｎｇ　ｃａｆｅ",
      "name_kana": "ミギング　カフェ",
      "business_type": "① 飲食店営業",
      "address": "山形県東置賜郡川西町上小松・ほか県内一円",
      "lat": 37.998113,
      "lng": 140.021224,
      "geocoding_level": null,
      "phone": "090-2840-4730",
      "license_no": "2527",
      "license_date": "2022-03-19",
      "expire_date": "2027-03-31"
    },
    {
      "name": "玉庭農産加工センター",
      "name_kana": "タマニワノウサンカコウセンター",
      "business_type": "⑰ 農産保存食料品製造・加工業",
      "address": "山形県東置賜郡川西町玉庭6707-44",
      "lat": 37.952978,
      "lng": 139.98449,
      "geocoding_level": null,
      "phone": "090-3645-2857",
      "license_no": "",
      "license_date": null,
      "expire_date": null
    },
    {
      "name": "玉庭農産物加工センター",
      "name_kana": "タマニワノウサンブツカコウセンター",
      "business_type": "㉙ 漬物製造業",
      "address": "山形県東置賜郡川西町玉庭6707-44",
      "lat": 37.926586,
      "lng": 139.967128,
      "geocoding_level": 3,
      "phone": "090-3645-2857",
      "license_no": "2353",
      "license_date": "2023-10-02",
      "expire_date": "2029-03-31"
    },
    {
      "name": "玉庭農産物加工センター",
      "name_kana": "タマニワノウサンブツカコウセンター",
      "business_type": "㉕ そうざい製造業",
      "address": "山形県東置賜郡川西町大字玉庭6707-44",
      "lat": 37.926586,
      "lng": 139.967128,
      "geocoding_level": 3,
      "phone": "",
      "license_no": "2530",
      "license_date": "2026-03-23",
      "expire_date": "2031-03-31"
    },
    {
      "name": "鈴木",
      "name_kana": "スズキ",
      "business_type": "① 飲食店営業",
      "address": "山形県東置賜郡川西町ほか県内一円",
      "lat": 38.005188,
      "lng": 140.053094,
      "geocoding_level": 2,
      "phone": "09036452857",
      "license_no": "2007",
      "license_date": "2026-04-20",
      "expire_date": "2031-04-30"
    },
    {
      "name": "大滝",
      "name_kana": "オオタキ",
      "business_type": "⑰ 農産保存食料品製造・加工業",
      "address": "山形県東置賜郡川西町玉庭3904-2",
      "lat": 37.961088,
      "lng": 139.989419,
      "geocoding_level": null,
      "phone": "090-7068-9536",
      "license_no": "",
      "license_date": null,
      "expire_date": null
    },
    {
      "name": "小池",
      "name_kana": "コイケ",
      "business_type": "⑰ 農産保存食料品製造・加工業",
      "address": "山形県東置賜郡川西町玉庭1831-1",
      "lat": 37.933506,
      "lng": 139.988143,
      "geocoding_level": null,
      "phone": "",
      "license_no": "",
      "license_date": null,
      "expire_date": null
    },
    {
      "name": "かわにし森のマルシェ",
      "name_kana": "カワニシモリノマルシェ",
      "business_type": "⑦ 野菜果物販売業",
      "address": "山形県東置賜郡川西町中小松2534",
      "lat": 38.013515,
      "lng": 140.055675,
      "geocoding_level": null,
      "phone": "",
      "license_no": "",
      "license_date": null,
      "expire_date": null
    },
    {
      "name": "ホテル　Rosé",
      "name_kana": "ホテル　ロゼ",
      "business_type": "① 飲食店営業",
      "address": "山形県東置賜郡川西町大字西大塚1233",
      "lat": 38.044969,
      "lng": 140.058111,
      "geocoding_level": 3,
      "phone": "0238-42-4615",
      "license_no": "2508",
      "license_date": "2026-03-05",
      "expire_date": "2031-03-31"
    },
    {
      "name": "有限会社　マルハヤシかんの",
      "name_kana": "ユウゲンカイシャ　マルハヤシカンノ",
      "business_type": "③ 乳類販売業",
      "address": "山形県東置賜郡川西町下平柳400",
      "lat": 37.997389,
      "lng": 140.119722,
      "geocoding_level": null,
      "phone": "0238-44-2935",
      "license_no": "",
      "license_date": null,
      "expire_date": null
    },
    {
      "name": "有限会社　マルハヤシかんの",
      "name_kana": "ユウゲンカイシャ　マルハヤシカンノ",
      "business_type": "⑦ 野菜果物販売業",
      "address": "山形県東置賜郡川西町下平柳400",
      "lat": 37.997389,
      "lng": 140.119722,
      "geocoding_level": null,
      "phone": "0238-44-2935",
      "license_no": "",
      "license_date": null,
      "expire_date": null
    },
    {
      "name": "有限会社  マルハヤシ  かんの",
      "name_kana": "ユウゲンガイシャ　マルハヤシ　カンノ",
      "business_type": "① 飲食店営業",
      "address": "山形県東置賜郡川西町下平柳４００",
      "lat": 38.001004,
      "lng": 140.124485,
      "geocoding_level": 3,
      "phone": "0238-44-2935",
      "license_no": "2514",
      "license_date": "2022-03-15",
      "expire_date": "2027-03-31"
    },
    {
      "name": "有限会社　マルハヤシ　かんの",
      "name_kana": "ユウゲンガイシャ　マルハヤシ　カンノ",
      "business_type": "④ 魚介類販売業",
      "address": "山形県東置賜郡川西町大字下平柳400",
      "lat": 38.001004,
      "lng": 140.124485,
      "geocoding_level": 3,
      "phone": "0238-44-2935",
      "license_no": "2517",
      "license_date": "2026-03-11",
      "expire_date": "2031-03-31"
    },
    {
      "name": "有限会社　マルハヤシ　かんの",
      "name_kana": "ユウゲンガイシャ　マルハヤシ　カンノ",
      "business_type": "③ 乳類販売業",
      "address": "山形県東置賜郡川西町下平柳400",
      "lat": 37.997389,
      "lng": 140.119722,
      "geocoding_level": null,
      "phone": "0238-44-2935",
      "license_no": "",
      "license_date": null,
      "expire_date": null
    },
    {
      "name": "有限会社　マルハヤシ　かんの",
      "name_kana": "ユウゲンガイシャ　マルハヤシ　カンノ",
      "business_type": "⑦ 野菜果物販売業",
      "address": "山形県東置賜郡川西町下平柳400",
      "lat": 37.997389,
      "lng": 140.119722,
      "geocoding_level": null,
      "phone": "0238-44-2935",
      "license_no": "",
      "license_date": null,
      "expire_date": null
    },
    {
      "name": "ローソン川西上小松店",
      "name_kana": "ローソンカワニシカミコマツテン",
      "business_type": "① 飲食店営業",
      "address": "山形県東置賜郡川西町上小松字西五日町3521-1",
      "lat": 38.002377,
      "lng": 140.031057,
      "geocoding_level": 3,
      "phone": "0238-46-3464",
      "license_no": "2522",
      "license_date": "2022-03-15",
      "expire_date": "2028-03-31"
    },
    {
      "name": "ローソン川西上小松店",
      "name_kana": "ローソンカワニシカミコマツテン",
      "business_type": "⑩ コンビニエンスストア",
      "address": "山形県東置賜郡川西町上小松字西五日町3521-1",
      "lat": 38.00554,
      "lng": 140.044445,
      "geocoding_level": null,
      "phone": "0238-46-3464",
      "license_no": "",
      "license_date": null,
      "expire_date": null
    },
    {
      "name": "（株）かわにし森のマルシェ",
      "name_kana": "カブ　カワニシモリノマルシェ",
      "business_type": "㉙ 漬物製造業",
      "address": "山形県東置賜郡川西町中小松2534",
      "lat": 38.013553,
      "lng": 140.055617,
      "geocoding_level": null,
      "phone": "",
      "license_no": "2507",
      "license_date": "2022-03-11",
      "expire_date": "2028-03-31"
    },
    {
      "name": "かわにし森のマルシェ",
      "name_kana": "カワニシモリノマルシェ",
      "business_type": "① 魚介類販売業（包装済みの魚介類のみの販売）",
      "address": "山形県東置賜郡川西町中小松2534",
      "lat": 38.013553,
      "lng": 140.055617,
      "geocoding_level": null,
      "phone": "0238-42-6664",
      "license_no": "",
      "license_date": null,
      "expire_date": null
    },
    {
      "name": "かわにし森のマルシェ",
      "name_kana": "カワニシモリノマルシェ",
      "business_type": "② 食肉販売業（包装済みの食肉のみの販売）",
      "address": "山形県東置賜郡川西町中小松2534",
      "lat": 38.013553,
      "lng": 140.055617,
      "geocoding_level": null,
      "phone": "0238-42-6664",
      "license_no": "",
      "license_date": null,
      "expire_date": null
    },
    {
      "name": "かわにし森のマルシェ",
      "name_kana": "カワニシモリノマルシェ",
      "business_type": "③ 乳類販売業",
      "address": "山形県東置賜郡川西町中小松2534",
      "lat": 38.013553,
      "lng": 140.055617,
      "geocoding_level": null,
      "phone": "0238-42-6664",
      "license_no": "",
      "license_date": null,
      "expire_date": null
    },
    {
      "name": "かわにし森のマルシェ",
      "name_kana": "カワニシモリノマルシェ",
      "business_type": "① 飲食店営業",
      "address": "山形県東置賜郡川西町中小松2534",
      "lat": 38.013553,
      "lng": 140.055617,
      "geocoding_level": null,
      "phone": "0238-42-6664",
      "license_no": "2508",
      "license_date": "2022-03-11",
      "expire_date": "2028-03-31"
    },
    {
      "name": "川崎",
      "name_kana": "カワサキ",
      "business_type": "⑰ 農産保存食料品製造・加工業",
      "address": "山形県東置賜郡川西町時田2700-4",
      "lat": 37.981112,
      "lng": 140.063856,
      "geocoding_level": null,
      "phone": "0238-42-6553",
      "license_no": "",
      "license_date": null,
      "expire_date": null
    },
    {
      "name": "川西町立小松保育所",
      "name_kana": "カワニシチョウリツコマツホイクショ",
      "business_type": "㉖ 集団給食施設",
      "address": "山形県東置賜郡川西町上小松2903",
      "lat": 38.001478,
      "lng": 140.041216,
      "geocoding_level": null,
      "phone": "0238-42-2810",
      "license_no": "",
      "license_date": null,
      "expire_date": null
    },
    {
      "name": "丸久製パン工場",
      "name_kana": "マルキュウセイパンコウジョウ",
      "business_type": "① 飲食店営業",
      "address": "山形県東置賜郡川西町大字上小松１５４２－１",
      "lat": 38.002377,
      "lng": 140.031057,
      "geocoding_level": 3,
      "phone": "0238-42-2029",
      "license_no": "2509",
      "license_date": "2025-03-17",
      "expire_date": "2030-03-31"
    },
    {
      "name": "丸久製パン工場",
      "name_kana": "マルキュウセイパンコウジョウ",
      "business_type": "⑪ 菓子製造業",
      "address": "山形県東置賜郡川西町上小松1542-1",
      "lat": 38.002377,
      "lng": 140.031057,
      "geocoding_level": 3,
      "phone": "0238-42-2029",
      "license_no": "2509",
      "license_date": "2022-03-11",
      "expire_date": "2027-03-31"
    },
    {
      "name": "パリドール・サノ",
      "name_kana": "パリドール・サノ",
      "business_type": "① 飲食店営業",
      "address": "山形県東置賜郡川西町上小松３４９５",
      "lat": 38.002377,
      "lng": 140.031057,
      "geocoding_level": 3,
      "phone": "0238-42-6636",
      "license_no": "2663",
      "license_date": "2023-03-29",
      "expire_date": "2028-03-31"
    },
    {
      "name": "パリドール・サノ",
      "name_kana": "パリドール・サノ",
      "business_type": "⑬ その他の食料・飲料販売業",
      "address": "山形県東置賜郡川西町上小松３４９５",
      "lat": 38.005506,
      "lng": 140.044838,
      "geocoding_level": null,
      "phone": "0238-42-6636",
      "license_no": "",
      "license_date": null,
      "expire_date": null
    },
    {
      "name": "川西町浴浴センターまどか",
      "name_kana": "カワニシマチヨクヨクセンターマドカ",
      "business_type": "① 飲食店営業",
      "address": "山形県東置賜郡川西町上小松5095-36",
      "lat": 38.002377,
      "lng": 140.031057,
      "geocoding_level": 3,
      "phone": "0238-42-4126",
      "license_no": "2529",
      "license_date": "2022-03-19",
      "expire_date": "2028-03-31"
    },
    {
      "name": "川西町浴浴センターまどか",
      "name_kana": "カワニシマチヨクヨクセンターマドカ",
      "business_type": "⑬ その他の食料・飲料販売業",
      "address": "山形県東置賜郡川西町上小松5095-36",
      "lat": 38.001824,
      "lng": 140.031456,
      "geocoding_level": null,
      "phone": "0238-42-4126",
      "license_no": "",
      "license_date": null,
      "expire_date": null
    },
    {
      "name": "川西町営小松スキー場ロッジ",
      "name_kana": "カワニシチョウエイコマツスキージョウロッジ",
      "business_type": "① 飲食店営業",
      "address": "山形県東置賜郡川西町大字上小松５０９５－３６９",
      "lat": 38.002377,
      "lng": 140.031057,
      "geocoding_level": 3,
      "phone": "0238-33-9390",
      "license_no": "2510",
      "license_date": "2025-03-17",
      "expire_date": "2031-03-31"
    },
    {
      "name": "ローソン川西中小松店",
      "name_kana": "ローソンカワニシナカコマツテン",
      "business_type": "① 魚介類販売業（包装済みの魚介類のみの販売）",
      "address": "山形県東置賜郡川西町中小松字田仲2505-1",
      "lat": 38.013198,
      "lng": 140.052695,
      "geocoding_level": null,
      "phone": "0238-46-3775",
      "license_no": "",
      "license_date": null,
      "expire_date": null
    },
    {
      "name": "ローソン川西中小松店",
      "name_kana": "ローソンカワニシナカコマツテン",
      "business_type": "② 食肉販売業（包装済みの食肉のみの販売）",
      "address": "山形県東置賜郡川西町中小松字田仲2505-1",
      "lat": 38.013198,
      "lng": 140.052695,
      "geocoding_level": null,
      "phone": "0238-46-3775",
      "license_no": "",
      "license_date": null,
      "expire_date": null
    },
    {
      "name": "ローソン川西中小松店",
      "name_kana": "ローソンカワニシナカコマツテン",
      "business_type": "③ 乳類販売業",
      "address": "山形県東置賜郡川西町中小松字田仲2505-1",
      "lat": 38.013198,
      "lng": 140.052695,
      "geocoding_level": null,
      "phone": "0238-46-3775",
      "license_no": "",
      "license_date": null,
      "expire_date": null
    },
    {
      "name": "保科食品",
      "name_kana": "ホシナショクヒン",
      "business_type": "㉕ そうざい製造業",
      "address": "山形県東置賜郡川西町西大塚1088-2",
      "lat": 38.044969,
      "lng": 140.058111,
      "geocoding_level": 3,
      "phone": "0238-42-3900",
      "license_no": "2530",
      "license_date": "2022-03-19",
      "expire_date": "2028-03-31"
    },
    {
      "name": "玉庭森組",
      "name_kana": "タマニワモリグミ",
      "business_type": "㉔ その他の食料品製造・加工業",
      "address": "山形県東置賜郡川西町上小松5177-17",
      "lat": 37.994631,
      "lng": 140.006502,
      "geocoding_level": null,
      "phone": "090-2848-3162",
      "license_no": "",
      "license_date": null,
      "expire_date": null
    },
    {
      "name": "玉庭森組",
      "name_kana": "タマニワモリグミ",
      "business_type": "⑰ 農産保存食料品製造・加工業",
      "address": "山形県東置賜郡川西町上小松５１７７－１７",
      "lat": 37.994631,
      "lng": 140.006502,
      "geocoding_level": null,
      "phone": "090-2848-3162",
      "license_no": "",
      "license_date": null,
      "expire_date": null
    },
    {
      "name": "ケミコン米沢(株)２Ｆ食堂",
      "name_kana": "ケミコンヨネザワカブ　ニイエフショクドウ",
      "business_type": "⑤ コップ式自動販売機（自動洗浄・屋内設置）",
      "address": "山形県東置賜郡川西町上小松２４６５",
      "lat": 37.999496,
      "lng": 140.044005,
      "geocoding_level": null,
      "phone": "0238-42-3135",
      "license_no": "",
      "license_date": null,
      "expire_date": null
    },
    {
      "name": "ケミコン山形(株)米沢工場",
      "name_kana": "ケミコンヤマガタカブ　ヨネザワコウジョウ",
      "business_type": "③ 乳類販売業",
      "address": "山形県東置賜郡川西町上小松２４６５",
      "lat": 37.999496,
      "lng": 140.044005,
      "geocoding_level": null,
      "phone": "0238-42-3135",
      "license_no": "",
      "license_date": null,
      "expire_date": null
    },
    {
      "name": "公立置賜総合病院",
      "name_kana": "コウリツオキタマソウゴウビョウイン",
      "business_type": "⑤ コップ式自動販売機（自動洗浄・屋内設置）",
      "address": "山形県東置賜郡川西町西大塚２０００",
      "lat": 38.05108,
      "lng": 140.056755,
      "geocoding_level": null,
      "phone": "",
      "license_no": "",
      "license_date": null,
      "expire_date": null
    },
    {
      "name": "ドラゴンケバブ　カリスマ2.5",
      "name_kana": "ドラゴンケバブ　カリスマ　ニーテンゴ",
      "business_type": "① 飲食店営業",
      "address": "山形県東置賜郡川西町ほか山形県一円",
      "lat": 38.005188,
      "lng": 140.053094,
      "geocoding_level": 2,
      "phone": "0238-46-2488",
      "license_no": "2489",
      "license_date": "2025-02-28",
      "expire_date": "2030-03-31"
    },
    {
      "name": "有限会社　あっさり",
      "name_kana": "ユウゲンガイシャ　アッサリ",
      "business_type": "㉕ そうざい製造業",
      "address": "山形県東置賜郡川西町上小松１６４４",
      "lat": 38.002377,
      "lng": 140.031057,
      "geocoding_level": 3,
      "phone": "0238-42-3254",
      "license_no": "2519",
      "license_date": "2022-03-15",
      "expire_date": "2028-03-31"
    },
    {
      "name": "有限会社　あっさり",
      "name_kana": "ユウゲンガイシャ　アッサリ",
      "business_type": "① 飲食店営業",
      "address": "山形県東置賜郡川西町大字上小松１６４４",
      "lat": 38.002377,
      "lng": 140.031057,
      "geocoding_level": 3,
      "phone": "0238-42-3254",
      "license_no": "2617",
      "license_date": "2023-03-03",
      "expire_date": "2029-03-31"
    },
    {
      "name": "（有）亥子屋商店",
      "name_kana": "ユウ　イノコヤショウテン",
      "business_type": "② 食肉販売業（包装済みの食肉のみの販売）",
      "address": "山形県東置賜郡川西町中小松2862",
      "lat": 38.010537,
      "lng": 140.049097,
      "geocoding_level": null,
      "phone": "0238-42-2526",
      "license_no": "",
      "license_date": null,
      "expire_date": null
    },
    {
      "name": "まめの芽",
      "name_kana": "マメノメ",
      "business_type": "⑪ 菓子製造業",
      "address": "山形県東置賜郡川西町吉田2988-2",
      "lat": 38.004431,
      "lng": 140.045859,
      "geocoding_level": null,
      "phone": "0238-44-2859",
      "license_no": "2531",
      "license_date": "2022-03-19",
      "expire_date": "2027-03-31"
    },
    {
      "name": "まめの芽",
      "name_kana": "マメノメ",
      "business_type": "㉓ 納豆製造業",
      "address": "山形県東置賜郡川西町上小松3979",
      "lat": 38.006055,
      "lng": 140.029181,
      "geocoding_level": null,
      "phone": "0238-42-3804",
      "license_no": "2549",
      "license_date": "2022-03-29",
      "expire_date": "2027-03-31"
    },
    {
      "name": "まめの芽",
      "name_kana": "マメノメ",
      "business_type": "⑰ 農産保存食料品製造・加工業",
      "address": "山形県東置賜郡川西町上小松３９７９",
      "lat": 38.006055,
      "lng": 140.029181,
      "geocoding_level": null,
      "phone": "0238-42-3804",
      "license_no": "",
      "license_date": null,
      "expire_date": null
    },
    {
      "name": "まめの芽",
      "name_kana": "マメノメ",
      "business_type": "㉕ そうざい製造業",
      "address": "山形県東置賜郡川西町大字上小松３９７９",
      "lat": 38.002377,
      "lng": 140.031057,
      "geocoding_level": 3,
      "phone": "0238-42-3804",
      "license_no": "2523",
      "license_date": "2026-03-13",
      "expire_date": "2031-03-31"
    },
    {
      "name": "川西純そばの会",
      "name_kana": "カワニシジュンソバノカイ",
      "business_type": "① 飲食店営業",
      "address": "山形県東置賜郡川西町上小松5095-36",
      "lat": 38.002377,
      "lng": 140.031057,
      "geocoding_level": 3,
      "phone": "0238-42-4126",
      "license_no": "2524",
      "license_date": "2022-03-15",
      "expire_date": "2027-03-31"
    },
    {
      "name": "荘輔そば",
      "name_kana": "ショウスケソバ",
      "business_type": "① 飲食店営業",
      "address": "山形県東置賜郡川西町玉庭5013",
      "lat": 37.926586,
      "lng": 139.967128,
      "geocoding_level": 3,
      "phone": "0238-48-2962",
      "license_no": "2525",
      "license_date": "2022-03-15",
      "expire_date": "2027-03-31"
    },
    {
      "name": "ダイヤモンドフーズ",
      "name_kana": "ダイヤモンドフーズ",
      "business_type": "⑭ 清涼飲料水製造業",
      "address": "山形県東置賜郡川西町玉庭3994",
      "lat": 37.926586,
      "lng": 139.967128,
      "geocoding_level": 3,
      "phone": "0238-48-2509",
      "license_no": "2534",
      "license_date": "2022-03-19",
      "expire_date": "2027-03-31"
    },
    {
      "name": "ダイヤモンドフーズ",
      "name_kana": "ダイヤモンドフーズ",
      "business_type": "㉕ そうざい製造業",
      "address": "山形県東置賜郡川西町玉庭3994",
      "lat": 37.926586,
      "lng": 139.967128,
      "geocoding_level": 3,
      "phone": "0238-48-2509",
      "license_no": "2535",
      "license_date": "2022-03-19",
      "expire_date": "2027-03-31"
    },
    {
      "name": "ダイヤモンドフーズ第2工場",
      "name_kana": "ダイヤモンドフーズダイニコウジョウ",
      "business_type": "⑭ 清涼飲料水製造業",
      "address": "山形県東置賜郡川西町玉庭4204",
      "lat": 37.926586,
      "lng": 139.967128,
      "geocoding_level": 3,
      "phone": "0238-48-2509",
      "license_no": "2536",
      "license_date": "2022-03-19",
      "expire_date": "2027-03-31"
    },
    {
      "name": "ダイヤモンドフーズ",
      "name_kana": "ダイヤモンドフーズ",
      "business_type": "㉚ 密封包装食品製造業",
      "address": "山形県東置賜郡川西町玉庭3994",
      "lat": 37.926586,
      "lng": 139.967128,
      "geocoding_level": 3,
      "phone": "0238-48-2509",
      "license_no": "2537",
      "license_date": "2022-03-19",
      "expire_date": "2027-03-31"
    },
    {
      "name": "ホテル　メープル",
      "name_kana": "ホテル　メープル",
      "business_type": "① 飲食店営業",
      "address": "山形県東置賜郡川西町西大塚1233",
      "lat": 38.044969,
      "lng": 140.058111,
      "geocoding_level": 3,
      "phone": "0238-42-4615",
      "license_no": "2542",
      "license_date": "2022-03-23",
      "expire_date": "2027-03-31"
    },
    {
      "name": "錦屋本店工場",
      "name_kana": "ニシキヤホンテンコウジョウ",
      "business_type": "⑪ 菓子製造業",
      "address": "山形県東置賜郡川西町上小松１５０９",
      "lat": 38.002377,
      "lng": 140.031057,
      "geocoding_level": 3,
      "phone": "0238-42-2636",
      "license_no": "2601",
      "license_date": "2024-03-12",
      "expire_date": "2029-03-31"
    },
    {
      "name": "株式会社　銘菓の錦屋",
      "name_kana": "カブシキガイシャ　メイカノニシキヤ",
      "business_type": "⑪ 菓子製造業",
      "address": "山形県東置賜郡川西町上小松１５２８",
      "lat": 38.002377,
      "lng": 140.031057,
      "geocoding_level": 3,
      "phone": "0238-42-2596",
      "license_no": "2511",
      "license_date": "2025-03-17",
      "expire_date": "2030-03-31"
    },
    {
      "name": "ファミリーマート川西上小松店",
      "name_kana": "ファミリーマートカワニシカミコマツテン",
      "business_type": "① 飲食店営業",
      "address": "山形県東置賜郡川西町上小松3349-8",
      "lat": 38.00528,
      "lng": 140.03854,
      "geocoding_level": null,
      "phone": "0238-54-0330",
      "license_no": "2526",
      "license_date": "2022-03-15",
      "expire_date": "2028-03-31"
    },
    {
      "name": "ファミリーマート川西上小松店",
      "name_kana": "ファミリーマートカワニシカミコマツテン",
      "business_type": "⑩ コンビニエンスストア",
      "address": "山形県東置賜郡川西町上小松3349-8",
      "lat": 38.00528,
      "lng": 140.03854,
      "geocoding_level": null,
      "phone": "",
      "license_no": "",
      "license_date": null,
      "expire_date": null
    },
    {
      "name": "フードキッチン点心",
      "name_kana": "フードキッチンテンシン",
      "business_type": "① 飲食店営業",
      "address": "山形県東置賜郡川西町他山形県内一円",
      "lat": 38.005188,
      "lng": 140.053094,
      "geocoding_level": 2,
      "phone": "",
      "license_no": "2244",
      "license_date": "2022-07-22",
      "expire_date": "2028-08-31"
    },
    {
      "name": "置賜公園",
      "name_kana": "オキタマコウエン",
      "business_type": "② 食肉販売業（包装済みの食肉のみの販売）",
      "address": "山形県東置賜郡川西町大字上小松5096",
      "lat": 37.998113,
      "lng": 140.021224,
      "geocoding_level": null,
      "phone": "",
      "license_no": "",
      "license_date": null,
      "expire_date": null
    },
    {
      "name": "カレー屋GARBANZO",
      "name_kana": "カレーヤガルバンゾー",
      "business_type": "① 飲食店営業",
      "address": "山形県東置賜郡川西町中小松２２３６－５",
      "lat": 38.014168,
      "lng": 140.054852,
      "geocoding_level": 3,
      "phone": "",
      "license_no": "2641",
      "license_date": "2023-03-10",
      "expire_date": "2028-03-31"
    },
    {
      "name": "カレー屋GARBANZO　弁当部",
      "name_kana": "カレーヤガルバンゾーベントウブ",
      "business_type": "① 飲食店営業",
      "address": "山形県東置賜郡川西町中小松２２３６－５",
      "lat": 38.014168,
      "lng": 140.054852,
      "geocoding_level": 3,
      "phone": "",
      "license_no": "2642",
      "license_date": "2023-03-10",
      "expire_date": "2028-03-31"
    },
    {
      "name": "カレー屋GARBANZO　菓子製造部",
      "name_kana": "カレーヤガルバンゾーカシセイゾウブ",
      "business_type": "⑪ 菓子製造業",
      "address": "山形県東置賜郡川西町中小松２２３６－５",
      "lat": 38.014168,
      "lng": 140.054852,
      "geocoding_level": 3,
      "phone": "",
      "license_no": "2643",
      "license_date": "2023-03-10",
      "expire_date": "2028-03-31"
    },
    {
      "name": "有限会社　大塚もち加工センター",
      "name_kana": "ユウゲンガイシャ　オオツカモチカコウセンター",
      "business_type": "① 飲食店営業",
      "address": "山形県東置賜郡川西町大字西大塚１２６７－７",
      "lat": 38.044969,
      "lng": 140.058111,
      "geocoding_level": 3,
      "phone": "0238-42-5159",
      "license_no": "2618",
      "license_date": "2023-03-03",
      "expire_date": "2028-03-31"
    },
    {
      "name": "有限会社　大塚もち加工センター",
      "name_kana": "ユウゲンガイシャ　オオツカモチカコウセンター",
      "business_type": "⑪ 菓子製造業",
      "address": "山形県東置賜郡川西町大字西大塚１２６７－７",
      "lat": 38.044969,
      "lng": 140.058111,
      "geocoding_level": 3,
      "phone": "0238-42-5159",
      "license_no": "2619",
      "license_date": "2023-03-03",
      "expire_date": "2028-03-31"
    },
    {
      "name": "すし海道川西店",
      "name_kana": "スシカイドウカワニシテン",
      "business_type": "① 飲食店営業",
      "address": "山形県東置賜郡川西町大字上小松字美女木１０７８－１８",
      "lat": 38.002377,
      "lng": 140.031057,
      "geocoding_level": 3,
      "phone": "0238-54-0351",
      "license_no": "2498",
      "license_date": "2025-03-12",
      "expire_date": "2031-03-31"
    },
    {
      "name": "有限会社ドリームカー",
      "name_kana": "ユウゲンガイシャ　ドリームカー",
      "business_type": "⑦ 野菜果物販売業",
      "address": "山形県東置賜郡川西町川西町",
      "lat": 38.004431,
      "lng": 140.045859,
      "geocoding_level": null,
      "phone": "042-597-5982",
      "license_no": "",
      "license_date": null,
      "expire_date": null
    },
    {
      "name": "島貫魚店",
      "name_kana": "シマヌキサカナテン",
      "business_type": "① 飲食店営業",
      "address": "山形県東置賜郡川西町大字吉田３６１４",
      "lat": 38.005074,
      "lng": 140.098881,
      "geocoding_level": 3,
      "phone": "0238-44-2929",
      "license_no": "2518",
      "license_date": "2026-03-11",
      "expire_date": "2031-03-31"
    },
    {
      "name": "茂木食堂",
      "name_kana": "モギショクドウ",
      "business_type": "① 飲食店営業",
      "address": "山形県東置賜郡川西町上小松１６４４",
      "lat": 38.002377,
      "lng": 140.031057,
      "geocoding_level": 3,
      "phone": "0238-42-3245",
      "license_no": "2621",
      "license_date": "2023-03-07",
      "expire_date": "2028-03-31"
    },
    {
      "name": "ラピスラズリ",
      "name_kana": "ラピスラズリ",
      "business_type": "① 飲食店営業",
      "address": "山形県東置賜郡川西町大塚１４４０",
      "lat": 38.039819,
      "lng": 140.075074,
      "geocoding_level": null,
      "phone": "080-3661-1186",
      "license_no": "2622",
      "license_date": "2023-03-07",
      "expire_date": "2028-03-31"
    },
    {
      "name": "ラピスラズリ",
      "name_kana": "ラピスラズリ",
      "business_type": "⑪ 菓子製造業",
      "address": "山形県東置賜郡川西町大塚1440",
      "lat": 38.042637,
      "lng": 140.074889,
      "geocoding_level": 3,
      "phone": "080-3661-1186",
      "license_no": "2524",
      "license_date": "2024-01-11",
      "expire_date": "2029-03-31"
    },
    {
      "name": "樽平酒造株式会社",
      "name_kana": "タルヘイシュゾウカブシキガイシャ",
      "business_type": "㉑ 酒類製造業",
      "address": "山形県東置賜郡川西町中小松２８８６",
      "lat": 38.014168,
      "lng": 140.054852,
      "geocoding_level": 3,
      "phone": "0238-42-3101",
      "license_no": "2627",
      "license_date": "2023-03-07",
      "expire_date": "2028-03-31"
    },
    {
      "name": "農事組合法人　大河原農園",
      "name_kana": "ノウジクミアイホウジン　オオカワラノウエン",
      "business_type": "㉕ そうざい製造業",
      "address": "山形県東置賜郡川西町大字朴沢１３２６－５",
      "lat": 37.985428,
      "lng": 139.991321,
      "geocoding_level": 3,
      "phone": "0238-46-2708",
      "license_no": "2615",
      "license_date": "2023-03-03",
      "expire_date": "2028-03-31"
    },
    {
      "name": "農事組合法人大河原農園",
      "name_kana": "ノウジクミアイホウジンオオカワラノウエン",
      "business_type": "㉙ 漬物製造業",
      "address": "山形県東置賜郡川西町朴沢1326-5",
      "lat": 37.985428,
      "lng": 139.991321,
      "geocoding_level": 3,
      "phone": "0238-46-2708",
      "license_no": "2530",
      "license_date": "2024-02-05",
      "expire_date": "2029-03-31"
    },
    {
      "name": "喜楽",
      "name_kana": "キラク",
      "business_type": "① 飲食店営業",
      "address": "山形県東置賜郡川西町大字上小松１５８２",
      "lat": 38.002377,
      "lng": 140.031057,
      "geocoding_level": 3,
      "phone": "0238-42-2127",
      "license_no": "2639",
      "license_date": "2023-03-10",
      "expire_date": "2029-03-31"
    },
    {
      "name": "山形県立置賜農業高等学校",
      "name_kana": "ヤマガタケンリツオキタマノウギョウコウトウガッコウ",
      "business_type": "⑭ 清涼飲料水製造業",
      "address": "山形県東置賜郡川西町大字上小松３７２３",
      "lat": 38.002377,
      "lng": 140.031057,
      "geocoding_level": 3,
      "phone": "0238-42-2101",
      "license_no": "2640",
      "license_date": "2023-03-10",
      "expire_date": "2029-03-31"
    },
    {
      "name": "山形県立置賜農業高等学校",
      "name_kana": "ヤマガタケンリツオキタマノウギョウコウトウガッコウ",
      "business_type": "⑪ 菓子製造業",
      "address": "山形県東置賜郡川西町大字上小松３７２３",
      "lat": 38.002377,
      "lng": 140.031057,
      "geocoding_level": 3,
      "phone": "0238-42-2101",
      "license_no": "2512",
      "license_date": "2025-03-17",
      "expire_date": "2030-03-31"
    },
    {
      "name": "山形県立置賜農業高等学校",
      "name_kana": "ヤマガタケンリツオキタマノウギョウコウトウガッコウ",
      "business_type": "㉚ 密封包装食品製造業",
      "address": "山形県東置賜郡川西町大字上小松３７２３",
      "lat": 38.002377,
      "lng": 140.031057,
      "geocoding_level": 3,
      "phone": "0238-42-2102",
      "license_no": "2519",
      "license_date": "2026-03-11",
      "expire_date": "2032-03-31"
    },
    {
      "name": "公立置賜総合病院　外来レストラン",
      "name_kana": "コウリツオキタマソウゴウビョウイン　ガイライレストラン",
      "business_type": "① 飲食店営業",
      "address": "山形県東置賜郡川西町大字西大塚２０００",
      "lat": 38.044969,
      "lng": 140.058111,
      "geocoding_level": 3,
      "phone": "0238-46-5000",
      "license_no": "2644",
      "license_date": "2023-03-13",
      "expire_date": "2029-03-31"
    },
    {
      "name": "株式会社　中沖酒造店",
      "name_kana": "カブシキガイシャ　ナカオキシュゾウテン",
      "business_type": "㉑ 酒類製造業",
      "address": "山形県東置賜郡川西町大字西大塚１７９２－３",
      "lat": 38.044969,
      "lng": 140.058111,
      "geocoding_level": 3,
      "phone": "0238-42-4116",
      "license_no": "2648",
      "license_date": "2023-03-17",
      "expire_date": "2028-03-31"
    },
    {
      "name": "居酒屋　ぶんちゃん",
      "name_kana": "イザカヤ　ブンチャン",
      "business_type": "① 飲食店営業",
      "address": "山形県東置賜郡川西町上小松３１７７",
      "lat": 38.002377,
      "lng": 140.031057,
      "geocoding_level": 3,
      "phone": "0238-42-2660",
      "license_no": "2611",
      "license_date": "2023-03-03",
      "expire_date": "2028-03-31"
    },
    {
      "name": "ぶっく珈琲",
      "name_kana": "ブックカフェ",
      "business_type": "① 飲食店営業",
      "address": "山形県東置賜郡川西町上小松１０３７－１　川西町フレンドリープラザ",
      "lat": 38.006131852,
      "lng": 140.051246223,
      "geocoding_level": 8,
      "phone": "0238-46-3311",
      "license_no": "2612",
      "license_date": "2023-03-03",
      "expire_date": "2028-03-31"
    },
    {
      "name": "竜国",
      "name_kana": "リュウコク",
      "business_type": "① 飲食店営業",
      "address": "山形県東置賜郡川西町上小松１７７９－２",
      "lat": 38.002377,
      "lng": 140.031057,
      "geocoding_level": 3,
      "phone": "0238-42-5930",
      "license_no": "2614",
      "license_date": "2023-03-03",
      "expire_date": "2028-03-31"
    },
    {
      "name": "わいわい工房",
      "name_kana": "ワイワイコウボウ",
      "business_type": "⑳ みそ又はしょうゆ製造業",
      "address": "山形県東置賜郡川西町吉田１５１３",
      "lat": 38.005074,
      "lng": 140.098881,
      "geocoding_level": 3,
      "phone": "0238-44-2388",
      "license_no": "2623",
      "license_date": "2023-03-07",
      "expire_date": "2028-03-31"
    },
    {
      "name": "繁昌軒",
      "name_kana": "ハンジョウケン",
      "business_type": "① 飲食店営業",
      "address": "山形県東置賜郡川西町上小松１５９４－６",
      "lat": 38.002377,
      "lng": 140.031057,
      "geocoding_level": 3,
      "phone": "0238-42-2007",
      "license_no": "2631",
      "license_date": "2023-03-07",
      "expire_date": "2028-03-31"
    },
    {
      "name": "ひととき食堂",
      "name_kana": "ヒトトキショクドウ",
      "business_type": "① 飲食店営業",
      "address": "山形県東置賜郡川西町大舟988-4 旧川西町立東沢小学校",
      "lat": 37.955853,
      "lng": 140.027117,
      "geocoding_level": null,
      "phone": "0238-33-3977",
      "license_no": "2203",
      "license_date": "2023-07-11",
      "expire_date": "2030-03-31"
    },
    {
      "name": "Leap",
      "name_kana": "リープ",
      "business_type": "⑭ 清涼飲料水製造業",
      "address": "山形県東置賜郡川西町大字大舟９８８－４",
      "lat": 37.936755,
      "lng": 140.016274,
      "geocoding_level": 3,
      "phone": "0238-33-3977",
      "license_no": "2105",
      "license_date": "2025-05-30",
      "expire_date": "2032-03-31"
    },
    {
      "name": "おーばん川西店",
      "name_kana": "オーバンカワニシテン",
      "business_type": "④ 魚介類販売業",
      "address": "山形県東置賜郡川西町上小松字南美女木１２１６－２",
      "lat": 38.002343,
      "lng": 140.051964,
      "geocoding_level": null,
      "phone": "0238-42-4626",
      "license_no": "2512",
      "license_date": "2022-03-15",
      "expire_date": "2028-03-31"
    },
    {
      "name": "おーばん川西店",
      "name_kana": "オーバンカワニシテン",
      "business_type": "③ 食肉販売業",
      "address": "山形県東置賜郡川西町上小松字南美女木１２１６－２",
      "lat": 38.002343,
      "lng": 140.051964,
      "geocoding_level": null,
      "phone": "0238-42-4626",
      "license_no": "2513",
      "license_date": "2022-03-15",
      "expire_date": "2028-03-31"
    },
    {
      "name": "おーばん川西店",
      "name_kana": "オーバンカワニシテン",
      "business_type": "① 飲食店営業",
      "address": "山形県東置賜郡川西町大字上小松字南美女木１２１６－２",
      "lat": 38.001952,
      "lng": 140.051967,
      "geocoding_level": null,
      "phone": "0238-42-4626",
      "license_no": "2636",
      "license_date": "2023-03-10",
      "expire_date": "2029-03-31"
    },
    {
      "name": "おーばん川西店",
      "name_kana": "オーバンカワニシテン",
      "business_type": "③ 乳類販売業",
      "address": "山形県東置賜郡川西町上小松字南美女木１２１６－２",
      "lat": 38.002343,
      "lng": 140.051964,
      "geocoding_level": null,
      "phone": "0238-42-4626",
      "license_no": "",
      "license_date": null,
      "expire_date": null
    },
    {
      "name": "髙橋洋子",
      "name_kana": "タカハシヨウコ",
      "business_type": "⑰ 農産保存食料品製造・加工業",
      "address": "山形県東置賜郡川西町洲島１０７８－４５",
      "lat": 38.013943,
      "lng": 140.128876,
      "geocoding_level": null,
      "phone": "",
      "license_no": "",
      "license_date": null,
      "expire_date": null
    },
    {
      "name": "ドトールコーヒー置賜総合病院店",
      "name_kana": "ドトールコーヒーオキタマソウゴウビョウインテン",
      "business_type": "⑬ その他の食料・飲料販売業",
      "address": "山形県東置賜郡川西町西大塚２０００番地",
      "lat": 38.051135,
      "lng": 140.056804,
      "geocoding_level": null,
      "phone": "0238-46-2117",
      "license_no": "",
      "license_date": null,
      "expire_date": null
    },
    {
      "name": "ドトールコーヒーショップ置賜総合病院店",
      "name_kana": "ドトールコーヒーショップオキタマソウゴウビョウインテン",
      "business_type": "① 飲食店営業",
      "address": "山形県東置賜郡川西町西大塚2000",
      "lat": 38.051135,
      "lng": 140.056804,
      "geocoding_level": null,
      "phone": "0238-46-2117",
      "license_no": "2528",
      "license_date": "2022-03-19",
      "expire_date": "2028-03-31"
    },
    {
      "name": "川西町観光協会　川西ダリヤ園売店",
      "name_kana": "カワニシマチカンコウキョウカイ　カワニシダリヤエンバイテン",
      "business_type": "① 飲食店営業",
      "address": "山形県東置賜郡川西町上小松5095-6",
      "lat": 38.002377,
      "lng": 140.031057,
      "geocoding_level": 3,
      "phone": "0238-42-2112",
      "license_no": "2216",
      "license_date": "2023-07-21",
      "expire_date": "2030-03-31"
    },
    {
      "name": "川西町観光協会売店",
      "name_kana": "カワニシマチカンコウキョウカイバイテン",
      "business_type": "① 飲食店営業",
      "address": "山形県東置賜郡川西町ほか県内一円",
      "lat": 38.005188,
      "lng": 140.053094,
      "geocoding_level": 2,
      "phone": "",
      "license_no": "2217",
      "license_date": "2023-07-21",
      "expire_date": "2029-04-30"
    },
    {
      "name": "ツルハドラッグ置賜病院前店",
      "name_kana": "ツルハドラッグオキタマビョウインマエテン",
      "business_type": "⑬ その他の食料・飲料販売業",
      "address": "山形県東置賜郡川西町西大塚１４４７番地４",
      "lat": 38.047585,
      "lng": 140.059504,
      "geocoding_level": null,
      "phone": "0238-49-9970",
      "license_no": "",
      "license_date": null,
      "expire_date": null
    },
    {
      "name": "スカット＆SKT合同会社",
      "name_kana": "スカットアンドエスケーティーゴウドウガイシャ",
      "business_type": "⑬ その他の食料・飲料販売業",
      "address": "山形県東置賜郡川西町玉庭１８４５",
      "lat": 37.932358,
      "lng": 139.989781,
      "geocoding_level": null,
      "phone": "0238-33-9673",
      "license_no": "",
      "license_date": null,
      "expire_date": null
    },
    {
      "name": "そばくらぶ",
      "name_kana": "ソバクラブ",
      "business_type": "① 飲食店営業",
      "address": "山形県東置賜郡川西町大字朴沢２３７－６",
      "lat": 37.985428,
      "lng": 139.991321,
      "geocoding_level": 3,
      "phone": "0238-48-2244",
      "license_no": "2581",
      "license_date": "2024-02-28",
      "expire_date": "2029-03-31"
    },
    {
      "name": "そばくらぶ",
      "name_kana": "ソバクラブ",
      "business_type": "㉔ 麺類製造業",
      "address": "山形県東置賜郡川西町大字朴沢２３７－６",
      "lat": 37.985428,
      "lng": 139.991321,
      "geocoding_level": 3,
      "phone": "0238-48-2244",
      "license_no": "2582",
      "license_date": "2024-02-28",
      "expire_date": "2029-03-31"
    },
    {
      "name": "もちや",
      "name_kana": "モチヤ",
      "business_type": "㉕ そうざい製造業",
      "address": "山形県東置賜郡川西町吉田3642-2",
      "lat": 38.005074,
      "lng": 140.098881,
      "geocoding_level": 3,
      "phone": "0238-44-2950",
      "license_no": "2613",
      "license_date": "2024-03-13",
      "expire_date": "2029-03-31"
    },
    {
      "name": "もち屋",
      "name_kana": "モチヤ",
      "business_type": "① 飲食店営業",
      "address": "山形県東置賜郡川西町大字吉田3642-2",
      "lat": 38.005074,
      "lng": 140.098881,
      "geocoding_level": 3,
      "phone": "0238-44-2950",
      "license_no": "2514",
      "license_date": "2026-03-06",
      "expire_date": "2031-03-31"
    },
    {
      "name": "やすらぎおきたま川西ホール　葬祭センター",
      "name_kana": "ヤスラギオキタマカワニシホール　ソウサイセンター",
      "business_type": "① 飲食店営業",
      "address": "山形県東置賜郡川西町下小松字高野３０５－１０",
      "lat": 38.0306,
      "lng": 140.044784,
      "geocoding_level": null,
      "phone": "0238-46-3320",
      "license_no": "2605",
      "license_date": "2024-03-12",
      "expire_date": "2030-03-31"
    },
    {
      "name": "肉のひらの",
      "name_kana": "ニクノヒラノ",
      "business_type": "③ 食肉販売業",
      "address": "山形県東置賜郡川西町上小松３４８９",
      "lat": 38.002377,
      "lng": 140.031057,
      "geocoding_level": 3,
      "phone": "0238-42-4151",
      "license_no": "2593",
      "license_date": "2024-03-11",
      "expire_date": "2029-03-31"
    },
    {
      "name": "肉のひらの",
      "name_kana": "ニクノヒラノ",
      "business_type": "㉕ そうざい製造業",
      "address": "山形県東置賜郡川西町上小松３４８９",
      "lat": 38.002377,
      "lng": 140.031057,
      "geocoding_level": 3,
      "phone": "0238-42-4151",
      "license_no": "2594",
      "license_date": "2024-03-11",
      "expire_date": "2029-03-31"
    },
    {
      "name": "大都嘉屋",
      "name_kana": "オオツカヤ",
      "business_type": "① 飲食店営業",
      "address": "山形県東置賜郡川西町西大塚１３４９－８",
      "lat": 38.044969,
      "lng": 140.058111,
      "geocoding_level": 3,
      "phone": "0238463911",
      "license_no": "2608",
      "license_date": "2024-03-13",
      "expire_date": "2029-03-31"
    },
    {
      "name": "まっ直ぐ屋",
      "name_kana": "マッスグヤ",
      "business_type": "㉙ 漬物製造業",
      "address": "山形県東置賜郡川西町下奥田169-1",
      "lat": 37.994407223,
      "lng": 140.060410291,
      "geocoding_level": 8,
      "phone": "0238-42-5465",
      "license_no": "2590",
      "license_date": "2024-03-07",
      "expire_date": "2030-03-31"
    },
    {
      "name": "まっ直ぐ屋",
      "name_kana": "マッスグヤ",
      "business_type": "⑪ 菓子製造業",
      "address": "山形県東置賜郡川西町下奥田169-1",
      "lat": 37.994407223,
      "lng": 140.060410291,
      "geocoding_level": 8,
      "phone": "0238-42-5465",
      "license_no": "2591",
      "license_date": "2024-03-07",
      "expire_date": "2030-03-31"
    },
    {
      "name": "神戸屋菓子店",
      "name_kana": "コウベヤカシテン",
      "business_type": "⑪ 菓子製造業",
      "address": "山形県東置賜郡川西町吉田5483-3",
      "lat": 38.005074,
      "lng": 140.098881,
      "geocoding_level": 3,
      "phone": "0238-44-2938",
      "license_no": "2589",
      "license_date": "2024-03-04",
      "expire_date": "2029-03-31"
    },
    {
      "name": "華龍",
      "name_kana": "カリュウ",
      "business_type": "① 飲食店営業",
      "address": "山形県東置賜郡川西町上小松字美女木１０６８－７",
      "lat": 38.002377,
      "lng": 140.031057,
      "geocoding_level": 3,
      "phone": "0238-42-2560",
      "license_no": "2603",
      "license_date": "2024-03-12",
      "expire_date": "2030-03-31"
    },
    {
      "name": "カネジューニ味噌醤油製造所",
      "name_kana": "カンジューニミソショウユセイゾウショ",
      "business_type": "⑳ みそ又はしょうゆ製造業",
      "address": "山形県東置賜郡川西町中小松２８５５",
      "lat": 38.014168,
      "lng": 140.054852,
      "geocoding_level": 3,
      "phone": "0238-42-2008",
      "license_no": "2599",
      "license_date": "2024-03-12",
      "expire_date": "2029-03-31"
    },
    {
      "name": "ひょうたん",
      "name_kana": "ヒョウタン",
      "business_type": "① 飲食店営業",
      "address": "山形県東置賜郡川西町西大塚2407-4",
      "lat": 38.044969,
      "lng": 140.058111,
      "geocoding_level": 3,
      "phone": "",
      "license_no": "2616",
      "license_date": "2024-03-14",
      "expire_date": "2030-03-31"
    },
    {
      "name": "さっぽろ",
      "name_kana": "サッポロ",
      "business_type": "① 飲食店営業",
      "address": "山形県東置賜郡川西町上小松３１４５",
      "lat": 38.004345,
      "lng": 140.04273,
      "geocoding_level": null,
      "phone": "0238-42-4821",
      "license_no": "2596",
      "license_date": "2024-03-11",
      "expire_date": "2029-03-31"
    },
    {
      "name": "セブンイ-レブン川西町上小松店",
      "name_kana": "セブンイレブンカワニシマチカミコマツテン",
      "business_type": "① 飲食店営業",
      "address": "山形県東置賜郡川西町上小松３３７２",
      "lat": 38.002377,
      "lng": 140.031057,
      "geocoding_level": 3,
      "phone": "0238-42-6727",
      "license_no": "2597",
      "license_date": "2024-03-11",
      "expire_date": "2030-03-31"
    },
    {
      "name": "セブンイ-レブン川西町上小松店",
      "name_kana": "セブンイレブンカワニシマチカミコマツテン",
      "business_type": "⑩ コンビニエンスストア",
      "address": "山形県東置賜郡川西町上小松３３７２",
      "lat": 38.004758,
      "lng": 140.039719,
      "geocoding_level": null,
      "phone": "0238-42-6727",
      "license_no": "",
      "license_date": null,
      "expire_date": null
    },
    {
      "name": "ベリー・ファンタジー",
      "name_kana": "ベリーファンタジー",
      "business_type": "㉚ 密封包装食品製造業",
      "address": "山形県東置賜郡川西町高山２１－２",
      "lat": 37.998000597,
      "lng": 140.07895143,
      "geocoding_level": 8,
      "phone": "0238426445",
      "license_no": "2609",
      "license_date": "2024-03-13",
      "expire_date": "2029-03-31"
    },
    {
      "name": "ハッピードリンクBAR　SACHI",
      "name_kana": "ハッピードリンクバーサチ",
      "business_type": "① 飲食店営業",
      "address": "山形県東置賜郡川西町小松１７５３－１",
      "lat": 38.026277495,
      "lng": 140.053682359,
      "geocoding_level": 8,
      "phone": "0238424353",
      "license_no": "2610",
      "license_date": "2024-03-13",
      "expire_date": "2029-03-31"
    },
    {
      "name": "藤倉とりや",
      "name_kana": "フジクラトリヤ",
      "business_type": "⑨ 食肉処理業",
      "address": "山形県東置賜郡川西町黒川２５９",
      "lat": 38.015330000000006,
      "lng": 140.079436,
      "geocoding_level": 3,
      "phone": "0238422831",
      "license_no": "2611",
      "license_date": "2024-03-13",
      "expire_date": "2029-03-31"
    },
    {
      "name": "参田・参合目",
      "name_kana": "サンタ　サンゴウメ",
      "business_type": "① 飲食店営業",
      "address": "山形県東置賜郡川西町上小松１６５４",
      "lat": 38.002377,
      "lng": 140.031057,
      "geocoding_level": 3,
      "phone": "0238-42-6757",
      "license_no": "2606",
      "license_date": "2024-03-12",
      "expire_date": "2029-03-31"
    },
    {
      "name": "居酒屋　どうらく",
      "name_kana": "イザカヤ　ドウラク",
      "business_type": "① 飲食店営業",
      "address": "山形県東置賜郡川西町堀金1489",
      "lat": 37.99112239,
      "lng": 140.076478574,
      "geocoding_level": 8,
      "phone": "",
      "license_no": "2009",
      "license_date": "2024-04-11",
      "expire_date": "2030-03-31"
    },
    {
      "name": "Cafe&Bar Face to Face",
      "name_kana": "カフェアンドバーフェイストゥーフェイス",
      "business_type": "① 飲食店営業",
      "address": "山形県東置賜郡川西町上小松1611-18",
      "lat": 38.002377,
      "lng": 140.031057,
      "geocoding_level": 3,
      "phone": "028-33-0590",
      "license_no": "2027",
      "license_date": "2024-04-24",
      "expire_date": "2030-03-31"
    },
    {
      "name": "ローソン川西吉田店",
      "name_kana": "ローソンカワニシヨシダテン",
      "business_type": "① 魚介類販売業（包装済みの魚介類のみの販売）",
      "address": "山形県東置賜郡川西町吉田字岩見前壱5896-5",
      "lat": 38.004431,
      "lng": 140.045859,
      "geocoding_level": null,
      "phone": "0238442770",
      "license_no": "",
      "license_date": null,
      "expire_date": null
    },
    {
      "name": "ローソン川西吉田店",
      "name_kana": "ローソンカワニシヨシダテン",
      "business_type": "② 食肉販売業（包装済みの食肉のみの販売）",
      "address": "山形県東置賜郡川西町吉田字岩見前壱5896-5",
      "lat": 38.004431,
      "lng": 140.045859,
      "geocoding_level": null,
      "phone": "0238442770",
      "license_no": "",
      "license_date": null,
      "expire_date": null
    },
    {
      "name": "ローソン川西吉田店",
      "name_kana": "ローソンカワニシヨシダテン",
      "business_type": "③ 乳類販売業",
      "address": "山形県東置賜郡川西町吉田字岩見前壱5896-5",
      "lat": 38.004431,
      "lng": 140.045859,
      "geocoding_level": null,
      "phone": "0238442770",
      "license_no": "",
      "license_date": null,
      "expire_date": null
    },
    {
      "name": "ローソン川西吉田店",
      "name_kana": "ローソンカワニシヨシダテン",
      "business_type": "⑥ 弁当販売業",
      "address": "山形県東置賜郡川西町吉田字岩見前壱5896-5",
      "lat": 38.004431,
      "lng": 140.045859,
      "geocoding_level": null,
      "phone": "0238442770",
      "license_no": "",
      "license_date": null,
      "expire_date": null
    },
    {
      "name": "ローソン川西吉田店",
      "name_kana": "ローソンカワニシヨシダテン",
      "business_type": "⑩ コンビニエンスストア",
      "address": "山形県東置賜郡川西町吉田字岩見前壱5896-5",
      "lat": 38.004431,
      "lng": 140.045859,
      "geocoding_level": null,
      "phone": "0238442770",
      "license_no": "",
      "license_date": null,
      "expire_date": null
    },
    {
      "name": "ローソン川西吉田店",
      "name_kana": "ローソンカワニシヨシダテン",
      "business_type": "⑬ その他の食料・飲料販売業",
      "address": "山形県東置賜郡川西町吉田字岩見前壱5896-5",
      "lat": 38.004431,
      "lng": 140.045859,
      "geocoding_level": null,
      "phone": "0238442770",
      "license_no": "",
      "license_date": null,
      "expire_date": null
    },
    {
      "name": "ローソン川西吉田店",
      "name_kana": "ローソンカワニシヨシタテン",
      "business_type": "① 飲食店営業",
      "address": "山形県東置賜郡川西町大字吉田字岩見前壱５８９６－５",
      "lat": 38.005074,
      "lng": 140.098881,
      "geocoding_level": 3,
      "phone": "0238442770",
      "license_no": "2507",
      "license_date": "2026-03-04",
      "expire_date": "2032-03-31"
    },
    {
      "name": "置賜家畜市場食堂",
      "name_kana": "オキタマカチクシジョウショクドウ",
      "business_type": "① 飲食店営業",
      "address": "山形県東置賜郡川西町下平柳字馬場1543",
      "lat": 38.001004,
      "lng": 140.124485,
      "geocoding_level": 3,
      "phone": "0238442154",
      "license_no": "2289",
      "license_date": "2024-08-29",
      "expire_date": "2030-03-31"
    },
    {
      "name": "地酒と黒べこまつり実行委員会",
      "name_kana": "ジザケトクロベコマツリジッコウイインカイ",
      "business_type": "② 食肉販売業（包装済みの食肉のみの販売）",
      "address": "山形県東置賜郡川西町上小松977番地1",
      "lat": 38.005153,
      "lng": 140.053159,
      "geocoding_level": null,
      "phone": "0238-42-6641",
      "license_no": "",
      "license_date": null,
      "expire_date": null
    },
    {
      "name": "はしもと屋",
      "name_kana": "ハシモトヤ",
      "business_type": "① 飲食店営業",
      "address": "山形県東置賜郡川西町大字上小松１８２５－２",
      "lat": 38.002749,
      "lng": 140.047165,
      "geocoding_level": null,
      "phone": "0238-42-3323",
      "license_no": "2499",
      "license_date": "2025-03-12",
      "expire_date": "2030-03-31"
    },
    {
      "name": "セブンーイレブン川西町高山店",
      "name_kana": "セブンーイレブンカワニシマチタカヤマテン",
      "business_type": "① 飲食店営業",
      "address": "山形県東置賜郡川西町大字高山2394-1",
      "lat": 38.028075757,
      "lng": 140.10000177,
      "geocoding_level": 8,
      "phone": "0238-42-5117",
      "license_no": "2504",
      "license_date": "2025-03-12",
      "expire_date": "2031-03-31"
    },
    {
      "name": "セブンーイレブン川西町高山店",
      "name_kana": "セブンーイレブンカワニシマチタカヤマテン",
      "business_type": "⑩ コンビニエンスストア",
      "address": "山形県東置賜郡川西町大字高山2394-1",
      "lat": 38.027977,
      "lng": 140.099593,
      "geocoding_level": null,
      "phone": "0238-42-5117",
      "license_no": "",
      "license_date": null,
      "expire_date": null
    },
    {
      "name": "ライブスペース　ジャム",
      "name_kana": "ライブスペース　ジャム",
      "business_type": "① 飲食店営業",
      "address": "山形県東置賜郡川西町大字上小松永蓮寺２９９２",
      "lat": 38.002377,
      "lng": 140.031057,
      "geocoding_level": 3,
      "phone": "0238-42-4533",
      "license_no": "2500",
      "license_date": "2025-03-12",
      "expire_date": "2031-03-31"
    },
    {
      "name": "ファミリーマート川西時田店",
      "name_kana": "ファミリーマートカワニシトキタテン",
      "business_type": "① 飲食店営業",
      "address": "山形県東置賜郡川西町大字時田字他屋９１８－１０",
      "lat": 37.981286,
      "lng": 140.063281,
      "geocoding_level": 3,
      "phone": "0238-46-5032",
      "license_no": "2501",
      "license_date": "2025-03-12",
      "expire_date": "2031-03-31"
    },
    {
      "name": "ファミリーマート川西時田店",
      "name_kana": "ファミリーマートカワニシトキタテン",
      "business_type": "⑩ コンビニエンスストア",
      "address": "山形県東置賜郡川西町大字時田字他屋９１８－１０",
      "lat": 37.981112,
      "lng": 140.063856,
      "geocoding_level": null,
      "phone": "0238-46-5032",
      "license_no": "",
      "license_date": null,
      "expire_date": null
    },
    {
      "name": "大島屋",
      "name_kana": "オオシマヤ",
      "business_type": "① 飲食店営業",
      "address": "山形県東置賜郡川西町大字吉田3612-3",
      "lat": 38.005074,
      "lng": 140.098881,
      "geocoding_level": 3,
      "phone": "0238442617",
      "license_no": "2506",
      "license_date": "2025-03-12",
      "expire_date": "2030-03-31"
    },
    {
      "name": "コメリハードアンドグリーン川西店",
      "name_kana": "コメリハードアンドグリーンカワニシテン",
      "business_type": "⑧ 米穀類販売業",
      "address": "山形県東置賜郡川西町大字中小松字田仲２５０７－６",
      "lat": 38.013198,
      "lng": 140.052695,
      "geocoding_level": null,
      "phone": "0238-54-0028",
      "license_no": "",
      "license_date": null,
      "expire_date": null
    },
    {
      "name": "95BASE",
      "name_kana": "キューゴーベース",
      "business_type": "① 飲食店営業",
      "address": "山形県東置賜郡川西町他山形県内一円",
      "lat": 38.005188,
      "lng": 140.053094,
      "geocoding_level": 2,
      "phone": "",
      "license_no": "2187",
      "license_date": "2025-07-15",
      "expire_date": "2030-09-30"
    },
    {
      "name": "SomeTime",
      "name_kana": "サムタイム",
      "business_type": "① 飲食店営業",
      "address": "山形県東置賜郡川西町大字上小松1828",
      "lat": 38.002377,
      "lng": 140.031057,
      "geocoding_level": 3,
      "phone": "0238-27-1777",
      "license_no": "2510",
      "license_date": "2026-03-05",
      "expire_date": "2031-03-31"
    },
    {
      "name": "マルシチ寒河江商店",
      "name_kana": "マルシチサガエショウテン",
      "business_type": "④ 魚介類販売業",
      "address": "山形県東置賜郡川西町大字吉田３５５７",
      "lat": 38.005074,
      "lng": 140.098881,
      "geocoding_level": 3,
      "phone": "0238-44-2918",
      "license_no": "2520",
      "license_date": "2026-03-11",
      "expire_date": "2032-03-31"
    },
    {
      "name": "マルシチ寒河江商店",
      "name_kana": "マルシチサガエショウテン",
      "business_type": "② 食肉販売業（包装済みの食肉のみの販売）",
      "address": "山形県東置賜郡川西町吉田３５５７",
      "lat": 38.009091,
      "lng": 140.106761,
      "geocoding_level": null,
      "phone": "0238-44-2918",
      "license_no": "",
      "license_date": null,
      "expire_date": null
    },
    {
      "name": "マルシチ寒河江商店",
      "name_kana": "マルシチサガエショウテン",
      "business_type": "⑦ 野菜果物販売業",
      "address": "山形県東置賜郡川西町吉田３５５７",
      "lat": 38.009091,
      "lng": 140.106761,
      "geocoding_level": null,
      "phone": "0238-44-2918",
      "license_no": "",
      "license_date": null,
      "expire_date": null
    },
    {
      "name": "鴨川",
      "name_kana": "カモガワ",
      "business_type": "① 飲食店営業",
      "address": "山形県東置賜郡川西町大字上小松3127",
      "lat": 38.002377,
      "lng": 140.031057,
      "geocoding_level": 3,
      "phone": "0238-42-2031",
      "license_no": "2515",
      "license_date": "2026-03-06",
      "expire_date": "2031-03-31"
    },
    {
      "name": "ボーカル　2ndシーズン",
      "name_kana": "ボーカル　セカンドシーズン",
      "business_type": "① 飲食店営業",
      "address": "山形県東置賜郡川西町大字小松８５０番地１",
      "lat": 38.024762668,
      "lng": 140.057042681,
      "geocoding_level": 8,
      "phone": "0238271778",
      "license_no": "2470",
      "license_date": "2026-02-12",
      "expire_date": "2032-03-31"
    },
    {
      "name": "ホテルCOTEdeux",
      "name_kana": "ホテルコートデュー",
      "business_type": "① 飲食店営業",
      "address": "山形県東置賜郡川西町大字下小松1737-6",
      "lat": 38.02825,
      "lng": 140.047347,
      "geocoding_level": 3,
      "phone": "0238-86-2070",
      "license_no": "2522",
      "license_date": "2026-03-13",
      "expire_date": "2031-03-31"
    },
    {
      "name": "東北ハッピー農園",
      "name_kana": "トウホクハッピーノウエン",
      "business_type": "⑦ 野菜果物販売業",
      "address": "山形県東置賜郡川西町中小松２５２８",
      "lat": 38.013535,
      "lng": 140.053537,
      "geocoding_level": null,
      "phone": "08047976710",
      "license_no": "",
      "license_date": null,
      "expire_date": null
    },
    {
      "name": "東北ハッピー農園",
      "name_kana": "トウホクハッピーノウエン",
      "business_type": "⑧ 米穀類販売業",
      "address": "山形県東置賜郡川西町中小松２５２８",
      "lat": 38.013535,
      "lng": 140.053537,
      "geocoding_level": null,
      "phone": "08047976710",
      "license_no": "",
      "license_date": null,
      "expire_date": null
    },
    {
      "name": "東北ハッピー農園",
      "name_kana": "トウホクハッピーノウエン",
      "business_type": "⑬ その他の食料・飲料販売業",
      "address": "山形県東置賜郡川西町中小松２５２８",
      "lat": 38.013535,
      "lng": 140.053537,
      "geocoding_level": null,
      "phone": "08047976710",
      "license_no": "",
      "license_date": null,
      "expire_date": null
    },
    {
      "name": "渡部糀屋",
      "name_kana": "ワタナベコウジヤ",
      "business_type": "⑳ みそ又はしょうゆ製造業",
      "address": "山形県東置賜郡川西町大字上小松1891-8",
      "lat": 38.002377,
      "lng": 140.031057,
      "geocoding_level": 3,
      "phone": "0238-42-4912",
      "license_no": "2516",
      "license_date": "2026-03-06",
      "expire_date": "2031-03-31"
    },
    {
      "name": "カフェ＆レストラン　アリス",
      "name_kana": "カフェアンドレストラン　アリス",
      "business_type": "① 飲食店営業",
      "address": "山形県東置賜郡川西町大字西大塚1379",
      "lat": 38.044969,
      "lng": 140.058111,
      "geocoding_level": 3,
      "phone": "0238-46-2266",
      "license_no": "2511",
      "license_date": "2026-03-05",
      "expire_date": "2031-03-31"
    },
    {
      "name": "バンバン食堂",
      "name_kana": "バンバンショクドウ",
      "business_type": "① 飲食店営業",
      "address": "山形県東置賜郡川西町大字中小松2507-1",
      "lat": 38.014168,
      "lng": 140.054852,
      "geocoding_level": 3,
      "phone": "0238-46-2507",
      "license_no": "2512",
      "license_date": "2026-03-05",
      "expire_date": "2032-03-31"
    },
    {
      "name": "株式会社さがえ畜産",
      "name_kana": "カブシキガイシャサガエチクサン",
      "business_type": "② 食肉販売業（包装済みの食肉のみの販売）",
      "address": "山形県東置賜郡川西町大字堀金１８３５",
      "lat": 37.987659,
      "lng": 140.096936,
      "geocoding_level": null,
      "phone": "080-4517-1600",
      "license_no": "",
      "license_date": null,
      "expire_date": null
    },
    {
      "name": "金ちゃんラーメン川西店",
      "name_kana": "キンチャンラーメンカワニシテン",
      "business_type": "① 飲食店営業",
      "address": "山形県東置賜郡川西町大字堀金2437",
      "lat": 37.991335782,
      "lng": 140.075866242,
      "geocoding_level": 8,
      "phone": "",
      "license_no": "2534",
      "license_date": "2026-03-24",
      "expire_date": "2031-03-31"
    },
    {
      "name": "焼鳥　友三",
      "name_kana": "ヤキトリ　トモゾウ",
      "business_type": "① 飲食店営業",
      "address": "山形県東置賜郡川西町上小松1624-1",
      "lat": 38.002377,
      "lng": 140.031057,
      "geocoding_level": 3,
      "phone": "070-5096-6506",
      "license_no": "2057",
      "license_date": "2026-05-21",
      "expire_date": "2032-03-31"
    }
  ]
}
