{
  "meta": {
    "updated": 1783568789,
    "sources": [
      {
        "source": "厚生労働省 食品衛生申請等システム（オープンデータ）",
        "license": "公共データ利用規約（第1.0版, PDL1.0）"
      }
    ]
  },
  "data": [
    {
      "name": "ダイソー　プラッセ小林店",
      "name_kana": "ダイソー　プラッセコバヤシテン",
      "business_type": "⑬ その他の食料・飲料販売業",
      "address": "宮崎県小林市細野字池の原１９７６－１ プラッセ小林店地下１階",
      "lat": 31.976681,
      "lng": 130.973408,
      "geocoding_level": null,
      "phone": "",
      "license_no": "",
      "license_date": null,
      "expire_date": null
    },
    {
      "name": "ダイソー　小林店",
      "name_kana": "ダイソー　コバヤシテン",
      "business_type": "⑬ その他の食料・飲料販売業",
      "address": "宮崎県小林市堤３０２６－９",
      "lat": 31.981892,
      "lng": 130.999292,
      "geocoding_level": null,
      "phone": "",
      "license_no": "",
      "license_date": null,
      "expire_date": null
    },
    {
      "name": "ジョイフル小林店",
      "name_kana": "ジョイフルコバヤシテン",
      "business_type": "① 飲食店営業",
      "address": "宮崎県小林市堤２９６１－１０",
      "lat": 31.98756,
      "lng": 130.990185,
      "geocoding_level": null,
      "phone": "0984-23-7145",
      "license_no": "４０４４－２－１８",
      "license_date": "2022-08-08",
      "expire_date": "2028-08-31"
    },
    {
      "name": "ジョイフル小林細野店",
      "name_kana": "ジョイフルコバヤシホソノテン",
      "business_type": "① 飲食店営業",
      "address": "宮崎県小林市細野４７８－１２",
      "lat": 31.997063,
      "lng": 130.967403,
      "geocoding_level": null,
      "phone": "0984-21-0466",
      "license_no": "２４０４４－１－１６５",
      "license_date": "2026-02-04",
      "expire_date": "2032-02-29"
    },
    {
      "name": "ダイナム宮崎小林店",
      "name_kana": "ダイナムミヤザキコバヤシテン",
      "business_type": "⑤ コップ式自動販売機（自動洗浄・屋内設置）",
      "address": "宮崎県小林市水流迫字松原223番地4",
      "lat": 24.786721,
      "lng": 125.266498,
      "geocoding_level": null,
      "phone": "070-1455-6836",
      "license_no": "",
      "license_date": null,
      "expire_date": null
    },
    {
      "name": "ダイナム宮崎小林店",
      "name_kana": "ダイナムミヤザキコバヤシテン",
      "business_type": "⑤ コップ式自動販売機（自動洗浄・屋内設置）",
      "address": "宮崎県小林市水流迫字松原223番地4",
      "lat": 24.786721,
      "lng": 125.266498,
      "geocoding_level": null,
      "phone": "070-1455-6836",
      "license_no": "",
      "license_date": null,
      "expire_date": null
    },
    {
      "name": "アタックス小林店　清流物語",
      "name_kana": "アタックスコバヤシテン　セイリュウモノガタリ",
      "business_type": "⑫ 自動販売機による販売業（コップ式自動販売機（自動洗浄・屋内設置）及び営業許可の対象となる自動販売機を除く）",
      "address": "宮崎県小林市大字水流迫231番地3",
      "lat": 31.982265,
      "lng": 131.000568,
      "geocoding_level": null,
      "phone": "",
      "license_no": "",
      "license_date": null,
      "expire_date": null
    },
    {
      "name": "コープみやざき小林店",
      "name_kana": "コープミヤザキコバヤシテン",
      "business_type": "⑫ 自動販売機による販売業（コップ式自動販売機（自動洗浄・屋内設置）及び営業許可の対象となる自動販売機を除く）",
      "address": "宮崎県小林市真方字南小林原459番地",
      "lat": 31.992524,
      "lng": 130.965781,
      "geocoding_level": null,
      "phone": "",
      "license_no": "",
      "license_date": null,
      "expire_date": null
    },
    {
      "name": "アタックス小林店",
      "name_kana": "アタックスコバヤシテン",
      "business_type": "⑪ 百貨店、総合スーパー",
      "address": "宮崎県小林市水流迫231番地3",
      "lat": 31.983204,
      "lng": 131.001109,
      "geocoding_level": null,
      "phone": "0984-23-8001",
      "license_no": "",
      "license_date": null,
      "expire_date": null
    },
    {
      "name": "アタックス小林店",
      "name_kana": "アタックスコバヤシテン",
      "business_type": "① 飲食店営業",
      "address": "宮崎県小林市水流迫２３１－３",
      "lat": 31.983204,
      "lng": 131.001109,
      "geocoding_level": null,
      "phone": "0984-23-8001",
      "license_no": "４０４４－１－３６",
      "license_date": "2024-08-06",
      "expire_date": "2030-08-31"
    },
    {
      "name": "アタックス小林店",
      "name_kana": "アタックスコバヤシテン",
      "business_type": "④ 魚介類販売業",
      "address": "宮崎県小林市水流迫２３１－３",
      "lat": 31.983204,
      "lng": 131.001109,
      "geocoding_level": null,
      "phone": "0984-23-8001",
      "license_no": "４０４４－２７－１",
      "license_date": "2024-08-06",
      "expire_date": "2030-08-31"
    },
    {
      "name": "もち吉　小林店",
      "name_kana": "モチキチ　コバヤシテン",
      "business_type": "⑬ その他の食料・飲料販売業",
      "address": "宮崎県小林市堤松添2962番地2 ナガトモコーポ1F　B号",
      "lat": 31.974648,
      "lng": 130.999895,
      "geocoding_level": null,
      "phone": "0984250397",
      "license_no": "",
      "license_date": null,
      "expire_date": null
    },
    {
      "name": "イーティーズ小林店",
      "name_kana": "イーティーズコバヤシテン",
      "business_type": "① 飲食店営業",
      "address": "宮崎県小林市細野１９７６－１ ダイレックス小林店内",
      "lat": 31.989528,
      "lng": 130.979429,
      "geocoding_level": null,
      "phone": "0984-23-2772",
      "license_no": "２４０４４－１－６３",
      "license_date": "2025-07-30",
      "expire_date": "2031-08-31"
    },
    {
      "name": "有限会社今井青果",
      "name_kana": "ユウゲンガイシャイマイセイカ",
      "business_type": "⑦ 野菜果物販売業",
      "address": "宮崎県小林市細野226番地",
      "lat": 31.994913,
      "lng": 130.975958,
      "geocoding_level": null,
      "phone": "0984-23-5358",
      "license_no": "",
      "license_date": null,
      "expire_date": null
    },
    {
      "name": "有限会社今井青果",
      "name_kana": "ユウゲンガイシャイマイセイカ",
      "business_type": "⑰ 農産保存食料品製造・加工業",
      "address": "宮崎県小林市細野226番地",
      "lat": 31.994913,
      "lng": 130.975958,
      "geocoding_level": null,
      "phone": "0984-23-5358",
      "license_no": "",
      "license_date": null,
      "expire_date": null
    },
    {
      "name": "宮崎県立小林高等学校　体育コース生徒寮",
      "name_kana": "ミヤザキケンリツコバヤシコウトウガッコウタイイクコースセイトリョウ",
      "business_type": "① 飲食店営業",
      "address": "宮崎県小林市真方１１５２－１",
      "lat": 32.004646,
      "lng": 130.969867,
      "geocoding_level": null,
      "phone": "",
      "license_no": "４０４４－１－５６",
      "license_date": "2023-08-01",
      "expire_date": "2029-08-31"
    },
    {
      "name": "スーパーセンタートライアル小林店",
      "name_kana": "スーパーセンタートライアルコバヤシテン",
      "business_type": "⑪ 菓子製造業",
      "address": "宮崎県小林市堤字西ノ原２９０７番１",
      "lat": 31.974648,
      "lng": 130.999895,
      "geocoding_level": null,
      "phone": "098-424-5505",
      "license_no": "４０４４－８－２２",
      "license_date": "2023-03-24",
      "expire_date": "2029-05-31"
    },
    {
      "name": "スーパーセンタートライアル小林店",
      "name_kana": "スーパーセンタートライアルコバヤシテン",
      "business_type": "① 飲食店営業",
      "address": "宮崎県小林市堤字西ノ原２９０７番１",
      "lat": 31.974648,
      "lng": 130.999895,
      "geocoding_level": null,
      "phone": "0984-24-5505",
      "license_no": "４０４４－１－５６",
      "license_date": "2024-08-09",
      "expire_date": "2030-08-31"
    },
    {
      "name": "スーパーセンタートライアル小林店",
      "name_kana": "スーパーセンタートライアルコバヤシテン",
      "business_type": "③ 食肉販売業",
      "address": "宮崎県小林市堤字西ノ原２９０７番１",
      "lat": 31.974648,
      "lng": 130.999895,
      "geocoding_level": null,
      "phone": "0984-24-5505",
      "license_no": "４０４４－２３－３",
      "license_date": "2024-08-09",
      "expire_date": "2030-08-31"
    },
    {
      "name": "KONDITREI　三八堂",
      "name_kana": "コンディトライミハチドウ",
      "business_type": "⑪ 菓子製造業",
      "address": "宮崎県小林市細野１５９－１",
      "lat": 31.994202,
      "lng": 130.978187,
      "geocoding_level": null,
      "phone": "0984-23-5656",
      "license_no": "２４０４４－８－３９",
      "license_date": "2026-01-29",
      "expire_date": "2032-02-29"
    },
    {
      "name": "KFCサンキュー小林店",
      "name_kana": "ケンタッキーフライドチキンサンキューコバヤシテン",
      "business_type": "⑬ その他の食料・飲料販売業",
      "address": "宮崎県小林市堤3005番12",
      "lat": 31.981647,
      "lng": 130.996094,
      "geocoding_level": null,
      "phone": "0984-48-7122",
      "license_no": "",
      "license_date": null,
      "expire_date": null
    },
    {
      "name": "KFCサンキュー小林店",
      "name_kana": "ケーエフシーサンキューコバヤシテン",
      "business_type": "① 飲食店営業",
      "address": "宮崎県小林市堤３００５-１２",
      "lat": 31.981647,
      "lng": 130.996094,
      "geocoding_level": null,
      "phone": "0984-48-7122",
      "license_no": "４０４４－２－２７",
      "license_date": "2022-07-25",
      "expire_date": "2028-08-31"
    },
    {
      "name": "小林生駒高原葡萄酒工房・Chalet生駒高原",
      "name_kana": "コバヤシイコマコウゲンブドウシュコウボウ　シャレーイコマコウゲン",
      "business_type": "㉕ 行商",
      "address": "宮崎県小林市南西方８５６５－７ （県内一円）",
      "lat": 31.977761,
      "lng": 130.90419,
      "geocoding_level": null,
      "phone": "0984-25-2662",
      "license_no": "",
      "license_date": null,
      "expire_date": null
    },
    {
      "name": "小林生駒高原葡萄酒工房Cafeベリーベリー",
      "name_kana": "コバヤシイコマコウゲンブドウシュコウボウカフェベリーベリー",
      "business_type": "① 飲食店営業",
      "address": "宮崎県小林市南西方８５６５－７",
      "lat": 31.977761,
      "lng": 130.90419,
      "geocoding_level": null,
      "phone": "0984-25-2662",
      "license_no": "２４０４４－１－６８",
      "license_date": "2025-08-27",
      "expire_date": "2031-08-31"
    },
    {
      "name": "小林生駒高原葡萄酒工房ベリーベリー",
      "name_kana": "コバヤシイコマコウゲンブドウシュコウボウベリーベリー",
      "business_type": "⑪ 菓子製造業",
      "address": "宮崎県小林市南西方８５６５－７",
      "lat": 31.977761,
      "lng": 130.90419,
      "geocoding_level": null,
      "phone": "0984-25-2662",
      "license_no": "２４０４４－８－１８",
      "license_date": "2025-08-27",
      "expire_date": "2031-08-31"
    },
    {
      "name": "小林生駒高原葡萄酒工房",
      "name_kana": "コバヤシイコマコウゲンブドウシュコウボウ",
      "business_type": "㉑ 酒類製造業",
      "address": "宮崎県小林市南西方８５６５－７",
      "lat": 31.977761,
      "lng": 130.90419,
      "geocoding_level": null,
      "phone": "0984-25-2662",
      "license_no": "２４０４４－４７－１",
      "license_date": "2025-08-27",
      "expire_date": "2031-08-31"
    },
    {
      "name": "小林養鶏株式会社",
      "name_kana": "コバヤシヨウケイカブシキガイシャ",
      "business_type": "㉕ そうざい製造業",
      "address": "宮崎県小林市堤２３６８",
      "lat": 31.970966,
      "lng": 130.997759,
      "geocoding_level": null,
      "phone": "",
      "license_no": "２４０４４－５５－５",
      "license_date": "2025-05-07",
      "expire_date": "2031-05-31"
    },
    {
      "name": "OCT２６８",
      "name_kana": "オクトニイロクハチ",
      "business_type": "③ 食肉販売業",
      "address": "宮崎県小林市野尻町三ケ野山３８０１－４",
      "lat": 31.97699,
      "lng": 131.05603,
      "geocoding_level": null,
      "phone": "0984-47-0910",
      "license_no": "４０４４－２３－４",
      "license_date": "2024-08-15",
      "expire_date": "2030-08-31"
    },
    {
      "name": "OCT２６８",
      "name_kana": "オクトニイロクハチ",
      "business_type": "㉕ そうざい製造業",
      "address": "宮崎県小林市野尻町三ケ野山３８０１－４",
      "lat": 31.97699,
      "lng": 131.05603,
      "geocoding_level": null,
      "phone": "0984-47-0910",
      "license_no": "４０４４－５５－９",
      "license_date": "2024-08-15",
      "expire_date": "2030-08-31"
    },
    {
      "name": "ふれあいの里",
      "name_kana": "フレアイノサト",
      "business_type": "① 飲食店営業",
      "address": "宮崎県小林市堤２９５０",
      "lat": 31.984587,
      "lng": 130.987942,
      "geocoding_level": null,
      "phone": "0984-23-4478",
      "license_no": "４０４４－２－４５",
      "license_date": "2022-11-17",
      "expire_date": "2028-11-30"
    },
    {
      "name": "日清医療食品　内村病院事業所",
      "name_kana": "ニッシンイリョウショクヒンウチムラビョウインジギョウショ",
      "business_type": "① 飲食店営業",
      "address": "宮崎県小林市水流迫８５２－１",
      "lat": 31.993499,
      "lng": 130.994833,
      "geocoding_level": null,
      "phone": "0984-24-1591",
      "license_no": "４０４４－２－６６",
      "license_date": "2023-02-17",
      "expire_date": "2029-02-28"
    },
    {
      "name": "小林市立病院",
      "name_kana": "コバヤシシリツビョウイン",
      "business_type": "① 飲食店営業",
      "address": "宮崎県小林市細野２２３５－３",
      "lat": 31.989065,
      "lng": 130.985342,
      "geocoding_level": null,
      "phone": "0984-23-4711",
      "license_no": "４０４４－１－１３６",
      "license_date": "2024-03-22",
      "expire_date": "2030-05-31"
    },
    {
      "name": "小林ひまわり荘",
      "name_kana": "コバヤシヒマワリソウ",
      "business_type": "① 飲食店営業",
      "address": "宮崎県小林市北西方３１３０－２",
      "lat": 32.023112,
      "lng": 130.917613,
      "geocoding_level": null,
      "phone": "0984-25-2021",
      "license_no": "４０４４－１－１２７",
      "license_date": "2025-02-28",
      "expire_date": "2031-02-28"
    },
    {
      "name": "花のれん",
      "name_kana": "ハナノレン",
      "business_type": "① 飲食店営業",
      "address": "宮崎県小林市堤字金鳥居３０２６－９",
      "lat": 31.974648,
      "lng": 130.999895,
      "geocoding_level": null,
      "phone": "0984-23-3031",
      "license_no": "４０４４－１－９８",
      "license_date": "2024-11-20",
      "expire_date": "2030-11-30"
    },
    {
      "name": "さんまるこ亭",
      "name_kana": "サンマルコテイ",
      "business_type": "① 飲食店営業",
      "address": "宮崎県小林市堤２７６８－１０",
      "lat": 31.978005,
      "lng": 130.997739,
      "geocoding_level": null,
      "phone": "0984-22-3005",
      "license_no": "２４０４４－１－９",
      "license_date": "2025-05-15",
      "expire_date": "2031-05-31"
    },
    {
      "name": "花咲アタックス小林",
      "name_kana": "ハナサキアタックスコバヤシ",
      "business_type": "① 飲食店営業",
      "address": "宮崎県小林市水流迫２３１ー３",
      "lat": 31.983204,
      "lng": 131.001109,
      "geocoding_level": null,
      "phone": "0984-22-0422",
      "license_no": "２４０４４－１－４",
      "license_date": "2025-05-15",
      "expire_date": "2031-05-31"
    },
    {
      "name": "「あんぱさんど」",
      "name_kana": "アンパサンド",
      "business_type": "① 飲食店営業",
      "address": "宮崎県小林市野尻町東麓２３３８",
      "lat": 31.958928,
      "lng": 131.099775,
      "geocoding_level": null,
      "phone": "",
      "license_no": "２４０４４－１－２",
      "license_date": "2026-05-14",
      "expire_date": "2032-05-31"
    },
    {
      "name": "Dem~2nd",
      "name_kana": "ディムセカンド",
      "business_type": "⑬ 乳製品製造業",
      "address": "宮崎県小林市真方２５０－１",
      "lat": 31.998259,
      "lng": 130.980277,
      "geocoding_level": null,
      "phone": "080-9064-5609",
      "license_no": "４０４４－１７－１",
      "license_date": "2023-07-20",
      "expire_date": "2029-08-31"
    },
    {
      "name": "Dem~2nd",
      "name_kana": "ディムセカンド",
      "business_type": "⑫ アイスクリーム類製造業",
      "address": "宮崎県小林市真方２５０－１",
      "lat": 31.998259,
      "lng": 130.980277,
      "geocoding_level": null,
      "phone": "080-9064-5609",
      "license_no": "４０４４－１１－１",
      "license_date": "2023-07-20",
      "expire_date": "2029-08-31"
    },
    {
      "name": "わがや食堂　笑来",
      "name_kana": "ワガヤショクドウショウライ",
      "business_type": "① 飲食店営業",
      "address": "宮崎県小林市細野１２５－５",
      "lat": 31.992858,
      "lng": 130.978854,
      "geocoding_level": null,
      "phone": "0984-22-8472",
      "license_no": "４０４４－１－８６",
      "license_date": "2024-11-21",
      "expire_date": "2030-11-30"
    },
    {
      "name": "しょうらい",
      "name_kana": "ショウライ",
      "business_type": "㉕ そうざい製造業",
      "address": "宮崎県小林市細野１１６－３",
      "lat": 31.991968,
      "lng": 130.979354,
      "geocoding_level": null,
      "phone": "",
      "license_no": "４０４４－５５－１８",
      "license_date": "2024-12-27",
      "expire_date": "2031-02-28"
    },
    {
      "name": "天下一手羽先",
      "name_kana": "テンカイチテバサキ",
      "business_type": "① 飲食店営業",
      "address": "宮崎県小林市細野１１６－３",
      "lat": 31.991968,
      "lng": 130.979354,
      "geocoding_level": null,
      "phone": "",
      "license_no": "２４０４４－１－１９",
      "license_date": "2026-05-21",
      "expire_date": "2032-05-31"
    },
    {
      "name": "COCCHI Cafe",
      "name_kana": "コッチカフェ",
      "business_type": "⑬ その他の食料・飲料販売業",
      "address": "宮崎県小林市細野１８９７番地 TENAMUビル　２Ｆ",
      "lat": 31.992882,
      "lng": 130.976982,
      "geocoding_level": null,
      "phone": "0984-22-1076",
      "license_no": "",
      "license_date": null,
      "expire_date": null
    },
    {
      "name": "おこめ処　お結び屋",
      "name_kana": "オコメドコロ　オムスビヤ",
      "business_type": "① 飲食店営業",
      "address": "宮崎県小林市須木下田３５６－１",
      "lat": 32.066026,
      "lng": 131.086982,
      "geocoding_level": null,
      "phone": "0984-25-9500",
      "license_no": "４０４４－１－１３",
      "license_date": "2022-06-30",
      "expire_date": "2028-08-31"
    },
    {
      "name": "Kobayashi Food Lab",
      "name_kana": "コバヤシフードラボ",
      "business_type": "⑦ 野菜果物販売業",
      "address": "宮崎県小林市細野２１９０－１",
      "lat": 31.990989,
      "lng": 130.982259,
      "geocoding_level": null,
      "phone": "0984-22-5500",
      "license_no": "",
      "license_date": null,
      "expire_date": null
    },
    {
      "name": "Kobayashi Food Lab",
      "name_kana": "コバヤシフードラボ",
      "business_type": "⑧ 米穀類販売業",
      "address": "宮崎県小林市細野２１９０－１",
      "lat": 31.990989,
      "lng": 130.982259,
      "geocoding_level": null,
      "phone": "0984-22-5500",
      "license_no": "",
      "license_date": null,
      "expire_date": null
    },
    {
      "name": "Kobayashi Food Lab",
      "name_kana": "コバヤシフードラボ",
      "business_type": "⑨ 通信販売・訪問販売による販売業",
      "address": "宮崎県小林市細野２１９０－１",
      "lat": 31.990989,
      "lng": 130.982259,
      "geocoding_level": null,
      "phone": "0984-22-5500",
      "license_no": "",
      "license_date": null,
      "expire_date": null
    },
    {
      "name": "Kobayashi Food Lab",
      "name_kana": "コバヤシフードラボ",
      "business_type": "⑱ 調味料製造・加工業",
      "address": "宮崎県小林市細野２１９０－１",
      "lat": 31.990989,
      "lng": 130.982259,
      "geocoding_level": null,
      "phone": "0984-22-5500",
      "license_no": "",
      "license_date": null,
      "expire_date": null
    },
    {
      "name": "Kobayashi Food Lab",
      "name_kana": "コバヤシフードラボ",
      "business_type": "㉑ 製茶業",
      "address": "宮崎県小林市細野２１９０－１",
      "lat": 31.990989,
      "lng": 130.982259,
      "geocoding_level": null,
      "phone": "0984-22-5500",
      "license_no": "",
      "license_date": null,
      "expire_date": null
    },
    {
      "name": "Kobayashi Food Lab",
      "name_kana": "コバヤシフードラボ",
      "business_type": "㉕ 行商",
      "address": "宮崎県小林市細野２１９０－１",
      "lat": 31.990989,
      "lng": 130.982259,
      "geocoding_level": null,
      "phone": "0984-22-5500",
      "license_no": "",
      "license_date": null,
      "expire_date": null
    },
    {
      "name": "すきむらんど　かるかや",
      "name_kana": "スキムランド　カルカヤ",
      "business_type": "① 飲食店営業",
      "address": "宮崎県小林市須木下田字宇都中野",
      "lat": 35.707533,
      "lng": 139.663759,
      "geocoding_level": null,
      "phone": "0984-48-2480",
      "license_no": "４０４４－１－４９",
      "license_date": "2023-01-31",
      "expire_date": "2029-02-28"
    },
    {
      "name": "すきむらんど",
      "name_kana": "スキムランド",
      "business_type": "⑦ 野菜果物販売業",
      "address": "宮崎県小林市須木下田３５６－１（県内一円）",
      "lat": 32.066093,
      "lng": 131.086816,
      "geocoding_level": null,
      "phone": "0984-48-2480",
      "license_no": "",
      "license_date": null,
      "expire_date": null
    },
    {
      "name": "ACCHI CAFE",
      "name_kana": "アッチカフェ",
      "business_type": "① 飲食店営業",
      "address": "宮崎県小林市本町１４",
      "lat": 31.992412,
      "lng": 130.976058,
      "geocoding_level": null,
      "phone": "0984-27-4711",
      "license_no": "４０４４－１－１６",
      "license_date": "2024-05-14",
      "expire_date": "2030-05-31"
    },
    {
      "name": "Kobayashi Food Lab",
      "name_kana": "コバヤシフードラボ",
      "business_type": "㉚ 密封包装食品製造業",
      "address": "宮崎県小林市細野２１９０－１",
      "lat": 31.990989,
      "lng": 130.982259,
      "geocoding_level": null,
      "phone": "0984-22-5500",
      "license_no": "４０４４－４５－５",
      "license_date": "2024-09-09",
      "expire_date": "2030-11-30"
    },
    {
      "name": "東俣谷宿泊研修館",
      "name_kana": "ヒガシマタダニシュクハクケンシュウカン",
      "business_type": "① 飲食店営業",
      "address": "宮崎県小林市須木下田９８０－１",
      "lat": 32.072264,
      "lng": 131.087013,
      "geocoding_level": null,
      "phone": "0984-48-2480",
      "license_no": "４０４４－１－１１９",
      "license_date": "2025-02-13",
      "expire_date": "2031-02-28"
    },
    {
      "name": "すきむらんど温泉　かじかの湯",
      "name_kana": "スキムランドオンセンカジカノユ",
      "business_type": "① 飲食店営業",
      "address": "宮崎県小林市須木下田３５６－１",
      "lat": 32.066093,
      "lng": 131.086816,
      "geocoding_level": null,
      "phone": "0984-25-9500",
      "license_no": "２４０４４－１－５４",
      "license_date": "2025-07-18",
      "expire_date": "2031-08-31"
    },
    {
      "name": "(有)山之口畜産 美人の湯店",
      "name_kana": "ユウゲンガイシャ ヤマノクチチクサン ビジンノユテン",
      "business_type": "② 食肉販売業（包装済みの食肉のみの販売）",
      "address": "宮崎県小林市堤4378",
      "lat": 31.962988,
      "lng": 131.004104,
      "geocoding_level": null,
      "phone": "",
      "license_no": "",
      "license_date": null,
      "expire_date": null
    },
    {
      "name": "有限会社山之口畜産",
      "name_kana": "ユウゲンガイシャヤマノクチチクサン",
      "business_type": "⑨ 食肉処理業",
      "address": "宮崎県小林市堤４３５１－２",
      "lat": 31.960485,
      "lng": 131.014388,
      "geocoding_level": null,
      "phone": "0984-24-1782",
      "license_no": "２４０４４－２１－３",
      "license_date": "2025-05-14",
      "expire_date": "2031-05-31"
    },
    {
      "name": "有限会社豊味うどん",
      "name_kana": "ユウゲンガイシャトヨミウドン",
      "business_type": "① 飲食店営業",
      "address": "宮崎県小林市南西方７９８－２",
      "lat": 31.988917,
      "lng": 130.946521,
      "geocoding_level": null,
      "phone": "0984-23-3590",
      "license_no": "４０４４－１－７５",
      "license_date": "2024-11-26",
      "expire_date": "2030-11-30"
    },
    {
      "name": "有限会社豊味うどん",
      "name_kana": "ユウゲンガイシャトヨミウドン",
      "business_type": "① 飲食店営業",
      "address": "宮崎県小林市細野１８８８",
      "lat": 31.993138,
      "lng": 130.9759,
      "geocoding_level": null,
      "phone": "0984-22-8111",
      "license_no": "２４０４４－１－１２２",
      "license_date": "2025-11-11",
      "expire_date": "2031-11-30"
    },
    {
      "name": "有限会社豊味うどん麺工場",
      "name_kana": "ユウゲンガイシャトヨミウドンメンコウジョウ",
      "business_type": "㉔ 麺類製造業",
      "address": "宮崎県小林市南西方７９８－２",
      "lat": 31.988917,
      "lng": 130.946521,
      "geocoding_level": null,
      "phone": "",
      "license_no": "２４０４４－５３－１",
      "license_date": "2026-05-21",
      "expire_date": "2032-05-31"
    },
    {
      "name": "こばやし味彩",
      "name_kana": "コバヤシアジサイ",
      "business_type": "① 飲食店営業",
      "address": "宮崎県小林市野尻町三ケ野山４３４７－１",
      "lat": 31.964522,
      "lng": 131.082363,
      "geocoding_level": null,
      "phone": "0984-44-2210",
      "license_no": "２４０４４－１－１６",
      "license_date": "2025-05-12",
      "expire_date": "2031-05-31"
    },
    {
      "name": "ファミリーマート小林細野店",
      "name_kana": "ファミリーマートコバヤシホソノテン",
      "business_type": "① 飲食店営業",
      "address": "宮崎県小林市細野２７１９－１",
      "lat": 31.98032,
      "lng": 130.975002,
      "geocoding_level": null,
      "phone": "0984-24-5200",
      "license_no": "４０４４－１－１１",
      "license_date": "2024-05-14",
      "expire_date": "2030-05-31"
    },
    {
      "name": "HOW内村病院売店",
      "name_kana": "ハウウチムラビョウインバイテン",
      "business_type": "⑩ コンビニエンスストア",
      "address": "宮崎県小林市水流迫８５２－１",
      "lat": 31.993513,
      "lng": 130.994842,
      "geocoding_level": null,
      "phone": "0984235861",
      "license_no": "",
      "license_date": null,
      "expire_date": null
    },
    {
      "name": "花の駅生駒高原",
      "name_kana": "ハナノエキイコマコウゲン",
      "business_type": "⑬ その他の食料・飲料販売業",
      "address": "宮崎県小林市南西方８５６５－２８ （県内一円）",
      "lat": 31.977761,
      "lng": 130.90419,
      "geocoding_level": null,
      "phone": "0984-27-1919",
      "license_no": "",
      "license_date": null,
      "expire_date": null
    },
    {
      "name": "花の駅生駒高原",
      "name_kana": "ハナノエキイコマコウゲン",
      "business_type": "㉕ 行商",
      "address": "宮崎県小林市南西方８５６５－２８ （県内一円）",
      "lat": 31.977761,
      "lng": 130.90419,
      "geocoding_level": null,
      "phone": "0984-27-1919",
      "license_no": "",
      "license_date": null,
      "expire_date": null
    },
    {
      "name": "霧島SA宮交レストラン上り線",
      "name_kana": "キリシマサービスエリアミヤコウレストランノボリセン",
      "business_type": "⑬ その他の食料・飲料販売業",
      "address": "宮崎県小林市細野４２６３－２３２",
      "lat": 31.966068,
      "lng": 130.952102,
      "geocoding_level": null,
      "phone": "0984231193",
      "license_no": "",
      "license_date": null,
      "expire_date": null
    },
    {
      "name": "霧島SA宮交レストラン下り線",
      "name_kana": "キリシマサービスエリアミヤコウレストランクダリセン",
      "business_type": "⑬ その他の食料・飲料販売業",
      "address": "宮崎県小林市細野４２６３－２３１",
      "lat": 31.966846,
      "lng": 130.952239,
      "geocoding_level": null,
      "phone": "0984231194",
      "license_no": "",
      "license_date": null,
      "expire_date": null
    },
    {
      "name": "霧島SA宮交レストラン下り線",
      "name_kana": "キリシマサービスエリアミヤコウレストランクダリセン",
      "business_type": "① 飲食店営業",
      "address": "宮崎県小林市細野４２６３－２３１",
      "lat": 31.966846,
      "lng": 130.952239,
      "geocoding_level": null,
      "phone": "0984-23-1194",
      "license_no": "４０４４－１－１２",
      "license_date": "2024-05-14",
      "expire_date": "2030-05-31"
    },
    {
      "name": "霧島SA宮交レストラン下り線（カフェ）",
      "name_kana": "キリシマサービスエリアミヤコウレストランクダリセンカフェ",
      "business_type": "① 飲食店営業",
      "address": "宮崎県小林市細野４２６３－２３１",
      "lat": 31.966846,
      "lng": 130.952239,
      "geocoding_level": null,
      "phone": "0984-23-1194",
      "license_no": "４０４４－１－１３",
      "license_date": "2024-05-14",
      "expire_date": "2030-05-31"
    },
    {
      "name": "霧島SA宮交レストラン上り線",
      "name_kana": "キリシマサービスエリアミヤコウレストランノボリセン",
      "business_type": "① 飲食店営業",
      "address": "宮崎県小林市細野４２６３－２３２",
      "lat": 31.966669,
      "lng": 130.952376,
      "geocoding_level": null,
      "phone": "0984-23-1193",
      "license_no": "４０４４－１－１４",
      "license_date": "2024-05-14",
      "expire_date": "2030-05-31"
    },
    {
      "name": "霧島SA宮交レストラン上り線（カフェ）",
      "name_kana": "キリシマサービスエリアミヤコウレストランノボリセンカフェ",
      "business_type": "① 飲食店営業",
      "address": "宮崎県小林市細野４２６３－２３２",
      "lat": 31.966669,
      "lng": 130.952376,
      "geocoding_level": null,
      "phone": "0984-23-1193",
      "license_no": "４０４４－１－１５",
      "license_date": "2024-05-14",
      "expire_date": "2030-05-31"
    },
    {
      "name": "花の駅　生駒高原",
      "name_kana": "ハナノエキイコマコウゲン",
      "business_type": "① 飲食店営業",
      "address": "宮崎県小林市南西方８５６５－２８",
      "lat": 31.977761,
      "lng": 130.90419,
      "geocoding_level": null,
      "phone": "0984-27-1919",
      "license_no": "４０４４－１－４０",
      "license_date": "2024-08-06",
      "expire_date": "2030-08-31"
    },
    {
      "name": "株式会社希望の店　野尻店",
      "name_kana": "カブシキガイシャキボウノミセノジリテン",
      "business_type": "④ 魚介類販売業",
      "address": "宮崎県小林市野尻町東麓１０６６",
      "lat": 31.962967,
      "lng": 131.091303,
      "geocoding_level": null,
      "phone": "0984-44-1265",
      "license_no": "２４０４４－２７－７",
      "license_date": "2026-01-22",
      "expire_date": "2032-02-29"
    },
    {
      "name": "株式会社希望の店　野尻店",
      "name_kana": "カブシキガイシャキボウノミセノジリテン",
      "business_type": "③ 食肉販売業",
      "address": "宮崎県小林市野尻町東麓１０６６",
      "lat": 31.962967,
      "lng": 131.091303,
      "geocoding_level": null,
      "phone": "0984-44-1265",
      "license_no": "２４０４４－２３－１７",
      "license_date": "2026-01-22",
      "expire_date": "2032-02-29"
    },
    {
      "name": "株式会社希望の店　野尻店",
      "name_kana": "カブシキガイシャキボウノミセノジリテン",
      "business_type": "① 飲食店営業",
      "address": "宮崎県小林市野尻町東麓１０６６",
      "lat": 31.962967,
      "lng": 131.091303,
      "geocoding_level": null,
      "phone": "0984-44-1265",
      "license_no": "２４０４４－１－１４４",
      "license_date": "2026-01-22",
      "expire_date": "2032-02-29"
    },
    {
      "name": "ドラッグコスモス小林西店",
      "name_kana": "ドラッグコスモスコバヤシニシテン",
      "business_type": "⑪ 百貨店、総合スーパー",
      "address": "宮崎県小林市細野1567-1",
      "lat": 31.993333,
      "lng": 130.971455,
      "geocoding_level": null,
      "phone": "0984-25-1558",
      "license_no": "",
      "license_date": null,
      "expire_date": null
    },
    {
      "name": "ドラッグコスモス小林堤店",
      "name_kana": "ドラッグコスモスコバヤシツツミテン",
      "business_type": "⑪ 百貨店、総合スーパー",
      "address": "宮崎県小林市堤2997-6",
      "lat": 31.98294,
      "lng": 130.995803,
      "geocoding_level": null,
      "phone": "0984-21-1020",
      "license_no": "",
      "license_date": null,
      "expire_date": null
    },
    {
      "name": "ドラッグコスモス小林上町店",
      "name_kana": "ドラッグコスモスコバヤシカミマチテン",
      "business_type": "⑪ 百貨店、総合スーパー",
      "address": "宮崎県小林市真方454-1",
      "lat": 31.990449,
      "lng": 130.986525,
      "geocoding_level": null,
      "phone": "0984-25-0071",
      "license_no": "",
      "license_date": null,
      "expire_date": null
    },
    {
      "name": "ドラッグコスモス細野店",
      "name_kana": "ドラッグコスモスホソノテン",
      "business_type": "⑪ 百貨店、総合スーパー",
      "address": "宮崎県小林市細野1945-3",
      "lat": 31.985964,
      "lng": 130.976663,
      "geocoding_level": null,
      "phone": "0984-24-5411",
      "license_no": "",
      "license_date": null,
      "expire_date": null
    },
    {
      "name": "富貴包子楼",
      "name_kana": "フウキパオズロウ",
      "business_type": "① 飲食店営業",
      "address": "宮崎県小林市堤 （県内一円）（ただし、同一営業地での店舗設置・営業は連続１０日間以内に限る）",
      "lat": 31.974648,
      "lng": 130.999895,
      "geocoding_level": null,
      "phone": "",
      "license_no": "２４０４４－１－８０",
      "license_date": "2025-08-06",
      "expire_date": "2030-08-31"
    },
    {
      "name": "定食屋ごはんや",
      "name_kana": "テイショクヤゴハンヤ",
      "business_type": "㉕ 行商",
      "address": "宮崎県小林市本町１３ （県内一円）",
      "lat": 31.992271,
      "lng": 130.976137,
      "geocoding_level": null,
      "phone": "",
      "license_no": "",
      "license_date": null,
      "expire_date": null
    },
    {
      "name": "慶珉　小林店",
      "name_kana": "キョウミンコバヤシテン",
      "business_type": "① 飲食店営業",
      "address": "宮崎県小林市堤２９６５－１",
      "lat": 31.986488,
      "lng": 130.990763,
      "geocoding_level": null,
      "phone": "0984-22-1055",
      "license_no": "２４０４４－１－６７",
      "license_date": "2025-08-04",
      "expire_date": "2031-08-31"
    },
    {
      "name": "七輪屋　丸富",
      "name_kana": "シチリンヤマルトミ",
      "business_type": "① 飲食店営業",
      "address": "宮崎県小林市細野１５０",
      "lat": 31.993092,
      "lng": 130.978464,
      "geocoding_level": null,
      "phone": "090-8085-2983",
      "license_no": "４０４４－１－６２",
      "license_date": "2023-08-25",
      "expire_date": "2029-08-31"
    },
    {
      "name": "七輪屋　丸富",
      "name_kana": "シチリンヤマルトミ",
      "business_type": "㉕ そうざい製造業",
      "address": "宮崎県小林市細野１５０",
      "lat": 31.993092,
      "lng": 130.978464,
      "geocoding_level": null,
      "phone": "090-8085-2983",
      "license_no": "４０４４－５５－６",
      "license_date": "2023-08-25",
      "expire_date": "2029-08-31"
    },
    {
      "name": "すき家　221号小林店",
      "name_kana": "スキヤ　ニヒャクニジュウイチゴウコバヤシテン",
      "business_type": "① 飲食店営業",
      "address": "宮崎県小林市堤3013-1",
      "lat": 31.982094,
      "lng": 130.995492,
      "geocoding_level": null,
      "phone": "",
      "license_no": "４０４４－１－５４",
      "license_date": "2023-08-21",
      "expire_date": "2029-08-31"
    },
    {
      "name": "100 Premium Bakery SUMOMO 小林店",
      "name_kana": "プレミアムベーカリースモモコバヤシテン",
      "business_type": "⑪ 菓子製造業",
      "address": "宮崎県小林市本町１",
      "lat": 31.992357,
      "lng": 130.976697,
      "geocoding_level": null,
      "phone": "0984-48-4459",
      "license_no": "４０４４－８－１６",
      "license_date": "2023-12-14",
      "expire_date": "2030-02-28"
    },
    {
      "name": "ホームプラザナフコ小林店",
      "name_kana": "ホームプラザナフココバヤシテン",
      "business_type": "⑬ その他の食料・飲料販売業",
      "address": "宮崎県小林市堤3089-1",
      "lat": 31.97821,
      "lng": 130.999293,
      "geocoding_level": null,
      "phone": "0984-25-0431",
      "license_no": "",
      "license_date": null,
      "expire_date": null
    },
    {
      "name": "ファミリーショップたじり",
      "name_kana": "ファミリーショップタジリ",
      "business_type": "① 飲食店営業",
      "address": "宮崎県小林市須木下田１２４８－２",
      "lat": 32.066725,
      "lng": 131.080008,
      "geocoding_level": null,
      "phone": "0984-48-2034",
      "license_no": "２４０４４－１－１２１",
      "license_date": "2025-11-05",
      "expire_date": "2031-11-30"
    },
    {
      "name": "セブンイレブン小林上堤店",
      "name_kana": "セブンイレブンコバヤシカミツツミテン",
      "business_type": "① 魚介類販売業（包装済みの魚介類のみの販売）",
      "address": "宮崎県小林市堤３０２５－１",
      "lat": 31.983006,
      "lng": 130.998616,
      "geocoding_level": null,
      "phone": "0984-22-2622",
      "license_no": "",
      "license_date": null,
      "expire_date": null
    },
    {
      "name": "セブンイレブン小林上堤店",
      "name_kana": "セブンイレブンコバヤシカミツツミテン",
      "business_type": "② 食肉販売業（包装済みの食肉のみの販売）",
      "address": "宮崎県小林市堤３０２５－１",
      "lat": 31.983006,
      "lng": 130.998616,
      "geocoding_level": null,
      "phone": "0984-22-2622",
      "license_no": "",
      "license_date": null,
      "expire_date": null
    },
    {
      "name": "セブンイレブン小林上堤店",
      "name_kana": "セブンイレブンコバヤシカミツツミテン",
      "business_type": "③ 乳類販売業",
      "address": "宮崎県小林市堤３０２５－１",
      "lat": 31.983006,
      "lng": 130.998616,
      "geocoding_level": null,
      "phone": "0984-22-2622",
      "license_no": "",
      "license_date": null,
      "expire_date": null
    },
    {
      "name": "セブンイレブン小林上堤店",
      "name_kana": "セブンイレブンコバヤシカミツツミテン",
      "business_type": "⑩ コンビニエンスストア",
      "address": "宮崎県小林市堤３０２５－１",
      "lat": 31.983006,
      "lng": 130.998616,
      "geocoding_level": null,
      "phone": "0984-22-2622",
      "license_no": "",
      "license_date": null,
      "expire_date": null
    },
    {
      "name": "セブンイレブン小林上堤店",
      "name_kana": "セブンイレブンコバヤシカミツツミテン",
      "business_type": "① 飲食店営業",
      "address": "宮崎県小林市堤３０２５－１",
      "lat": 31.983006,
      "lng": 130.998616,
      "geocoding_level": null,
      "phone": "0984-22-2622",
      "license_no": "４０４４－１－３７",
      "license_date": "2024-08-23",
      "expire_date": "2030-08-31"
    },
    {
      "name": "ローソン小林細野店",
      "name_kana": "ローソンコバヤシホソノテン",
      "business_type": "① 飲食店営業",
      "address": "宮崎県小林市細野１４９３－１",
      "lat": 31.988897,
      "lng": 130.97007,
      "geocoding_level": null,
      "phone": "0984-22-7530",
      "license_no": "２４０４４－１－１００",
      "license_date": "2025-10-27",
      "expire_date": "2031-11-30"
    },
    {
      "name": "ローソン小林細野店",
      "name_kana": "ローソンコバヤシホソノテン",
      "business_type": "⑩ コンビニエンスストア",
      "address": "宮崎県小林市細野１４９３－１",
      "lat": 31.988897,
      "lng": 130.97007,
      "geocoding_level": null,
      "phone": "0984-22-7530",
      "license_no": "",
      "license_date": null,
      "expire_date": null
    },
    {
      "name": "山形らーめん　八八",
      "name_kana": "ヤマガタラーメンハチヤ",
      "business_type": "㉔ 麺類製造業",
      "address": "宮崎県小林市細野１８９０－５",
      "lat": 31.993039,
      "lng": 130.976164,
      "geocoding_level": null,
      "phone": "0984-48-5250",
      "license_no": "４０４４－５3－１",
      "license_date": "2023-01-24",
      "expire_date": "2029-02-28"
    },
    {
      "name": "菓の子の杜",
      "name_kana": "カノコノモリ",
      "business_type": "⑪ 菓子製造業",
      "address": "宮崎県小林市堤２９５０",
      "lat": 31.984587,
      "lng": 130.987942,
      "geocoding_level": null,
      "phone": "0984-23-4478",
      "license_no": "４０４４－８－５",
      "license_date": "2024-05-07",
      "expire_date": "2030-05-31"
    },
    {
      "name": "泉の鯉",
      "name_kana": "イズミノコイ",
      "business_type": "① 飲食店営業",
      "address": "宮崎県小林市南西方１２３９－１",
      "lat": 31.982882,
      "lng": 130.936074,
      "geocoding_level": null,
      "phone": "0984-24-0274",
      "license_no": "４０４４－１－３８",
      "license_date": "2024-07-30",
      "expire_date": "2030-08-31"
    },
    {
      "name": "農業生産法人  有限会社すき特産　第２工場",
      "name_kana": "ユウゲンガイシャスキトクサンダイニコウジョウ",
      "business_type": "㉚ 密封包装食品製造業",
      "address": "宮崎県小林市須木下田９８５",
      "lat": 32.07415,
      "lng": 131.087205,
      "geocoding_level": null,
      "phone": "0984-48-3054",
      "license_no": "４０４４－４５－２",
      "license_date": "2023-10-25",
      "expire_date": "2029-11-30"
    },
    {
      "name": "農業生産法人  有限会社すき特産　第２工場",
      "name_kana": "ユウゲンガイシャスキトクサンダイニコウジョウ",
      "business_type": "⑪ 菓子製造業",
      "address": "宮崎県小林市須木下田９８５",
      "lat": 32.07415,
      "lng": 131.087205,
      "geocoding_level": null,
      "phone": "0984-48-3054",
      "license_no": "４０４４－８－１４",
      "license_date": "2023-10-25",
      "expire_date": "2029-11-30"
    },
    {
      "name": "農業生産法人  有限会社すき特産第一工場",
      "name_kana": "ノウギョウセイサンホウジンユウゲンガイシャスキトクサンダイイチコウジョウ",
      "business_type": "⑪ 菓子製造業",
      "address": "宮崎県小林市須木下田６１９",
      "lat": 32.060136,
      "lng": 131.077946,
      "geocoding_level": null,
      "phone": "0984-48-3085",
      "license_no": "２４０４４－８－９",
      "license_date": "2025-08-04",
      "expire_date": "2031-08-31"
    },
    {
      "name": "トライアル小林店",
      "name_kana": "トライアルコバヤシテン",
      "business_type": "① 飲食店営業",
      "address": "宮崎県小林市堤２９０７－１ トライアル店内",
      "lat": 31.983814,
      "lng": 130.991783,
      "geocoding_level": null,
      "phone": "0984-22-8178",
      "license_no": "２４０４４－１－１１６",
      "license_date": "2025-11-10",
      "expire_date": "2031-11-30"
    },
    {
      "name": "トライアル小林店",
      "name_kana": "トライアルコバヤシテン",
      "business_type": "④ 魚介類販売業",
      "address": "宮崎県小林市堤２９０７－１ トライアル店内",
      "lat": 31.983814,
      "lng": 130.991783,
      "geocoding_level": null,
      "phone": "0984-22-8178",
      "license_no": "２４０４４－２７－５",
      "license_date": "2025-11-10",
      "expire_date": "2031-11-30"
    },
    {
      "name": "ダイレックス小林店",
      "name_kana": "ダイレックスコバヤシテン",
      "business_type": "① 飲食店営業",
      "address": "宮崎県小林市細野１９７６－１ ダイレックス小林店内",
      "lat": 31.989528,
      "lng": 130.979429,
      "geocoding_level": null,
      "phone": "0984-22-0038",
      "license_no": "２４０４４－１－１１７",
      "license_date": "2025-11-11",
      "expire_date": "2031-11-30"
    },
    {
      "name": "ダイレックス小林店",
      "name_kana": "ダイレックスコバヤシテン",
      "business_type": "④ 魚介類販売業",
      "address": "宮崎県小林市細野１９７６－１ ダイレックス小林店内",
      "lat": 31.989528,
      "lng": 130.979429,
      "geocoding_level": null,
      "phone": "0984-22-0038",
      "license_no": "２４０４４－２７－６",
      "license_date": "2025-11-11",
      "expire_date": "2031-11-30"
    },
    {
      "name": "ONE DONUTS",
      "name_kana": "ワンドーナツ",
      "business_type": "⑪ 菓子製造業",
      "address": "宮崎県小林市堤２７８９－５",
      "lat": 31.982142,
      "lng": 130.994872,
      "geocoding_level": null,
      "phone": "",
      "license_no": "２４０４４－８－２２",
      "license_date": "2025-10-03",
      "expire_date": "2031-11-30"
    },
    {
      "name": "小林学校給食センター",
      "name_kana": "コバヤシガッコウキュウショクセンター",
      "business_type": "① 飲食店営業",
      "address": "宮崎県小林市南西方２０１１－１",
      "lat": 32.005352,
      "lng": 130.949878,
      "geocoding_level": null,
      "phone": "099-257-3737",
      "license_no": "４０４４－１－１００",
      "license_date": "2024-01-29",
      "expire_date": "2030-02-28"
    },
    {
      "name": "日乃出冷菓",
      "name_kana": "ヒノデレイカ",
      "business_type": "① 飲食店営業",
      "address": "宮崎県小林市南西方８５６５生駒高原 （県内一円）",
      "lat": 31.979824,
      "lng": 130.906478,
      "geocoding_level": null,
      "phone": "",
      "license_no": "２４０４４－１－２６",
      "license_date": "2026-04-17",
      "expire_date": "2031-05-31"
    },
    {
      "name": "Hotto Motto　小林堤店",
      "name_kana": "ホットモットコバヤシツツミテン",
      "business_type": "① 飲食店営業",
      "address": "宮崎県小林市堤２３３８－５",
      "lat": 31.977754,
      "lng": 130.998007,
      "geocoding_level": null,
      "phone": "0984-24-5520",
      "license_no": "４０４４－１－４２",
      "license_date": "2023-08-22",
      "expire_date": "2029-08-31"
    },
    {
      "name": "うんだもしたん四季彩館",
      "name_kana": "ウンダモシタンシキサイカン",
      "business_type": "⑨ 通信販売・訪問販売による販売業",
      "address": "宮崎県小林市南西方1191番地1",
      "lat": 31.982296,
      "lng": 130.932652,
      "geocoding_level": null,
      "phone": "0984-22-8005",
      "license_no": "",
      "license_date": null,
      "expire_date": null
    },
    {
      "name": "四季彩館",
      "name_kana": "シキサイカン",
      "business_type": "⑪ 菓子製造業",
      "address": "宮崎県小林市南西方１１９１－１",
      "lat": 31.982296,
      "lng": 130.932652,
      "geocoding_level": null,
      "phone": "0984-22-8005",
      "license_no": "２４０４４－８－２",
      "license_date": "2025-05-12",
      "expire_date": "2031-05-31"
    },
    {
      "name": "四季彩館",
      "name_kana": "シキサイカン",
      "business_type": "① 飲食店営業",
      "address": "宮崎県小林市南西方１１９１－１",
      "lat": 31.982296,
      "lng": 130.932652,
      "geocoding_level": null,
      "phone": "0984-22-8005",
      "license_no": "２４０４４－１－２３",
      "license_date": "2025-05-12",
      "expire_date": "2031-05-31"
    },
    {
      "name": "ピザハット小林堤店",
      "name_kana": "ピザハットコバヤシツツミテン",
      "business_type": "① 飲食店営業",
      "address": "宮崎県小林市堤２８８７－９",
      "lat": 31.983159,
      "lng": 130.993526,
      "geocoding_level": null,
      "phone": "0984-48-8010",
      "license_no": "２４０４４－１－１２９",
      "license_date": "2025-04-01",
      "expire_date": "2031-05-31"
    },
    {
      "name": "とり八",
      "name_kana": "トリハチ",
      "business_type": "① 飲食店営業",
      "address": "宮崎県小林市須木中原 （県内一円）",
      "lat": 32.118999,
      "lng": 131.099863,
      "geocoding_level": null,
      "phone": "",
      "license_no": "４０４４－１－５４",
      "license_date": "2024-08-01",
      "expire_date": "2029-08-31"
    },
    {
      "name": "大三ミート小林店",
      "name_kana": "ダイサンミートコバヤシテン",
      "business_type": "③ 食肉販売業",
      "address": "宮崎県小林市細野１９７６－１",
      "lat": 31.989528,
      "lng": 130.979429,
      "geocoding_level": null,
      "phone": "0984-27-3629",
      "license_no": "２４０４４－２３－４",
      "license_date": "2025-07-30",
      "expire_date": "2031-08-31"
    },
    {
      "name": "株式会社サンライフ　出の山加工場",
      "name_kana": "カブシキガイシャサンライフイデノヤマカコウジョウ",
      "business_type": "⑰ 農産保存食料品製造・加工業",
      "address": "宮崎県小林市南西方字出の山１０５８－１",
      "lat": 31.980206,
      "lng": 130.944665,
      "geocoding_level": null,
      "phone": "00984-48-9888",
      "license_no": "",
      "license_date": null,
      "expire_date": null
    },
    {
      "name": "株式会社サンライフ　出の山",
      "name_kana": "カブシキガイシャサンライフイデノヤマ",
      "business_type": "㉙ 漬物製造業",
      "address": "宮崎県小林市南西方１０５８－１",
      "lat": 31.984181,
      "lng": 130.94364,
      "geocoding_level": null,
      "phone": "0984-48-9888",
      "license_no": "４０４４－６５－７",
      "license_date": "2024-07-12",
      "expire_date": "2030-08-31"
    },
    {
      "name": "三之宮郷",
      "name_kana": "サンノミヤキョウ",
      "business_type": "⑨ 食肉処理業",
      "address": "宮崎県小林市東方４９３８－４",
      "lat": 32.030041,
      "lng": 131.000542,
      "geocoding_level": null,
      "phone": "0984-48-1555",
      "license_no": "４０４４－２１－５",
      "license_date": "2024-11-14",
      "expire_date": "2030-11-30"
    },
    {
      "name": "出の山食養生の郷",
      "name_kana": "イデノヤマショクヨウジョウノサト",
      "business_type": "㉕ そうざい製造業",
      "address": "宮崎県小林市南西方１０５８－１",
      "lat": 31.984181,
      "lng": 130.94364,
      "geocoding_level": null,
      "phone": "0984-48-9888",
      "license_no": "２４０４４－５５－２",
      "license_date": "2025-05-12",
      "expire_date": "2031-05-31"
    },
    {
      "name": "押川病院",
      "name_kana": "オシカワビョウイン",
      "business_type": "⑫ 自動販売機による販売業（コップ式自動販売機（自動洗浄・屋内設置）及び営業許可の対象となる自動販売機を除く）",
      "address": "宮崎県小林市野尻町東麓1082-1",
      "lat": 31.961363,
      "lng": 131.095202,
      "geocoding_level": null,
      "phone": "",
      "license_no": "",
      "license_date": null,
      "expire_date": null
    },
    {
      "name": "きりしまの園",
      "name_kana": "キリシマノソノ",
      "business_type": "⑫ 自動販売機による販売業（コップ式自動販売機（自動洗浄・屋内設置）及び営業許可の対象となる自動販売機を除く）",
      "address": "宮崎県小林市野尻町三ケ野山4336-74",
      "lat": 31.963838,
      "lng": 131.077598,
      "geocoding_level": null,
      "phone": "",
      "license_no": "",
      "license_date": null,
      "expire_date": null
    },
    {
      "name": "すこやかセンターこばやし",
      "name_kana": "スコヤカセンターコバヤシ",
      "business_type": "⑫ 自動販売機による販売業（コップ式自動販売機（自動洗浄・屋内設置）及び営業許可の対象となる自動販売機を除く）",
      "address": "宮崎県小林市細野2033",
      "lat": 31.989194,
      "lng": 130.979924,
      "geocoding_level": null,
      "phone": "",
      "license_no": "",
      "license_date": null,
      "expire_date": null
    },
    {
      "name": "沖内科小児科医院",
      "name_kana": "オキナイカショウニカイイン",
      "business_type": "⑫ 自動販売機による販売業（コップ式自動販売機（自動洗浄・屋内設置）及び営業許可の対象となる自動販売機を除く）",
      "address": "宮崎県小林市細野59-8",
      "lat": 31.994401,
      "lng": 130.981932,
      "geocoding_level": null,
      "phone": "",
      "license_no": "",
      "license_date": null,
      "expire_date": null
    },
    {
      "name": "運動公園野球場",
      "name_kana": "ウンドウコウエニャキュウジョウ",
      "business_type": "⑫ 自動販売機による販売業（コップ式自動販売機（自動洗浄・屋内設置）及び営業許可の対象となる自動販売機を除く）",
      "address": "宮崎県小林市南西方 十三塚内",
      "lat": 31.976748,
      "lng": 130.908183,
      "geocoding_level": null,
      "phone": "",
      "license_no": "",
      "license_date": null,
      "expire_date": null
    },
    {
      "name": "アイショップ南西方店",
      "name_kana": "アイショップミナミニシカタテン",
      "business_type": "⑫ 自動販売機による販売業（コップ式自動販売機（自動洗浄・屋内設置）及び営業許可の対象となる自動販売機を除く）",
      "address": "宮崎県小林市南西方2880",
      "lat": 32.000491,
      "lng": 130.935275,
      "geocoding_level": null,
      "phone": "",
      "license_no": "",
      "license_date": null,
      "expire_date": null
    },
    {
      "name": "慈敬園",
      "name_kana": "ジケイエン",
      "business_type": "⑫ 自動販売機による販売業（コップ式自動販売機（自動洗浄・屋内設置）及び営業許可の対象となる自動販売機を除く）",
      "address": "宮崎県小林市細野4264-116",
      "lat": 31.973708,
      "lng": 130.95993,
      "geocoding_level": null,
      "phone": "",
      "license_no": "",
      "license_date": null,
      "expire_date": null
    },
    {
      "name": "A-1LINK小林店",
      "name_kana": "エーワンリンクコバヤシテン",
      "business_type": "⑫ 自動販売機による販売業（コップ式自動販売機（自動洗浄・屋内設置）及び営業許可の対象となる自動販売機を除く）",
      "address": "宮崎県小林市堤丸岡2771-2",
      "lat": 31.95465,
      "lng": 131.109934,
      "geocoding_level": null,
      "phone": "",
      "license_no": "",
      "license_date": null,
      "expire_date": null
    },
    {
      "name": "上町デイサービスセンター",
      "name_kana": "カンマチデイサービスセンター",
      "business_type": "⑫ 自動販売機による販売業（コップ式自動販売機（自動洗浄・屋内設置）及び営業許可の対象となる自動販売機を除く）",
      "address": "宮崎県小林市細野1892-5",
      "lat": 31.993175,
      "lng": 130.976549,
      "geocoding_level": null,
      "phone": "",
      "license_no": "",
      "license_date": null,
      "expire_date": null
    },
    {
      "name": "こばやし温泉美人の湯",
      "name_kana": "コバヤシオンセンビジンノユ",
      "business_type": "⑫ 自動販売機による販売業（コップ式自動販売機（自動洗浄・屋内設置）及び営業許可の対象となる自動販売機を除く）",
      "address": "宮崎県小林市堤4380",
      "lat": 31.962208,
      "lng": 131.010689,
      "geocoding_level": null,
      "phone": "",
      "license_no": "",
      "license_date": null,
      "expire_date": null
    },
    {
      "name": "モナコパレス小林店",
      "name_kana": "モナコパレスコバヤシテン",
      "business_type": "⑫ 自動販売機による販売業（コップ式自動販売機（自動洗浄・屋内設置）及び営業許可の対象となる自動販売機を除く）",
      "address": "宮崎県小林市細野2136-13",
      "lat": 31.990573,
      "lng": 130.980533,
      "geocoding_level": null,
      "phone": "",
      "license_no": "",
      "license_date": null,
      "expire_date": null
    },
    {
      "name": "枦山商店",
      "name_kana": "ハゼヤマショウテン",
      "business_type": "⑫ 自動販売機による販売業（コップ式自動販売機（自動洗浄・屋内設置）及び営業許可の対象となる自動販売機を除く）",
      "address": "宮崎県小林市堤4724-9",
      "lat": 31.975603,
      "lng": 131.011284,
      "geocoding_level": null,
      "phone": "",
      "license_no": "",
      "license_date": null,
      "expire_date": null
    },
    {
      "name": "マザーヒルズ",
      "name_kana": "マザーヒルズ",
      "business_type": "⑫ 自動販売機による販売業（コップ式自動販売機（自動洗浄・屋内設置）及び営業許可の対象となる自動販売機を除く）",
      "address": "宮崎県小林市堤4380",
      "lat": 31.962208,
      "lng": 131.010689,
      "geocoding_level": null,
      "phone": "",
      "license_no": "",
      "license_date": null,
      "expire_date": null
    },
    {
      "name": "マザーヒルズ",
      "name_kana": "マザーヒルズ",
      "business_type": "⑫ 自動販売機による販売業（コップ式自動販売機（自動洗浄・屋内設置）及び営業許可の対象となる自動販売機を除く）",
      "address": "宮崎県小林市堤4380",
      "lat": 31.962208,
      "lng": 131.010689,
      "geocoding_level": null,
      "phone": "",
      "license_no": "",
      "license_date": null,
      "expire_date": null
    },
    {
      "name": "小林ひまわり荘",
      "name_kana": "コバヤシヒマワリソウ",
      "business_type": "⑫ 自動販売機による販売業（コップ式自動販売機（自動洗浄・屋内設置）及び営業許可の対象となる自動販売機を除く）",
      "address": "宮崎県小林市北西方3130-2",
      "lat": 32.023112,
      "lng": 130.917613,
      "geocoding_level": null,
      "phone": "",
      "license_no": "",
      "license_date": null,
      "expire_date": null
    },
    {
      "name": "ホームライフひむか",
      "name_kana": "ホームライフヒムカ",
      "business_type": "⑫ 自動販売機による販売業（コップ式自動販売機（自動洗浄・屋内設置）及び営業許可の対象となる自動販売機を除く）",
      "address": "宮崎県小林市堤2076-1",
      "lat": 31.960638,
      "lng": 131.003989,
      "geocoding_level": null,
      "phone": "",
      "license_no": "",
      "license_date": null,
      "expire_date": null
    },
    {
      "name": "ひなもり園",
      "name_kana": "ヒナモリエン",
      "business_type": "⑫ 自動販売機による販売業（コップ式自動販売機（自動洗浄・屋内設置）及び営業許可の対象となる自動販売機を除く）",
      "address": "宮崎県小林市堤4380",
      "lat": 31.962208,
      "lng": 131.010689,
      "geocoding_level": null,
      "phone": "",
      "license_no": "",
      "license_date": null,
      "expire_date": null
    },
    {
      "name": "ソレイユの丘",
      "name_kana": "ソレイユノオカ",
      "business_type": "⑫ 自動販売機による販売業（コップ式自動販売機（自動洗浄・屋内設置）及び営業許可の対象となる自動販売機を除く）",
      "address": "宮崎県小林市堤3699-12",
      "lat": 31.963354,
      "lng": 131.009826,
      "geocoding_level": null,
      "phone": "",
      "license_no": "",
      "license_date": null,
      "expire_date": null
    },
    {
      "name": "グループホームあったか村",
      "name_kana": "グループホームアッタカムラ",
      "business_type": "⑫ 自動販売機による販売業（コップ式自動販売機（自動洗浄・屋内設置）及び営業許可の対象となる自動販売機を除く）",
      "address": "宮崎県小林市北西方字北原3251-2",
      "lat": 32.028364,
      "lng": 130.933441,
      "geocoding_level": null,
      "phone": "",
      "license_no": "",
      "license_date": null,
      "expire_date": null
    },
    {
      "name": "モナコパレス堤店",
      "name_kana": "モナコパレスツツミテン",
      "business_type": "⑫ 自動販売機による販売業（コップ式自動販売機（自動洗浄・屋内設置）及び営業許可の対象となる自動販売機を除く）",
      "address": "宮崎県小林市堤2984-1",
      "lat": 31.984537,
      "lng": 130.993653,
      "geocoding_level": null,
      "phone": "",
      "license_no": "",
      "license_date": null,
      "expire_date": null
    },
    {
      "name": "緑町ショートステイセンター",
      "name_kana": "ミドリマチショートステイセンター",
      "business_type": "⑫ 自動販売機による販売業（コップ式自動販売機（自動洗浄・屋内設置）及び営業許可の対象となる自動販売機を除く）",
      "address": "宮崎県小林市細野246-1",
      "lat": 31.995632,
      "lng": 130.974641,
      "geocoding_level": null,
      "phone": "",
      "license_no": "",
      "license_date": null,
      "expire_date": null
    },
    {
      "name": "桑原記念病院",
      "name_kana": "クワハラキネンビョウイン",
      "business_type": "⑫ 自動販売機による販売業（コップ式自動販売機（自動洗浄・屋内設置）及び営業許可の対象となる自動販売機を除く）",
      "address": "宮崎県小林市細野167",
      "lat": 31.994847,
      "lng": 130.978633,
      "geocoding_level": null,
      "phone": "",
      "license_no": "",
      "license_date": null,
      "expire_date": null
    },
    {
      "name": "有限会社のじり農産加工センター",
      "name_kana": "ユウゲンガイシャノジリノウサンカコウセンター",
      "business_type": "㉕ そうざい製造業",
      "address": "宮崎県小林市野尻町三ケ野山１３７",
      "lat": 31.96511,
      "lng": 131.082444,
      "geocoding_level": null,
      "phone": "0984-44-1195",
      "license_no": "４０４４－５６－１１",
      "license_date": "2023-02-21",
      "expire_date": "2029-02-28"
    },
    {
      "name": "有限会社のじり農産加工センター",
      "name_kana": "ユウゲンガイシャノジリノウサンカコウセンター",
      "business_type": "㉙ 漬物製造業",
      "address": "宮崎県小林市野尻町三ケ野山１３７",
      "lat": 31.96511,
      "lng": 131.082444,
      "geocoding_level": null,
      "phone": "0984-44-1195",
      "license_no": "４０４４－６５－２",
      "license_date": "2023-06-12",
      "expire_date": "2029-08-31"
    },
    {
      "name": "有限会社のじり農産加工センター",
      "name_kana": "ユウゲンガイシャノジリノウサンカコウセンター",
      "business_type": "⑪ 菓子製造業",
      "address": "宮崎県小林市野尻町三ケ野山１３７",
      "lat": 31.96511,
      "lng": 131.082444,
      "geocoding_level": null,
      "phone": "0984-44-1195",
      "license_no": "４０４４－８－９",
      "license_date": "2023-08-16",
      "expire_date": "2029-08-31"
    },
    {
      "name": "有限会社のじり農産加工センター",
      "name_kana": "ユウゲンガイシャノジリノウサンカコウセンター",
      "business_type": "⑫ アイスクリーム類製造業",
      "address": "宮崎県小林市野尻町三ケ野山１３７",
      "lat": 31.96511,
      "lng": 131.082444,
      "geocoding_level": null,
      "phone": "0984-44-1195",
      "license_no": "４０４４－１１－２",
      "license_date": "2023-08-16",
      "expire_date": "2029-08-31"
    },
    {
      "name": "Ringo × Ame",
      "name_kana": "リンゴ　アメ",
      "business_type": "⑦ 野菜果物販売業",
      "address": "宮崎県小林市細野４９１２－３",
      "lat": 31.970174,
      "lng": 130.962419,
      "geocoding_level": null,
      "phone": "",
      "license_no": "",
      "license_date": null,
      "expire_date": null
    },
    {
      "name": "Ringo × Ame",
      "name_kana": "リンゴ　アメ",
      "business_type": "㉔ その他の食料品製造・加工業",
      "address": "宮崎県小林市細野４９１２－３",
      "lat": 31.970174,
      "lng": 130.962419,
      "geocoding_level": null,
      "phone": "",
      "license_no": "",
      "license_date": null,
      "expire_date": null
    },
    {
      "name": "Ringo × Ame",
      "name_kana": "リンゴ　アメ",
      "business_type": "㉕ 行商",
      "address": "宮崎県小林市細野４９１２－３",
      "lat": 31.970174,
      "lng": 130.962419,
      "geocoding_level": null,
      "phone": "",
      "license_no": "",
      "license_date": null,
      "expire_date": null
    },
    {
      "name": "Ringo×Ame",
      "name_kana": "リンゴカケルアメ",
      "business_type": "① 飲食店営業",
      "address": "宮崎県小林市細野４９１２－３",
      "lat": 31.970174,
      "lng": 130.962419,
      "geocoding_level": null,
      "phone": "",
      "license_no": "４０４４－１－３１",
      "license_date": "2022-10-18",
      "expire_date": "2028-11-30"
    },
    {
      "name": "Ringo×Ame ３rd",
      "name_kana": "リンゴカケルアメサード",
      "business_type": "① 飲食店営業",
      "address": "宮崎県小林市細野４９１２－３ （県内一円）",
      "lat": 31.970174,
      "lng": 130.962419,
      "geocoding_level": null,
      "phone": "090-9535-7192",
      "license_no": "４０４４－１－４７",
      "license_date": "2023-01-23",
      "expire_date": "2028-02-29"
    },
    {
      "name": "Ringo×Ame",
      "name_kana": "リンゴカケルアメ",
      "business_type": "⑪ 菓子製造業",
      "address": "宮崎県小林市細野４９１２－３",
      "lat": 31.970174,
      "lng": 130.962419,
      "geocoding_level": null,
      "phone": "",
      "license_no": "２４０４４－８－２４",
      "license_date": "2025-10-24",
      "expire_date": "2031-11-30"
    },
    {
      "name": "有限会社スミちゃんラーメン",
      "name_kana": "ユウゲンガイシャスミチャンラーメン",
      "business_type": "⑬ その他の食料・飲料販売業",
      "address": "宮崎県小林市野尻町紙屋３５９８－３",
      "lat": 31.962392,
      "lng": 131.145123,
      "geocoding_level": null,
      "phone": "",
      "license_no": "",
      "license_date": null,
      "expire_date": null
    },
    {
      "name": "有限会社スミちゃんラーメン",
      "name_kana": "ユウゲンガイシャスミチャンラーメン",
      "business_type": "⑰ 農産保存食料品製造・加工業",
      "address": "宮崎県小林市野尻町紙屋３５９８－３",
      "lat": 31.962392,
      "lng": 131.145123,
      "geocoding_level": null,
      "phone": "",
      "license_no": "",
      "license_date": null,
      "expire_date": null
    },
    {
      "name": "スミちゃんラーメン　萩の茶屋店",
      "name_kana": "スミチャンラーメンハギノチャヤテン",
      "business_type": "① 飲食店営業",
      "address": "宮崎県小林市野尻町紙屋３５７６－３",
      "lat": 31.968709,
      "lng": 131.170319,
      "geocoding_level": null,
      "phone": "0984-46-0331",
      "license_no": "２４０４４－１－１０",
      "license_date": "2025-05-09",
      "expire_date": "2031-05-31"
    },
    {
      "name": "CHEERS",
      "name_kana": "チアーズ",
      "business_type": "① 飲食店営業",
      "address": "宮崎県小林市細野１９１１－８",
      "lat": 31.991607,
      "lng": 130.978275,
      "geocoding_level": null,
      "phone": "0984-48-8844",
      "license_no": "４０４４－１－９６",
      "license_date": "2024-10-17",
      "expire_date": "2030-11-30"
    },
    {
      "name": "HALO HOTEL　小林",
      "name_kana": "ハロホテルコバヤシ",
      "business_type": "① 飲食店営業",
      "address": "宮崎県小林市細野１８４６－１",
      "lat": 31.990705,
      "lng": 130.978011,
      "geocoding_level": null,
      "phone": "0984-22-8600",
      "license_no": "２４０４４－４－３",
      "license_date": "2025-11-11",
      "expire_date": "2031-11-30"
    },
    {
      "name": "ベーカリーショップ　タナカ",
      "name_kana": "ベーカリーショップ　タナカ",
      "business_type": "① 飲食店営業",
      "address": "宮崎県小林市堤２９７２",
      "lat": 31.985167,
      "lng": 130.992124,
      "geocoding_level": null,
      "phone": "0984-22-7909",
      "license_no": "２４０４４－１－１１５",
      "license_date": "2025-11-10",
      "expire_date": "2031-11-30"
    },
    {
      "name": "ベーカリーショップ　タナカ",
      "name_kana": "ベーカリーショップ　タナカ",
      "business_type": "⑪ 菓子製造業",
      "address": "宮崎県小林市堤２９７２",
      "lat": 31.985167,
      "lng": 130.992124,
      "geocoding_level": null,
      "phone": "0984-22-7909",
      "license_no": "２４０４４－８－３０",
      "license_date": "2025-11-10",
      "expire_date": "2031-11-30"
    },
    {
      "name": "市場食堂",
      "name_kana": "イチバショクドウ",
      "business_type": "① 飲食店営業",
      "address": "宮崎県小林市細野２１２３－１",
      "lat": 31.990399,
      "lng": 130.982141,
      "geocoding_level": null,
      "phone": "0984-23-6826",
      "license_no": "２４０４４－１－６５",
      "license_date": "2025-07-30",
      "expire_date": "2031-08-31"
    },
    {
      "name": "ダイワファーム",
      "name_kana": "ダイワファーム",
      "business_type": "⑫ アイスクリーム類製造業",
      "address": "宮崎県小林市東方４０７３",
      "lat": 32.029992,
      "lng": 131.01716,
      "geocoding_level": null,
      "phone": "0984-23-5357",
      "license_no": "２４０４４－１１－１",
      "license_date": "2025-05-14",
      "expire_date": "2031-05-31"
    },
    {
      "name": "株式会社オンザマーク（販売所）",
      "name_kana": "カブシキガイシャオンザマークハンバイショ",
      "business_type": "⑬ その他の食料・飲料販売業",
      "address": "宮崎県小林市細野２６２－５",
      "lat": 31.996316,
      "lng": 130.97523,
      "geocoding_level": null,
      "phone": "",
      "license_no": "",
      "license_date": null,
      "expire_date": null
    },
    {
      "name": "株式会社オンザマーク（販売所）",
      "name_kana": "カブシキガイシャオンザマークハンバイショ",
      "business_type": "㉕ 行商",
      "address": "宮崎県小林市細野２６２－５",
      "lat": 31.996316,
      "lng": 130.97523,
      "geocoding_level": null,
      "phone": "",
      "license_no": "",
      "license_date": null,
      "expire_date": null
    },
    {
      "name": "TOKUBO Lab",
      "name_kana": "トクボーラボ",
      "business_type": "⑬ その他の食料・飲料販売業",
      "address": "宮崎県小林市南西方１１４１－５",
      "lat": 31.981053,
      "lng": 130.93947,
      "geocoding_level": null,
      "phone": "",
      "license_no": "",
      "license_date": null,
      "expire_date": null
    },
    {
      "name": "株式会社オンザマーク（日本料理　西乃川）",
      "name_kana": "カブシキガイシャオンザマーク　ニホンリョウリニシノカワ",
      "business_type": "⑬ その他の食料・飲料販売業",
      "address": "宮崎県小林市細野４４２－４",
      "lat": 31.996692,
      "lng": 130.971524,
      "geocoding_level": null,
      "phone": "",
      "license_no": "",
      "license_date": null,
      "expire_date": null
    },
    {
      "name": "TOKUBO Lab.",
      "name_kana": "トクボウラボ",
      "business_type": "⑪ 菓子製造業",
      "address": "宮崎県小林市南西方１１４１－５",
      "lat": 31.981053,
      "lng": 130.93947,
      "geocoding_level": null,
      "phone": "090-7397-9395",
      "license_no": "４０４４－９－７",
      "license_date": "2023-02-13",
      "expire_date": "2029-02-28"
    },
    {
      "name": "TOKUBO Lab",
      "name_kana": "トクボウラボ",
      "business_type": "⑨ 通信販売・訪問販売による販売業",
      "address": "宮崎県小林市南西方１１４１－５",
      "lat": 31.981053,
      "lng": 130.93947,
      "geocoding_level": null,
      "phone": "",
      "license_no": "",
      "license_date": null,
      "expire_date": null
    },
    {
      "name": "日本料理　西乃川",
      "name_kana": "ニホンリョウリニシノカワ",
      "business_type": "① 飲食店営業",
      "address": "宮崎県小林市細野４４２－４",
      "lat": 31.996707,
      "lng": 130.971531,
      "geocoding_level": null,
      "phone": "0984-23-7788",
      "license_no": "２４０４４－１－６６",
      "license_date": "2025-08-04",
      "expire_date": "2031-08-31"
    },
    {
      "name": "鶏陽",
      "name_kana": "トリハル",
      "business_type": "③ 食肉販売業",
      "address": "宮崎県小林市細野１８８０",
      "lat": 31.993745,
      "lng": 130.975387,
      "geocoding_level": null,
      "phone": "0984-48-1052",
      "license_no": "４０４４－２３－１０",
      "license_date": "2025-03-13",
      "expire_date": "2031-05-31"
    },
    {
      "name": "鶏陽",
      "name_kana": "トリハル",
      "business_type": "㉕ そうざい製造業",
      "address": "宮崎県小林市細野１８８０",
      "lat": 31.993745,
      "lng": 130.975387,
      "geocoding_level": null,
      "phone": "0984-48-1052",
      "license_no": "４０４４－５５－２２",
      "license_date": "2025-03-13",
      "expire_date": "2031-05-31"
    },
    {
      "name": "老人保健施設　相愛苑",
      "name_kana": "ロウジンホケンシセツ　ソウアイエン",
      "business_type": "㉖ 集団給食施設",
      "address": "宮崎県小林市北西方６６－３",
      "lat": 32.008278,
      "lng": 130.963495,
      "geocoding_level": null,
      "phone": "0984-24-1874",
      "license_no": "",
      "license_date": null,
      "expire_date": null
    },
    {
      "name": "桑原記念病院",
      "name_kana": "クワハラキネンビョウイン",
      "business_type": "㉖ 集団給食施設",
      "address": "宮崎県小林市細野１６７",
      "lat": 31.994847,
      "lng": 130.978633,
      "geocoding_level": null,
      "phone": "0984-22-4138",
      "license_no": "",
      "license_date": null,
      "expire_date": null
    },
    {
      "name": "特別養護老人ホーム　美穂の里",
      "name_kana": "トクベツヨウゴロウジンホーム　ミホノサト",
      "business_type": "㉖ 集団給食施設",
      "address": "宮崎県小林市須木下田１１５２",
      "lat": 32.07691,
      "lng": 131.0742,
      "geocoding_level": null,
      "phone": "0984-48-3696",
      "license_no": "",
      "license_date": null,
      "expire_date": null
    },
    {
      "name": "やまさき工房　もろっと",
      "name_kana": "ヤマサキコウボウモロット",
      "business_type": "① 飲食店営業",
      "address": "宮崎県小林市堤３２３５－１",
      "lat": 31.980169,
      "lng": 131.004442,
      "geocoding_level": null,
      "phone": "0984-23-3038",
      "license_no": "２４０４４－１－９７",
      "license_date": "2025-10-09",
      "expire_date": "2031-11-30"
    },
    {
      "name": "やまさき工房　もろっと",
      "name_kana": "ヤマサキコウボウモロット",
      "business_type": "⑫ アイスクリーム類製造業",
      "address": "宮崎県小林市堤３２３５－１",
      "lat": 31.980169,
      "lng": 131.004442,
      "geocoding_level": null,
      "phone": "0984-23-3038",
      "license_no": "２４０４４－１１－２",
      "license_date": "2025-12-19",
      "expire_date": "2031-11-30"
    },
    {
      "name": "セブンイレブン　小林真方店",
      "name_kana": "セブンイレブンコバヤシマガタテン",
      "business_type": "① 飲食店営業",
      "address": "宮崎県小林市真方５４４－２",
      "lat": 31.992979,
      "lng": 130.988794,
      "geocoding_level": null,
      "phone": "0984-22-0050",
      "license_no": "４０４４－１－１１９",
      "license_date": "2024-02-15",
      "expire_date": "2030-02-28"
    },
    {
      "name": "やまちゃん農園",
      "name_kana": "ヤマチャンノウエン",
      "business_type": "① 飲食店営業",
      "address": "宮崎県小林市野尻町三ケ野山４３５１－５",
      "lat": 31.966656,
      "lng": 131.077251,
      "geocoding_level": null,
      "phone": "0984-21-6161",
      "license_no": "２４０４４－１－３４",
      "license_date": "2026-05-14",
      "expire_date": "2032-05-31"
    },
    {
      "name": "セブンイレブン小林細野店",
      "name_kana": "セブンイレブンコバヤシホソノテン",
      "business_type": "① 飲食店営業",
      "address": "宮崎県小林市細野５０６－１１",
      "lat": 31.998157,
      "lng": 130.969,
      "geocoding_level": null,
      "phone": "0984-23-3075",
      "license_no": "４０４４－２－７３",
      "license_date": "2023-02-16",
      "expire_date": "2029-02-28"
    },
    {
      "name": "シャポー",
      "name_kana": "シャポー",
      "business_type": "⑪ 菓子製造業",
      "address": "宮崎県小林市南西方８１６８－２",
      "lat": 31.98408,
      "lng": 130.926751,
      "geocoding_level": null,
      "phone": "0984-22-5624",
      "license_no": "２４０４４－８－１７",
      "license_date": "2025-08-05",
      "expire_date": "2031-08-31"
    },
    {
      "name": "地方卸賣市場株式会社　小林魚市場",
      "name_kana": "チホウオロシウリシジョウカブシキガイシャコバヤシウオイチバ",
      "business_type": "⑤ 魚介類競り売り営業",
      "address": "宮崎県小林市細野２１２３－２",
      "lat": 31.990278,
      "lng": 130.982425,
      "geocoding_level": null,
      "phone": "0984-23-2108",
      "license_no": "２４０４４－２９－１",
      "license_date": "2025-08-07",
      "expire_date": "2031-08-31"
    },
    {
      "name": "ファミリーマート小林三松中前",
      "name_kana": "ファミリーマートコバヤシミマツチュウマエ",
      "business_type": "① 飲食店営業",
      "address": "宮崎県小林市堤３１３７－１１",
      "lat": 31.97441,
      "lng": 131.000407,
      "geocoding_level": null,
      "phone": "0984-24-5577",
      "license_no": "４０４４－１－１１３",
      "license_date": "2025-02-07",
      "expire_date": "2031-02-28"
    },
    {
      "name": "セブンイレブン小林下堤店",
      "name_kana": "セブンイレブンコバヤシシモツツミテン",
      "business_type": "① 飲食店営業",
      "address": "宮崎県小林市堤２１０４－１",
      "lat": 31.962501,
      "lng": 131.003665,
      "geocoding_level": null,
      "phone": "0984-22-6020",
      "license_no": "２４０４４－１－１５",
      "license_date": "2026-05-21",
      "expire_date": "2032-05-31"
    },
    {
      "name": "セブンイレブン野尻東麓店",
      "name_kana": "セブンイレブンノジリヒガシフモトテン",
      "business_type": "① 飲食店営業",
      "address": "宮崎県小林市野尻町東麓２４００－１",
      "lat": 31.960573,
      "lng": 131.09524,
      "geocoding_level": null,
      "phone": "0984-44-2100",
      "license_no": "２４０４４－１－１３",
      "license_date": "2026-05-14",
      "expire_date": "2032-05-31"
    },
    {
      "name": "musumi",
      "name_kana": "ムスミ",
      "business_type": "⑪ 菓子製造業",
      "address": "宮崎県小林市細野１４５",
      "lat": 31.993542,
      "lng": 130.9778,
      "geocoding_level": null,
      "phone": "",
      "license_no": "２４０４４－８－２",
      "license_date": "2026-05-14",
      "expire_date": "2032-05-31"
    },
    {
      "name": "宮崎小林カントリークラブ",
      "name_kana": "ミヤザキコバヤシカントリークラブ",
      "business_type": "① 飲食店営業",
      "address": "宮崎県小林市南西方１１３１",
      "lat": 31.972861,
      "lng": 130.921357,
      "geocoding_level": null,
      "phone": "0984-23-3111",
      "license_no": "２４０４４－１－１７",
      "license_date": "2026-05-21",
      "expire_date": "2032-05-31"
    },
    {
      "name": "（粉もん屋）たこ八",
      "name_kana": "コナモンヤタコハチ",
      "business_type": "① 飲食店営業",
      "address": "宮崎県小林市真方４５９",
      "lat": 31.989243,
      "lng": 130.988376,
      "geocoding_level": null,
      "phone": "",
      "license_no": "４０４４－１－２１",
      "license_date": "2024-05-07",
      "expire_date": "2030-05-31"
    },
    {
      "name": "セブンイレブン　野尻栗須店",
      "name_kana": "セブンイレブンノジリクリステン",
      "business_type": "① 飲食店営業",
      "address": "宮崎県小林市野尻町三ケ野山１７３０－１",
      "lat": 31.977544,
      "lng": 131.056813,
      "geocoding_level": null,
      "phone": "0984-44-3824",
      "license_no": "４０４４－１－４３",
      "license_date": "2023-08-03",
      "expire_date": "2029-08-31"
    },
    {
      "name": "菜の花作業所",
      "name_kana": "ナノハナサギョウショ",
      "business_type": "① 飲食店営業",
      "address": "宮崎県小林市細野字小堀１５２０",
      "lat": 31.991255,
      "lng": 130.977709,
      "geocoding_level": null,
      "phone": "0984-23-6090",
      "license_no": "４０４４－１－５２",
      "license_date": "2024-07-31",
      "expire_date": "2030-08-31"
    },
    {
      "name": "菜の花作業所",
      "name_kana": "ナノハナサギョウショ",
      "business_type": "⑪ 菓子製造業",
      "address": "宮崎県小林市細野字小堀１５２０",
      "lat": 31.991255,
      "lng": 130.977709,
      "geocoding_level": null,
      "phone": "0984-23-6090",
      "license_no": "４０４４－８－９",
      "license_date": "2024-07-31",
      "expire_date": "2030-08-31"
    },
    {
      "name": "にったこ",
      "name_kana": "ニッタコ",
      "business_type": "① 飲食店営業",
      "address": "宮崎県小林市細野２２６７－２",
      "lat": 31.988998,
      "lng": 130.987696,
      "geocoding_level": null,
      "phone": "070-2370-1234",
      "license_no": "４０４４－１－２４",
      "license_date": "2023-06-07",
      "expire_date": "2029-08-31"
    },
    {
      "name": "株式会社パティスリー・ハラ",
      "name_kana": "カブシキガイシャパティスリーハラ",
      "business_type": "⑪ 菓子製造業",
      "address": "宮崎県小林市細野１３３－２０",
      "lat": 31.994224,
      "lng": 130.980185,
      "geocoding_level": null,
      "phone": "0984-22-8314",
      "license_no": "２４０４４－８－１５",
      "license_date": "2025-08-04",
      "expire_date": "2031-08-31"
    },
    {
      "name": "街の洋食屋さん　キッチンマカロニ",
      "name_kana": "マチノヨウショクヤサンキッチンマカロニ",
      "business_type": "① 飲食店営業",
      "address": "宮崎県小林市細野４６６－１２",
      "lat": 31.998061,
      "lng": 130.969711,
      "geocoding_level": null,
      "phone": "",
      "license_no": "２４０４４－１－１２０",
      "license_date": "2025-11-10",
      "expire_date": "2031-11-30"
    },
    {
      "name": "セブンイレブン  野尻紙屋店",
      "name_kana": "セブンイレブンノジリカミヤテン",
      "business_type": "① 飲食店営業",
      "address": "宮崎県小林市野尻町紙屋８２８－８",
      "lat": 31.966053,
      "lng": 131.19438,
      "geocoding_level": null,
      "phone": "0984-46-1035",
      "license_no": "２４０４４－１－７０",
      "license_date": "2025-08-06",
      "expire_date": "2031-08-31"
    },
    {
      "name": "にっこば工房",
      "name_kana": "ニッコバコウボウ",
      "business_type": "① 飲食店営業",
      "address": "宮崎県小林市南西方５９４２－３３",
      "lat": 32.009176,
      "lng": 130.904731,
      "geocoding_level": null,
      "phone": "0984-27-0027",
      "license_no": "４０４４－１－３９",
      "license_date": "2024-07-30",
      "expire_date": "2030-08-31"
    },
    {
      "name": "川﨑鮮魚店",
      "name_kana": "カワサキセンギョテン",
      "business_type": "㉕ そうざい製造業",
      "address": "宮崎県小林市真方２２８",
      "lat": 31.997343,
      "lng": 130.979409,
      "geocoding_level": null,
      "phone": "0984-23-2056",
      "license_no": "４０４４－５５－１４",
      "license_date": "2024-11-21",
      "expire_date": "2030-11-30"
    },
    {
      "name": "川﨑鮮魚店",
      "name_kana": "カワサキセンギョテン",
      "business_type": "④ 魚介類販売業",
      "address": "宮崎県小林市真方２２８",
      "lat": 31.997343,
      "lng": 130.979409,
      "geocoding_level": null,
      "phone": "0984-23-2056",
      "license_no": "４０４４－２７－３",
      "license_date": "2024-11-21",
      "expire_date": "2030-11-30"
    },
    {
      "name": "クッチーナ・マンマ・デル・ペッシェ",
      "name_kana": "クッチーナマンマデルペッシェ",
      "business_type": "① 飲食店営業",
      "address": "宮崎県小林市真方２２８",
      "lat": 31.997343,
      "lng": 130.979409,
      "geocoding_level": null,
      "phone": "0984-23-2056",
      "license_no": "４０４４－１－８９",
      "license_date": "2024-11-21",
      "expire_date": "2030-11-30"
    },
    {
      "name": "医療法人　けんゆう会　園田病院",
      "name_kana": "イリョウホウジン　ケンユウカイ　ソノダビョウイン",
      "business_type": "㉖ 集団給食施設",
      "address": "宮崎県小林市堤３００５－１",
      "lat": 31.983178,
      "lng": 130.997512,
      "geocoding_level": null,
      "phone": "0984-22-2221",
      "license_no": "",
      "license_date": null,
      "expire_date": null
    },
    {
      "name": "株式会社はまだストアー",
      "name_kana": "カブシキガイシャハマダストアー",
      "business_type": "⑪ 菓子製造業",
      "address": "宮崎県小林市北西方１３０２",
      "lat": 32.010137,
      "lng": 130.920607,
      "geocoding_level": null,
      "phone": "0984-27-1012",
      "license_no": "２４０４４－８－２０",
      "license_date": "2025-09-10",
      "expire_date": "2031-11-30"
    },
    {
      "name": "モナコパレス堤店",
      "name_kana": "モナコパレスツツミテン",
      "business_type": "㉔ その他の食料品製造・加工業",
      "address": "宮崎県小林市堤2984-1",
      "lat": 31.984537,
      "lng": 130.993653,
      "geocoding_level": null,
      "phone": "0984235687",
      "license_no": "",
      "license_date": null,
      "expire_date": null
    },
    {
      "name": "モナコパレス堤店",
      "name_kana": "モナコパレスツツミテン",
      "business_type": "㉖ 集団給食施設",
      "address": "宮崎県小林市堤2984-1",
      "lat": 31.984537,
      "lng": 130.993653,
      "geocoding_level": null,
      "phone": "0984235687",
      "license_no": "",
      "license_date": null,
      "expire_date": null
    },
    {
      "name": "モナコパレス堤店",
      "name_kana": "モナコパレスツツミテン",
      "business_type": "① 飲食店営業",
      "address": "宮崎県小林市堤２９８４－１",
      "lat": 31.984537,
      "lng": 130.993653,
      "geocoding_level": null,
      "phone": "0984-22-8555",
      "license_no": "２４０４４－１－２６",
      "license_date": "2025-05-15",
      "expire_date": "2031-05-31"
    },
    {
      "name": "モナコパレス小林店",
      "name_kana": "モナコパレスコバヤシテン",
      "business_type": "㉔ その他の食料品製造・加工業",
      "address": "宮崎県小林市細野2136-13",
      "lat": 31.990573,
      "lng": 130.980533,
      "geocoding_level": null,
      "phone": "0984-25-1585",
      "license_no": "",
      "license_date": null,
      "expire_date": null
    },
    {
      "name": "モナコパレス小林店",
      "name_kana": "モナコパレスコバヤシテン",
      "business_type": "① 飲食店営業",
      "address": "宮崎県小林市細野２１３６－１３",
      "lat": 31.990573,
      "lng": 130.980533,
      "geocoding_level": null,
      "phone": "0984-22-7877",
      "license_no": "２４０４４－１－２７",
      "license_date": "2025-05-12",
      "expire_date": "2031-05-31"
    },
    {
      "name": "オンマの台所",
      "name_kana": "オンマノダイドコロ",
      "business_type": "① 飲食店営業",
      "address": "宮崎県小林市細野５０８－６",
      "lat": 31.998901,
      "lng": 130.969079,
      "geocoding_level": null,
      "phone": "",
      "license_no": "２４０４４－１－３１",
      "license_date": "2026-05-07",
      "expire_date": "2032-05-31"
    },
    {
      "name": "佐藤漬物工業株式会社　本社工場",
      "name_kana": "サトウツケモノコウギョウ　ホンシャコウジョウ",
      "business_type": "㉙ 漬物製造業",
      "address": "宮崎県小林市南西方３０８",
      "lat": 31.993048,
      "lng": 130.9564,
      "geocoding_level": null,
      "phone": "0984-23-3035",
      "license_no": "４０４４－６５－１０",
      "license_date": "2023-11-07",
      "expire_date": "2029-11-30"
    },
    {
      "name": "佐藤漬物工業株式会社　南ヶ丘工場",
      "name_kana": "サトウツケモノコウギョウ　ミナミガオカコウジョウ",
      "business_type": "㉙ 漬物製造業",
      "address": "宮崎県小林市南西方１１３７－９８",
      "lat": 31.977893,
      "lng": 130.937416,
      "geocoding_level": null,
      "phone": "0984-23-3035",
      "license_no": "４０４４－６５－１１",
      "license_date": "2023-11-07",
      "expire_date": "2029-11-30"
    },
    {
      "name": "ぱん工房花花",
      "name_kana": "パンコウボウハナハナ",
      "business_type": "⑪ 菓子製造業",
      "address": "宮崎県小林市野尻町紙屋８２５－６",
      "lat": 31.965588,
      "lng": 131.193007,
      "geocoding_level": null,
      "phone": "",
      "license_no": "４０４４－８－１４",
      "license_date": "2024-11-11",
      "expire_date": "2030-11-30"
    },
    {
      "name": "はなぶさ　仲町店",
      "name_kana": "ハナブサナカマチテン",
      "business_type": "① 飲食店営業",
      "address": "宮崎県小林市細野１９０１－１１ トーア五番館１F",
      "lat": 31.992829,
      "lng": 130.977879,
      "geocoding_level": null,
      "phone": "",
      "license_no": "２４０４４－１－１３７",
      "license_date": "2025-12-17",
      "expire_date": "2032-02-29"
    },
    {
      "name": "株式会社山椒茶屋　野尻店",
      "name_kana": "カブシキガイシャサンショウチャヤノジリタン",
      "business_type": "① 飲食店営業",
      "address": "宮崎県小林市野尻町紙屋３５９１－４",
      "lat": 31.958799,
      "lng": 131.139841,
      "geocoding_level": null,
      "phone": "0984-44-0709",
      "license_no": "２４０４４－１－１８",
      "license_date": "2026-05-14",
      "expire_date": "2032-05-31"
    },
    {
      "name": "鮮ど市場　小林店（寿司コーナー）",
      "name_kana": "センドイチバコバヤシテンスシコーナー",
      "business_type": "① 飲食店営業",
      "address": "宮崎県小林市堤金鳥居３０２６－９",
      "lat": 31.974648,
      "lng": 130.999895,
      "geocoding_level": null,
      "phone": "0984-27-3090",
      "license_no": "４０４４－１－７８",
      "license_date": "2024-11-20",
      "expire_date": "2030-11-30"
    },
    {
      "name": "鮮ど市場　小林店（そうざい）",
      "name_kana": "センドイチバコバヤシテン",
      "business_type": "① 飲食店営業",
      "address": "宮崎県小林市堤金鳥居３０２６－９",
      "lat": 31.974648,
      "lng": 130.999895,
      "geocoding_level": null,
      "phone": "0984-27-3090",
      "license_no": "４０４４－１－７９",
      "license_date": "2024-11-20",
      "expire_date": "2030-11-30"
    },
    {
      "name": "鮮ど市場　小林店",
      "name_kana": "センドイチバコバヤシテン",
      "business_type": "③ 食肉販売業",
      "address": "宮崎県小林市堤金鳥居３０２６－９",
      "lat": 31.974648,
      "lng": 130.999895,
      "geocoding_level": null,
      "phone": "0984-27-3090",
      "license_no": "４０４４－２３－６",
      "license_date": "2024-11-20",
      "expire_date": "2030-11-30"
    },
    {
      "name": "鮮ど市場　小林店",
      "name_kana": "センドイチバコバヤシテン",
      "business_type": "④ 魚介類販売業",
      "address": "宮崎県小林市堤金鳥居３０２６－９",
      "lat": 31.974648,
      "lng": 130.999895,
      "geocoding_level": null,
      "phone": "0984-27-3090",
      "license_no": "４０４４－２７－２",
      "license_date": "2024-11-20",
      "expire_date": "2030-11-30"
    },
    {
      "name": "有限会社　風月堂",
      "name_kana": "ユゲンガイシャフウゲツドウ",
      "business_type": "⑪ 菓子製造業",
      "address": "宮崎県小林市細野４３８－１",
      "lat": 31.996078,
      "lng": 130.972414,
      "geocoding_level": null,
      "phone": "0984-22-2987",
      "license_no": "４０４４－８－１６",
      "license_date": "2024-11-14",
      "expire_date": "2030-11-30"
    },
    {
      "name": "ケーキファクトリー　スイートアリス",
      "name_kana": "ケーキファクトリースイートアリス",
      "business_type": "⑪ 菓子製造業",
      "address": "宮崎県小林市堤３０８８－３",
      "lat": 31.97738,
      "lng": 130.998713,
      "geocoding_level": null,
      "phone": "0984-23-8880",
      "license_no": "４０４４－８－２５",
      "license_date": "2025-02-12",
      "expire_date": "2031-02-28"
    },
    {
      "name": "福祉サービス事業所　スマイルハウス",
      "name_kana": "フクシサービスジギョウショスマイルハウス",
      "business_type": "① 飲食店営業",
      "address": "宮崎県小林市細野５１２－１５",
      "lat": 31.999992,
      "lng": 130.967088,
      "geocoding_level": null,
      "phone": "0984-48-9151",
      "license_no": "４０４４－１－１０５",
      "license_date": "2024-12-09",
      "expire_date": "2031-02-28"
    },
    {
      "name": "セブンイレブン　小林永田町店",
      "name_kana": "セブンイレブンコバヤシナガタチョウテン",
      "business_type": "① 飲食店営業",
      "address": "宮崎県小林市細野１９６５－１７",
      "lat": 31.988672,
      "lng": 130.978293,
      "geocoding_level": null,
      "phone": "0984-22-3390",
      "license_no": "２４０４４－１－１４１",
      "license_date": "2026-01-28",
      "expire_date": "2032-02-29"
    },
    {
      "name": "セブンイレブン　小林永田町店",
      "name_kana": "セブンイレブンコバヤシナガタチョウテン",
      "business_type": "⑩ コンビニエンスストア",
      "address": "宮崎県小林市細野１９６５－１７",
      "lat": 31.988672,
      "lng": 130.978293,
      "geocoding_level": null,
      "phone": "0984-22-3390",
      "license_no": "",
      "license_date": null,
      "expire_date": null
    },
    {
      "name": "有限会社　くま扇",
      "name_kana": "ユウゲンガイシャクマセン",
      "business_type": "㉕ そうざい製造業",
      "address": "宮崎県小林市本町４３",
      "lat": 31.993008,
      "lng": 130.974782,
      "geocoding_level": null,
      "phone": "0984-23-1847",
      "license_no": "４０４４－５５－１５",
      "license_date": "2024-11-07",
      "expire_date": "2030-11-30"
    },
    {
      "name": "株式会社一和誠寿（２号機）",
      "name_kana": "カブシキガイシャイチワセイジュニゴウキ",
      "business_type": "① 飲食店営業",
      "address": "宮崎県小林市南西方１２４４－２",
      "lat": 31.976748,
      "lng": 130.908183,
      "geocoding_level": null,
      "phone": "",
      "license_no": "４０４４－１－９５",
      "license_date": "2024-11-15",
      "expire_date": "2029-11-30"
    },
    {
      "name": "マルタカ本舗",
      "name_kana": "マルタカホンポ",
      "business_type": "㉚ 密封包装食品製造業",
      "address": "宮崎県小林市南西方１２５１－３",
      "lat": 31.985023,
      "lng": 130.935614,
      "geocoding_level": null,
      "phone": "0984-22-7878",
      "license_no": "２４０４４－４５－１",
      "license_date": "2025-05-20",
      "expire_date": "2031-05-31"
    },
    {
      "name": "JOJON",
      "name_kana": "ジョジョン",
      "business_type": "⑭ 清涼飲料水製造業",
      "address": "宮崎県小林市南西方１２４４－２",
      "lat": 31.976748,
      "lng": 130.908183,
      "geocoding_level": null,
      "phone": "",
      "license_no": "２４０４４－３７－１",
      "license_date": "2026-05-27",
      "expire_date": "2032-05-31"
    },
    {
      "name": "元気De荘",
      "name_kana": "ゲンキデソウ",
      "business_type": "① 飲食店営業",
      "address": "宮崎県小林市野尻町三ケ野山１２９８－５",
      "lat": 31.965354,
      "lng": 131.082061,
      "geocoding_level": null,
      "phone": "",
      "license_no": "４０４４－１－２２",
      "license_date": "2024-05-09",
      "expire_date": "2030-05-31"
    },
    {
      "name": "Bon's CrePe",
      "name_kana": "ボンズクレープ",
      "business_type": "① 飲食店営業",
      "address": "宮崎県小林市堤 （県内一円）",
      "lat": 31.974648,
      "lng": 130.999895,
      "geocoding_level": null,
      "phone": "",
      "license_no": "２４０４４－１－１７５",
      "license_date": "2026-03-10",
      "expire_date": "2031-05-31"
    },
    {
      "name": "大衆焼亭",
      "name_kana": "タイシュウヤキテイ",
      "business_type": "① 飲食店営業",
      "address": "宮崎県小林市細野１８９９－１２",
      "lat": 31.992877,
      "lng": 130.977586,
      "geocoding_level": null,
      "phone": "0984-23-9678",
      "license_no": "４０４４－１－４２",
      "license_date": "2022-12-07",
      "expire_date": "2029-02-28"
    },
    {
      "name": "魚料理よしふね",
      "name_kana": "サカナリョウリヨシフネ",
      "business_type": "① 飲食店営業",
      "address": "宮崎県小林市細野１６１０－５",
      "lat": 31.993166,
      "lng": 130.972874,
      "geocoding_level": null,
      "phone": "",
      "license_no": "４０４４－１－３２",
      "license_date": "2024-07-19",
      "expire_date": "2030-08-31"
    },
    {
      "name": "日本料理　おおやま",
      "name_kana": "ニホンリョウリオオヤマ",
      "business_type": "㉕ 行商",
      "address": "宮崎県小林市細野２１５－１５",
      "lat": 31.994125,
      "lng": 130.976965,
      "geocoding_level": null,
      "phone": "0984-23-5722",
      "license_no": "",
      "license_date": null,
      "expire_date": null
    },
    {
      "name": "日本料理　おおやま",
      "name_kana": "ニホンリョウリオオヤマ",
      "business_type": "① 飲食店営業",
      "address": "宮崎県小林市細野２１５－１５",
      "lat": 31.994137,
      "lng": 130.976972,
      "geocoding_level": null,
      "phone": "0984-23-5722",
      "license_no": "２４０４４－１－１５４",
      "license_date": "2026-01-26",
      "expire_date": "2032-02-29"
    },
    {
      "name": "コロコロ",
      "name_kana": "コロコロ",
      "business_type": "① 飲食店営業",
      "address": "宮崎県小林市堤３１３６－６",
      "lat": 31.975389,
      "lng": 131.000308,
      "geocoding_level": null,
      "phone": "0984-22-7380",
      "license_no": "４０４４－２－７９",
      "license_date": "2023-02-17",
      "expire_date": "2029-02-28"
    },
    {
      "name": "牛心フードサービス",
      "name_kana": "ギュウシンフードサービス",
      "business_type": "③ 食肉販売業",
      "address": "宮崎県小林市真方７８８－５",
      "lat": 32.003843,
      "lng": 130.98502,
      "geocoding_level": null,
      "phone": "",
      "license_no": "４０４４－２３－２",
      "license_date": "2024-08-16",
      "expire_date": "2030-08-31"
    },
    {
      "name": "炭火焼牛心　堤店",
      "name_kana": "スミビヤキギュウシンツツミテン",
      "business_type": "① 飲食店営業",
      "address": "宮崎県小林市堤３１１６－１",
      "lat": 31.97849,
      "lng": 131.001931,
      "geocoding_level": null,
      "phone": "0984-23-5055",
      "license_no": "２４０４４－１－３５",
      "license_date": "2025-05-15",
      "expire_date": "2031-05-31"
    },
    {
      "name": "牛心精肉店",
      "name_kana": "ギュウシンセイニクテン",
      "business_type": "③ 食肉販売業",
      "address": "宮崎県小林市真方７８８－２",
      "lat": 32.004079,
      "lng": 130.9848,
      "geocoding_level": null,
      "phone": "0984-27-3529",
      "license_no": "２４０４４－２３－３",
      "license_date": "2025-05-09",
      "expire_date": "2031-05-31"
    },
    {
      "name": "かえるのへそ",
      "name_kana": "カエルノヘソ",
      "business_type": "① 飲食店営業",
      "address": "宮崎県小林市細野１５１－１",
      "lat": 31.992833,
      "lng": 130.978384,
      "geocoding_level": null,
      "phone": "090-4985-3314",
      "license_no": "４０４４－１－５５",
      "license_date": "2023-02-28",
      "expire_date": "2029-02-28"
    },
    {
      "name": "スナック　華 ハナ.",
      "name_kana": "スナックハナ",
      "business_type": "① 飲食店営業",
      "address": "宮崎県小林市細野１２４－７ トーア６番館　２階",
      "lat": 31.992753,
      "lng": 130.97878,
      "geocoding_level": null,
      "phone": "",
      "license_no": "２４０４４－１－１３４",
      "license_date": "2025-11-25",
      "expire_date": "2031-11-30"
    },
    {
      "name": "いも姉ちゃん",
      "name_kana": "イモネエチャン",
      "business_type": "① 飲食店営業",
      "address": "宮崎県小林市野尻町紙屋１８２８－２",
      "lat": 31.962337,
      "lng": 131.177018,
      "geocoding_level": null,
      "phone": "",
      "license_no": "４０４４－１－１２２",
      "license_date": "2024-02-28",
      "expire_date": "2030-02-28"
    },
    {
      "name": "株式会社 野口総合研究所　生駒工場",
      "name_kana": "カブシキガイシャノグチソウゴウケンキュウショイコマコウジョウ",
      "business_type": "⑭ 清涼飲料水製造業",
      "address": "宮崎県小林市南西方８６００",
      "lat": 31.980518,
      "lng": 130.900331,
      "geocoding_level": null,
      "phone": "0984-25-2744",
      "license_no": "４０４４－３７－３",
      "license_date": "2023-05-19",
      "expire_date": "2029-05-31"
    },
    {
      "name": "インドレストラン　ナマステ　カリカ",
      "name_kana": "インドレストランナマステカリカ",
      "business_type": "① 飲食店営業",
      "address": "宮崎県小林市堤２９２３－６",
      "lat": 31.98569,
      "lng": 130.990858,
      "geocoding_level": null,
      "phone": "",
      "license_no": "４０４４－１－２２",
      "license_date": "2023-06-01",
      "expire_date": "2029-05-31"
    },
    {
      "name": "有限会社　玉光園",
      "name_kana": "ユウゲンガイシャギョクコウエン",
      "business_type": "㉕ 行商",
      "address": "宮崎県小林市野尻町東麓２８４２－３（県内一円）",
      "lat": 31.959783,
      "lng": 131.065409,
      "geocoding_level": null,
      "phone": "0984-44-2958",
      "license_no": "",
      "license_date": null,
      "expire_date": null
    },
    {
      "name": "颯",
      "name_kana": "ハヤテ",
      "business_type": "① 飲食店営業",
      "address": "宮崎県小林市細野１５５－５ 西ノ川ビル１F",
      "lat": 31.993235,
      "lng": 130.977992,
      "geocoding_level": null,
      "phone": "",
      "license_no": "４０４４－１－５５",
      "license_date": "2024-08-08",
      "expire_date": "2030-08-31"
    },
    {
      "name": "焼肉アンドステーキなかにし",
      "name_kana": "ヤキニクアンドステーキナカニシ",
      "business_type": "① 飲食店営業",
      "address": "宮崎県小林市細野１８８９－１",
      "lat": 31.993074,
      "lng": 130.976123,
      "geocoding_level": null,
      "phone": "0984-22-4649",
      "license_no": "４０４４－１－３５",
      "license_date": "2023-08-04",
      "expire_date": "2029-08-31"
    },
    {
      "name": "有限会社西ノ原牧場牛直販",
      "name_kana": "ユウゲンガイシャニシノハルボクジョウギュウチョクハン",
      "business_type": "③ 食肉販売業",
      "address": "宮崎県小林市北西方１８００",
      "lat": 32.023438,
      "lng": 130.915489,
      "geocoding_level": null,
      "phone": "0984-27-1135",
      "license_no": "２４０４４－２３－６",
      "license_date": "2025-08-05",
      "expire_date": "2031-08-31"
    },
    {
      "name": "レストラン待夢",
      "name_kana": "レストランタイム",
      "business_type": "① 飲食店営業",
      "address": "宮崎県小林市堤３０８９－１４",
      "lat": 31.97689,
      "lng": 130.999169,
      "geocoding_level": null,
      "phone": "0984-22-8754",
      "license_no": "４０４４－１－３７",
      "license_date": "2023-08-21",
      "expire_date": "2029-08-31"
    },
    {
      "name": "株式会社　霧島農産",
      "name_kana": "カブシキガイシャキリシマノウサン",
      "business_type": "㉙ 漬物製造業",
      "address": "宮崎県小林市北西方７３４－１２０",
      "lat": 32.013115,
      "lng": 130.939596,
      "geocoding_level": null,
      "phone": "0984-27-0061",
      "license_no": "４０４４－６５－５",
      "license_date": "2023-09-14",
      "expire_date": "2029-11-30"
    },
    {
      "name": "小林東方学校給食センター",
      "name_kana": "コバヤシヒガシカタガッコウキュウショクセンター",
      "business_type": "① 飲食店営業",
      "address": "宮崎県小林市東方１３４－３",
      "lat": 32.00889,
      "lng": 131.004586,
      "geocoding_level": null,
      "phone": "0984-22-2447",
      "license_no": "２４０４４－１－５７",
      "license_date": "2025-08-19",
      "expire_date": "2031-08-31"
    },
    {
      "name": "ほっともっと小林本町店",
      "name_kana": "ホットモットコバヤシホンマチテン",
      "business_type": "① 飲食店営業",
      "address": "宮崎県小林市細野２１６９－６",
      "lat": 31.991435,
      "lng": 130.981706,
      "geocoding_level": null,
      "phone": "0984-22-7731",
      "license_no": "４０４４－１－６４",
      "license_date": "2023-08-31",
      "expire_date": "2029-08-31"
    },
    {
      "name": "小林地域家畜市場食堂",
      "name_kana": "コバヤシチイキカチクイチバショクドウ",
      "business_type": "② 食肉販売業（包装済みの食肉のみの販売）",
      "address": "宮崎県小林市南西方１１１２",
      "lat": 31.978637,
      "lng": 130.939178,
      "geocoding_level": null,
      "phone": "0984-23-4128",
      "license_no": "",
      "license_date": null,
      "expire_date": null
    },
    {
      "name": "小林地域家畜市場食堂",
      "name_kana": "コバヤシチイキカチクイチバショクドウ",
      "business_type": "③ 乳類販売業",
      "address": "宮崎県小林市南西方１１１２",
      "lat": 31.978637,
      "lng": 130.939178,
      "geocoding_level": null,
      "phone": "0984-23-4128",
      "license_no": "",
      "license_date": null,
      "expire_date": null
    },
    {
      "name": "居酒屋　双",
      "name_kana": "イザカヤソウ",
      "business_type": "① 飲食店営業",
      "address": "宮崎県小林市本町１１５",
      "lat": 31.992034,
      "lng": 130.977596,
      "geocoding_level": null,
      "phone": "090-6293-9054",
      "license_no": "４０４４－１－８８",
      "license_date": "2023-11-17",
      "expire_date": "2029-11-30"
    },
    {
      "name": "ゆみこキッチン",
      "name_kana": "ユミコキッチン",
      "business_type": "㉕ そうざい製造業",
      "address": "宮崎県小林市南西方３１６５－２",
      "lat": 31.999103,
      "lng": 130.931071,
      "geocoding_level": null,
      "phone": "",
      "license_no": "４０４４－５５－１１",
      "license_date": "2024-08-23",
      "expire_date": "2030-08-31"
    },
    {
      "name": "メルベイユキャビア",
      "name_kana": "メルベイユキャビア",
      "business_type": "⑯ 水産製品製造業",
      "address": "宮崎県小林市細野１００－１１",
      "lat": 31.993045,
      "lng": 130.979449,
      "geocoding_level": null,
      "phone": "",
      "license_no": "４０４４－３１－１",
      "license_date": "2023-12-27",
      "expire_date": "2030-02-28"
    },
    {
      "name": "KHANH HOA MART",
      "name_kana": "カインホアマート",
      "business_type": "⑪ 百貨店、総合スーパー",
      "address": "宮崎県小林市本町１０ 清水ビル１F",
      "lat": 31.992093,
      "lng": 130.976051,
      "geocoding_level": null,
      "phone": "080-7800-7669",
      "license_no": "",
      "license_date": null,
      "expire_date": null
    },
    {
      "name": "お菓子の国　たんぽぽ",
      "name_kana": "オカシノクニタンポポ",
      "business_type": "⑪ 菓子製造業",
      "address": "宮崎県小林市堤３６１４－１",
      "lat": 31.965848,
      "lng": 131.002311,
      "geocoding_level": null,
      "phone": "0984-22-2999",
      "license_no": "４０４４－８－１８",
      "license_date": "2024-02-14",
      "expire_date": "2030-02-28"
    },
    {
      "name": "出の山いこいの家",
      "name_kana": "イデノヤマイコイノイエ",
      "business_type": "⑯ 水産製品製造業",
      "address": "宮崎県小林市南西方１１０３",
      "lat": 31.980143,
      "lng": 130.944133,
      "geocoding_level": null,
      "phone": "0984-22-5151",
      "license_no": "４０４４－３１－２",
      "license_date": "2024-03-25",
      "expire_date": "2030-05-31"
    },
    {
      "name": "株式会社いこいの家",
      "name_kana": "カブシキガイシャイコイノイエ",
      "business_type": "① 飲食店営業",
      "address": "宮崎県小林市南西方１１０３",
      "lat": 31.980125,
      "lng": 130.944174,
      "geocoding_level": null,
      "phone": "0984-22-5151",
      "license_no": "４０４４－１－１１７",
      "license_date": "2025-02-13",
      "expire_date": "2031-02-28"
    },
    {
      "name": "OZE TAIYAKI",
      "name_kana": "オゼタイヤキ",
      "business_type": "① 飲食店営業",
      "address": "宮崎県小林市堤３０２０－１３ （県内一円）",
      "lat": 31.981229,
      "lng": 130.998053,
      "geocoding_level": null,
      "phone": "080-5289-5173",
      "license_no": "４０４４－１－５１",
      "license_date": "2024-07-16",
      "expire_date": "2029-08-31"
    },
    {
      "name": "みやこ鶏直売所",
      "name_kana": "ミヤコドリチョクバイショ",
      "business_type": "⑨ 食肉処理業",
      "address": "宮崎県小林市北西方８９２－２",
      "lat": 32.011018,
      "lng": 130.947081,
      "geocoding_level": null,
      "phone": "0984-24-1083",
      "license_no": "４０４４－２１－３",
      "license_date": "2024-05-27",
      "expire_date": "2030-05-31"
    },
    {
      "name": "ローソン小林中央通り店",
      "name_kana": "ローソンコバヤシチュウオウドオリテン",
      "business_type": "① 飲食店営業",
      "address": "宮崎県小林市細野１８８０",
      "lat": 31.993745,
      "lng": 130.975387,
      "geocoding_level": null,
      "phone": "",
      "license_no": "２４０４４－１－１４９",
      "license_date": "2026-01-29",
      "expire_date": "2032-02-29"
    },
    {
      "name": "ダイレックス小林店",
      "name_kana": "ダイレックスコバヤシテン",
      "business_type": "⑪ 百貨店、総合スーパー",
      "address": "宮崎県小林市細野1976番1 プラッセだいわ小林店１Ｆ",
      "lat": 31.989528,
      "lng": 130.979429,
      "geocoding_level": null,
      "phone": "0984-24-5210",
      "license_no": "",
      "license_date": null,
      "expire_date": null
    },
    {
      "name": "錦江水産",
      "name_kana": "キンコウスイサン",
      "business_type": "① 魚介類販売業（包装済みの魚介類のみの販売）",
      "address": "宮崎県小林市堤（県内一円）",
      "lat": 31.962988,
      "lng": 131.004104,
      "geocoding_level": null,
      "phone": "",
      "license_no": "",
      "license_date": null,
      "expire_date": null
    },
    {
      "name": "錦江水産",
      "name_kana": "キンコウスイサン",
      "business_type": "㉕ 行商",
      "address": "宮崎県小林市堤（県内一円）",
      "lat": 31.962988,
      "lng": 131.004104,
      "geocoding_level": null,
      "phone": "",
      "license_no": "",
      "license_date": null,
      "expire_date": null
    },
    {
      "name": "鳥越　カズ子",
      "name_kana": "トリゴエカズコ",
      "business_type": "⑰ 農産保存食料品製造・加工業",
      "address": "宮崎県小林市南西方１００２－１",
      "lat": 31.984543,
      "lng": 130.949774,
      "geocoding_level": null,
      "phone": "",
      "license_no": "",
      "license_date": null,
      "expire_date": null
    },
    {
      "name": "Kokoya de Kobayashi",
      "name_kana": "ココヤドコバヤシ",
      "business_type": "① 飲食店営業",
      "address": "宮崎県小林市駅南２６７",
      "lat": 31.989461,
      "lng": 130.974155,
      "geocoding_level": null,
      "phone": "0984-23-1800",
      "license_no": "４０４４－１－５",
      "license_date": "2024-05-15",
      "expire_date": "2030-05-31"
    },
    {
      "name": "スナック　花鈴",
      "name_kana": "スナックカリン",
      "business_type": "① 飲食店営業",
      "address": "宮崎県小林市細野１４９－１１ 迎ビル１０１号",
      "lat": 31.993242,
      "lng": 130.978456,
      "geocoding_level": null,
      "phone": "",
      "license_no": "４０４４－１－６",
      "license_date": "2024-05-14",
      "expire_date": "2030-05-31"
    },
    {
      "name": "スナック　んだもしたん",
      "name_kana": "スナックンダモシタン",
      "business_type": "① 飲食店営業",
      "address": "宮崎県小林市細野１９０１－１１ トーア５番館２F",
      "lat": 31.992829,
      "lng": 130.977879,
      "geocoding_level": null,
      "phone": "",
      "license_no": "４０４４－１－８",
      "license_date": "2024-05-14",
      "expire_date": "2030-05-31"
    },
    {
      "name": "るるる亭",
      "name_kana": "ルルルテイ",
      "business_type": "① 飲食店営業",
      "address": "宮崎県小林市細野１９７０－１",
      "lat": 31.98887,
      "lng": 130.978915,
      "geocoding_level": null,
      "phone": "0984-22-8804",
      "license_no": "４０４４－１－１０",
      "license_date": "2024-05-16",
      "expire_date": "2030-05-31"
    },
    {
      "name": "No Thingness Coffee",
      "name_kana": "ノーシングネスコーヒー",
      "business_type": "⑯ コーヒー製造・加工業（飲料の製造を除く。）",
      "address": "宮崎県小林市真方８３４－５（県内一円）",
      "lat": 32.001148,
      "lng": 130.978266,
      "geocoding_level": null,
      "phone": "",
      "license_no": "",
      "license_date": null,
      "expire_date": null
    },
    {
      "name": "No Thingness Coffee",
      "name_kana": "ノーシングネスコーヒー",
      "business_type": "㉕ 行商",
      "address": "宮崎県小林市真方８３４－５（県内一円）",
      "lat": 32.001148,
      "lng": 130.978266,
      "geocoding_level": null,
      "phone": "",
      "license_no": "",
      "license_date": null,
      "expire_date": null
    },
    {
      "name": "有限会社四位農園",
      "name_kana": "ユウゲンガイシャシイノウエン",
      "business_type": "㉗ 冷凍食品製造業",
      "address": "宮崎県小林市野尻町三ケ野山３０２８",
      "lat": 31.981707,
      "lng": 131.033083,
      "geocoding_level": null,
      "phone": "0984-42-5525",
      "license_no": "４０４４－３２－２",
      "license_date": "2024-11-11",
      "expire_date": "2030-11-30"
    },
    {
      "name": "Re.Lien",
      "name_kana": "リリアン",
      "business_type": "① 飲食店営業",
      "address": "宮崎県小林市細野１２８－１７ エルムコート２－C",
      "lat": 31.993148,
      "lng": 130.979002,
      "geocoding_level": null,
      "phone": "",
      "license_no": "４０４４－１－４６",
      "license_date": "2024-07-18",
      "expire_date": "2030-08-31"
    },
    {
      "name": "W.",
      "name_kana": "ダヴリュードット",
      "business_type": "① 飲食店営業",
      "address": "宮崎県小林市細野１４８ 第６迎ビル　パルメーラG号",
      "lat": 31.9931,
      "lng": 130.978694,
      "geocoding_level": null,
      "phone": "",
      "license_no": "４０４４－１－４７",
      "license_date": "2024-07-30",
      "expire_date": "2030-08-31"
    },
    {
      "name": "百一番",
      "name_kana": "ヒャクイチバン",
      "business_type": "① 飲食店営業",
      "address": "宮崎県小林市野尻町東麓１３０１－９",
      "lat": 31.958361,
      "lng": 131.102337,
      "geocoding_level": null,
      "phone": "0984-44-1797",
      "license_no": "４０４４－１－４３",
      "license_date": "2024-08-05",
      "expire_date": "2030-08-31"
    },
    {
      "name": "食酔　いけのや",
      "name_kana": "ショクスイイケノヤ",
      "business_type": "① 飲食店営業",
      "address": "宮崎県小林市本町１１５",
      "lat": 31.991922,
      "lng": 130.977539,
      "geocoding_level": null,
      "phone": "0984-23-6555",
      "license_no": "４０４４－１－４５",
      "license_date": "2024-08-27",
      "expire_date": "2030-08-31"
    },
    {
      "name": "高齢者向け配食サービスステップ",
      "name_kana": "コウレイシャムケハイショクサービスステップ",
      "business_type": "㉕ そうざい製造業",
      "address": "宮崎県小林市真方４３５－１",
      "lat": 31.991256,
      "lng": 130.986096,
      "geocoding_level": null,
      "phone": "",
      "license_no": "４０４４－５５－８",
      "license_date": "2024-07-29",
      "expire_date": "2030-08-31"
    },
    {
      "name": "高齢者向け配食サービスステップ",
      "name_kana": "コウレイシャムケハイショクサービスステップ",
      "business_type": "㉕ 行商",
      "address": "宮崎県小林市真方４３５－１ （県内一円）",
      "lat": 31.991256,
      "lng": 130.986096,
      "geocoding_level": null,
      "phone": "",
      "license_no": "",
      "license_date": null,
      "expire_date": null
    },
    {
      "name": "スナック佑　８８８",
      "name_kana": "スナックユウ",
      "business_type": "① 飲食店営業",
      "address": "宮崎県小林市本町１１４ ミサカビル１Ｆ",
      "lat": 31.991692,
      "lng": 130.977584,
      "geocoding_level": null,
      "phone": "",
      "license_no": "４０４４－１－５３",
      "license_date": "2024-08-27",
      "expire_date": "2030-08-31"
    },
    {
      "name": "coffeたまきの",
      "name_kana": "コーヒータマキノ",
      "business_type": "① 飲食店営業",
      "address": "宮崎県小林市南西方８７９３－３",
      "lat": 31.978104,
      "lng": 130.895179,
      "geocoding_level": null,
      "phone": "0984-27-2668",
      "license_no": "４０４４－１－５８",
      "license_date": "2024-08-09",
      "expire_date": "2030-08-31"
    },
    {
      "name": "ＭＡＡＦＹ",
      "name_kana": "マーフィー",
      "business_type": "① 飲食店営業",
      "address": "宮崎県小林市細野１４７－２ 小磯仲町貸店舗Ｂ",
      "lat": 31.993671,
      "lng": 130.979196,
      "geocoding_level": null,
      "phone": "",
      "license_no": "４０４４－１－５９",
      "license_date": "2024-08-22",
      "expire_date": "2030-08-31"
    },
    {
      "name": "おばんざい幸",
      "name_kana": "オバンザイサチ",
      "business_type": "① 飲食店営業",
      "address": "宮崎県小林市細野１４７－２ 小磯仲町貸店舗A",
      "lat": 31.993671,
      "lng": 130.979196,
      "geocoding_level": null,
      "phone": "",
      "license_no": "４０４４－１－６４",
      "license_date": "2024-09-03",
      "expire_date": "2030-08-31"
    },
    {
      "name": "居酒屋　縁（えにし）",
      "name_kana": "イザカヤエニシ",
      "business_type": "① 飲食店営業",
      "address": "宮崎県小林市細野１５４－１",
      "lat": 31.993284,
      "lng": 130.977655,
      "geocoding_level": null,
      "phone": "0984-22-9096",
      "license_no": "４０４４－１－６１",
      "license_date": "2024-08-27",
      "expire_date": "2030-08-31"
    },