{
  "meta": {
    "updated": 1783568789,
    "sources": [
      {
        "source": "厚生労働省 食品衛生申請等システム（オープンデータ）",
        "license": "公共データ利用規約（第1.0版, PDL1.0）"
      }
    ]
  },
  "data": [
    {
      "name": "有限会社杉乃屋",
      "name_kana": "ユウゲンガイシャスギノヤ",
      "business_type": "① 飲食店営業",
      "address": "熊本県玉名郡南関町関下1553-3",
      "lat": 33.057063,
      "lng": 130.543139,
      "geocoding_level": null,
      "phone": "0968-53-2929",
      "license_no": "熊本県指令有保第食1-1-122号",
      "license_date": "2022-12-01",
      "expire_date": "2028-11-30"
    },
    {
      "name": "相谷営農グループ　やさい畑",
      "name_kana": "アイタニエイノウグループ　ヤサイバタケ",
      "business_type": "② 調理機能を有する自動販売機（要許可）",
      "address": "熊本県玉名郡南関町小原６７４－１",
      "lat": 33.043234,
      "lng": 130.569794,
      "geocoding_level": null,
      "phone": "0968533399",
      "license_no": "熊本県指令有保第食2-4号",
      "license_date": "2021-11-30",
      "expire_date": "2027-11-30"
    },
    {
      "name": "九州自動車道　玉名パーキングエリア上り",
      "name_kana": "キュウシュウジドウシャドウ　タマナパーキングエリアノボリ",
      "business_type": "② 調理機能を有する自動販売機（要許可）",
      "address": "熊本県玉名郡南関町下坂下1559-3",
      "lat": 33.014352,
      "lng": 130.583236,
      "geocoding_level": null,
      "phone": "",
      "license_no": "熊本県指令有保第食2-1号",
      "license_date": "2023-05-24",
      "expire_date": "2029-05-31"
    },
    {
      "name": "九州自動車道　玉名パーキングエリア下り",
      "name_kana": "キュウシュウジドウシャドウタマナパーキングエリアクダリ",
      "business_type": "② 調理機能を有する自動販売機（要許可）",
      "address": "熊本県玉名郡南関町下坂下三反田1635-1",
      "lat": 36.367504,
      "lng": 140.552382,
      "geocoding_level": null,
      "phone": "",
      "license_no": "熊本県指令有保第食2-2号",
      "license_date": "2023-05-31",
      "expire_date": "2029-05-31"
    },
    {
      "name": "有限会社　やさい畑",
      "name_kana": "ユウゲンガイシャ　ヤサイバタケ",
      "business_type": "① 飲食店営業",
      "address": "熊本県玉名郡南関町小原６７４－１",
      "lat": 33.04337,
      "lng": 130.569592,
      "geocoding_level": null,
      "phone": "0968533399",
      "license_no": "熊本県指令有保第食1-1-36号",
      "license_date": "2021-06-01",
      "expire_date": "2027-05-31"
    },
    {
      "name": "有限会社やさい畑",
      "name_kana": "ユウゲンガイシャヤサイバダケ",
      "business_type": "⑪ 菓子製造業",
      "address": "熊本県玉名郡南関町小原674番地の１",
      "lat": 33.043234,
      "lng": 130.569794,
      "geocoding_level": null,
      "phone": "",
      "license_no": "熊本県指令有保第食11-14号",
      "license_date": "2025-11-26",
      "expire_date": "2031-11-30"
    },
    {
      "name": "南関こどもの丘保育園",
      "name_kana": "ナンカンコドモノオカホイクエン",
      "business_type": "㉖ 集団給食施設",
      "address": "熊本県玉名郡南関町小原１８２１－１",
      "lat": 33.05106,
      "lng": 130.566107,
      "geocoding_level": null,
      "phone": "0968536668",
      "license_no": "",
      "license_date": null,
      "expire_date": null
    },
    {
      "name": "セブンーイレブン九州道玉名ＰＡ上り店",
      "name_kana": "セブンーイレブンキュウシュウドウタマナパーキングノボリテン",
      "business_type": "⑩ コンビニエンスストア",
      "address": "熊本県玉名郡南関町下坂下字四反田１５６２－３",
      "lat": 33.006119,
      "lng": 130.578813,
      "geocoding_level": null,
      "phone": "0968538660",
      "license_no": "",
      "license_date": null,
      "expire_date": null
    },
    {
      "name": "津留酒店",
      "name_kana": "ツルサケテン",
      "business_type": "⑬ その他の食料・飲料販売業",
      "address": "熊本県玉名郡南関町関町１３５５",
      "lat": 33.061911,
      "lng": 130.543643,
      "geocoding_level": null,
      "phone": "",
      "license_no": "",
      "license_date": null,
      "expire_date": null
    },
    {
      "name": "しずく屋",
      "name_kana": "シズクヤ",
      "business_type": "㉘ 露店、仮設店舗等における飲食の提供のうち、営業とみなされないもの",
      "address": "熊本県玉名郡南関町小原８８６－１ 熊本県内一円",
      "lat": 33.045146,
      "lng": 130.565501,
      "geocoding_level": null,
      "phone": "0968577695",
      "license_no": "",
      "license_date": null,
      "expire_date": null
    },
    {
      "name": "しずく屋",
      "name_kana": "シズクヤ",
      "business_type": "① 飲食店営業",
      "address": "熊本県玉名郡南関町等（熊本県下一円）",
      "lat": 32.943196,
      "lng": 130.599275,
      "geocoding_level": null,
      "phone": "",
      "license_no": "熊本県指令有保第食1-1-49号",
      "license_date": "2022-07-05",
      "expire_date": "2027-08-31"
    },
    {
      "name": "しずく屋",
      "name_kana": "シズクヤ",
      "business_type": "⑪ 菓子製造業",
      "address": "熊本県玉名郡南関町小原886-1",
      "lat": 33.045139,
      "lng": 130.565492,
      "geocoding_level": null,
      "phone": "",
      "license_no": "熊本県指令有保第食11-23号",
      "license_date": "2026-02-18",
      "expire_date": "2032-02-29"
    },
    {
      "name": "しずく屋",
      "name_kana": "シズクヤ",
      "business_type": "① 飲食店営業",
      "address": "熊本県玉名郡南関町小原886-1",
      "lat": 33.045139,
      "lng": 130.565492,
      "geocoding_level": null,
      "phone": "",
      "license_no": "熊本県指令有保第食1-1-229号",
      "license_date": "2026-02-18",
      "expire_date": "2032-02-29"
    },
    {
      "name": "ビックオーク　衣料部　フクハル　オークカフェ",
      "name_kana": "ビックオーク　イリョウブ　フクハル　オークカフェ",
      "business_type": "② 食肉販売業（包装済みの食肉のみの販売）",
      "address": "熊本県玉名郡南関町関町１４７９",
      "lat": 33.058352,
      "lng": 130.543261,
      "geocoding_level": null,
      "phone": "0968530034",
      "license_no": "",
      "license_date": null,
      "expire_date": null
    },
    {
      "name": "ビックオーク　衣料部　フクハル　オークカフェ",
      "name_kana": "ビックオーク　イリョウブ　フクハル　オークカフェ",
      "business_type": "⑬ その他の食料・飲料販売業",
      "address": "熊本県玉名郡南関町関町１４７９",
      "lat": 33.058352,
      "lng": 130.543261,
      "geocoding_level": null,
      "phone": "0968530034",
      "license_no": "",
      "license_date": null,
      "expire_date": null
    },
    {
      "name": "株式会社　丸美屋　南関工場",
      "name_kana": "カブシキガイシャ　マルミヤ　ナンカンコウジョウ",
      "business_type": "⑬ その他の食料・飲料販売業",
      "address": "熊本県玉名郡南関町豊永３９６９",
      "lat": 33.024451,
      "lng": 130.559766,
      "geocoding_level": null,
      "phone": "0968530444",
      "license_no": "",
      "license_date": null,
      "expire_date": null
    },
    {
      "name": "けんこう市場　南関店",
      "name_kana": "ケンコウイチバ　ナンカンテン",
      "business_type": "③ 乳類販売業",
      "address": "熊本県玉名郡南関町豊永３９６９",
      "lat": 33.025304,
      "lng": 130.560066,
      "geocoding_level": null,
      "phone": "0968530292",
      "license_no": "",
      "license_date": null,
      "expire_date": null
    },
    {
      "name": "けんこう市場　南関店",
      "name_kana": "ケンコウイチバ　ナンカンテン",
      "business_type": "⑬ その他の食料・飲料販売業",
      "address": "熊本県玉名郡南関町豊永３９６９",
      "lat": 33.025304,
      "lng": 130.560066,
      "geocoding_level": null,
      "phone": "0968530292",
      "license_no": "",
      "license_date": null,
      "expire_date": null
    },
    {
      "name": "関所村",
      "name_kana": "セキショムラ",
      "business_type": "③ 乳類販売業",
      "address": "熊本県玉名郡南関町上長田６５４",
      "lat": 33.02771,
      "lng": 130.530015,
      "geocoding_level": null,
      "phone": "",
      "license_no": "",
      "license_date": null,
      "expire_date": null
    },
    {
      "name": "関所村",
      "name_kana": "セキショムラ",
      "business_type": "⑬ その他の食料・飲料販売業",
      "address": "熊本県玉名郡南関町上長田６５４",
      "lat": 33.02771,
      "lng": 130.530015,
      "geocoding_level": null,
      "phone": "",
      "license_no": "",
      "license_date": null,
      "expire_date": null
    },
    {
      "name": "春夏冬",
      "name_kana": "シュンカトウ",
      "business_type": "① 飲食店営業",
      "address": "熊本県玉名郡南関町大字上長田654番地",
      "lat": 33.02771,
      "lng": 130.530015,
      "geocoding_level": null,
      "phone": "0968-53-0997",
      "license_no": "熊本県指令有保第食1-1-229号",
      "license_date": "2023-03-01",
      "expire_date": "2029-02-28"
    },
    {
      "name": "有限会社やさい畑",
      "name_kana": "ユウゲンガイシャヤサイバタケ",
      "business_type": "① 魚介類販売業（包装済みの魚介類のみの販売）",
      "address": "熊本県玉名郡南関町小原６７４番地の１",
      "lat": 33.043213,
      "lng": 130.56978,
      "geocoding_level": null,
      "phone": "0968533399",
      "license_no": "",
      "license_date": null,
      "expire_date": null
    },
    {
      "name": "有限会社やさい畑",
      "name_kana": "ユウゲンガイシャヤサイバタケ",
      "business_type": "② 食肉販売業（包装済みの食肉のみの販売）",
      "address": "熊本県玉名郡南関町小原６７４番地の１",
      "lat": 33.043213,
      "lng": 130.56978,
      "geocoding_level": null,
      "phone": "0968533399",
      "license_no": "",
      "license_date": null,
      "expire_date": null
    },
    {
      "name": "有限会社やさい畑",
      "name_kana": "ユウゲンガイシャヤサイバタケ",
      "business_type": "③ 乳類販売業",
      "address": "熊本県玉名郡南関町小原６７４番地の１",
      "lat": 33.043213,
      "lng": 130.56978,
      "geocoding_level": null,
      "phone": "0968533399",
      "license_no": "",
      "license_date": null,
      "expire_date": null
    },
    {
      "name": "有限会社やさい畑",
      "name_kana": "ユウゲンガイシャヤサイバタケ",
      "business_type": "⑦ 野菜果物販売業",
      "address": "熊本県玉名郡南関町小原６７４番地の１",
      "lat": 33.043213,
      "lng": 130.56978,
      "geocoding_level": null,
      "phone": "0968533399",
      "license_no": "",
      "license_date": null,
      "expire_date": null
    },
    {
      "name": "有限会社やさい畑",
      "name_kana": "ユウゲンガイシャヤサイバタケ",
      "business_type": "⑬ その他の食料・飲料販売業",
      "address": "熊本県玉名郡南関町小原６７４番地の１",
      "lat": 33.043213,
      "lng": 130.56978,
      "geocoding_level": null,
      "phone": "0968533399",
      "license_no": "",
      "license_date": null,
      "expire_date": null
    },
    {
      "name": "みえまる屋",
      "name_kana": "ミエマルヤ",
      "business_type": "⑬ その他の食料・飲料販売業",
      "address": "熊本県玉名郡南関町四ツ原等熊本県内一円",
      "lat": 32.999857,
      "lng": 130.540688,
      "geocoding_level": null,
      "phone": "0968578311",
      "license_no": "",
      "license_date": null,
      "expire_date": null
    },
    {
      "name": "みえまる屋",
      "name_kana": "ミエマルヤ",
      "business_type": "⑪ 菓子製造業",
      "address": "熊本県玉名郡南関町四ツ原562",
      "lat": 32.999857,
      "lng": 130.540688,
      "geocoding_level": null,
      "phone": "0968578311",
      "license_no": "熊本県指令有保第食11-24号",
      "license_date": "2026-02-18",
      "expire_date": "2032-02-29"
    },
    {
      "name": "ファミリーマート南関上坂下店",
      "name_kana": "ファミリーマートナンカンカミサカシタテン",
      "business_type": "⑩ コンビニエンスストア",
      "address": "熊本県玉名郡南関町上坂下字井手３４７２－１",
      "lat": 33.016935,
      "lng": 130.557271,
      "geocoding_level": null,
      "phone": "0968697188",
      "license_no": "",
      "license_date": null,
      "expire_date": null
    },
    {
      "name": "セブンイレブン九州道玉名ＰＡ下り店",
      "name_kana": "セブンイレブンキュウシュウドウタマナパーキングクダリテン",
      "business_type": "⑩ コンビニエンスストア",
      "address": "熊本県玉名郡南関町下坂下１６４５－１",
      "lat": 33.006119,
      "lng": 130.578813,
      "geocoding_level": null,
      "phone": "0968538661",
      "license_no": "",
      "license_date": null,
      "expire_date": null
    },
    {
      "name": "セブンイレブン南関小原店",
      "name_kana": "セブンイレブンナンカンコバルテン",
      "business_type": "⑩ コンビニエンスストア",
      "address": "熊本県玉名郡南関町小原１８１５－２",
      "lat": 33.048714,
      "lng": 130.557831,
      "geocoding_level": null,
      "phone": "0968535711",
      "license_no": "",
      "license_date": null,
      "expire_date": null
    },
    {
      "name": "セブンイレブン九州道玉名PA下り店",
      "name_kana": "セブンイレブンキュウシュウドウタマナピーエークダリテン",
      "business_type": "① 飲食店営業",
      "address": "熊本県玉名郡南関町大字下坂下1645-1",
      "lat": 33.012682,
      "lng": 130.585226,
      "geocoding_level": null,
      "phone": "0968538661",
      "license_no": "熊本県指令有保第食1-1-28号",
      "license_date": "2024-05-01",
      "expire_date": "2030-05-31"
    },
    {
      "name": "セブンイレブン南関小原店",
      "name_kana": "セブンイレブンナンカンコバルテン",
      "business_type": "① 飲食店営業",
      "address": "熊本県玉名郡南関町小原１８１５－２",
      "lat": 33.048708,
      "lng": 130.557837,
      "geocoding_level": null,
      "phone": "0968-53-5711",
      "license_no": "熊本県指令有保第食1-1-153号",
      "license_date": "2025-11-19",
      "expire_date": "2031-11-30"
    },
    {
      "name": "玉名PA上り線",
      "name_kana": "タマナピーエーノボリセン",
      "business_type": "③ 乳類販売業",
      "address": "熊本県玉名郡南関町下坂下字四反田１５５９－３",
      "lat": 33.006119,
      "lng": 130.578813,
      "geocoding_level": null,
      "phone": "0968539258",
      "license_no": "",
      "license_date": null,
      "expire_date": null
    },
    {
      "name": "玉名PA上り線",
      "name_kana": "タマナピーエーノボリセン",
      "business_type": "⑬ その他の食料・飲料販売業",
      "address": "熊本県玉名郡南関町下坂下字四反田１５５９－３",
      "lat": 33.006119,
      "lng": 130.578813,
      "geocoding_level": null,
      "phone": "0968539258",
      "license_no": "",
      "license_date": null,
      "expire_date": null
    },
    {
      "name": "玉名ＰＡ下り線",
      "name_kana": "タマナピーエークダリセン",
      "business_type": "③ 乳類販売業",
      "address": "熊本県玉名郡南関町下坂下字三反田１６３５－１",
      "lat": 33.006119,
      "lng": 130.578813,
      "geocoding_level": null,
      "phone": "0968539259",
      "license_no": "",
      "license_date": null,
      "expire_date": null
    },
    {
      "name": "玉名ＰＡ下り線",
      "name_kana": "タマナピーエークダリセン",
      "business_type": "⑬ その他の食料・飲料販売業",
      "address": "熊本県玉名郡南関町下坂下字三反田１６３５－１",
      "lat": 33.006119,
      "lng": 130.578813,
      "geocoding_level": null,
      "phone": "0968539259",
      "license_no": "",
      "license_date": null,
      "expire_date": null
    },
    {
      "name": "玉名PA下り線",
      "name_kana": "タマナピーエークダリセン",
      "business_type": "① 飲食店営業",
      "address": "熊本県玉名郡南関町下坂下三反田１６３５－１",
      "lat": 33.006119,
      "lng": 130.578813,
      "geocoding_level": null,
      "phone": "0968539259",
      "license_no": "熊本県指令有保第食1-1-63号",
      "license_date": "2021-08-06",
      "expire_date": "2027-08-31"
    },
    {
      "name": "玉名PA下り線（テイクコーナー）",
      "name_kana": "タマナピーエークダリセンテイクコーナー",
      "business_type": "① 飲食店営業",
      "address": "熊本県玉名郡南関町下坂下三反田１６３５－１",
      "lat": 33.006119,
      "lng": 130.578813,
      "geocoding_level": null,
      "phone": "0968539259",
      "license_no": "熊本県指令有保第食1-1-64号",
      "license_date": "2021-08-06",
      "expire_date": "2027-08-31"
    },
    {
      "name": "玉名PA上り線（テイクコーナー）",
      "name_kana": "タマナピーエーノボリセンテイクコーナー",
      "business_type": "① 飲食店営業",
      "address": "熊本県玉名郡南関町下坂下四反田1559-3",
      "lat": 33.006119,
      "lng": 130.578813,
      "geocoding_level": null,
      "phone": "",
      "license_no": "熊本県指令有保第食1-1-65号",
      "license_date": "2021-08-06",
      "expire_date": "2027-08-31"
    },
    {
      "name": "玉名PA上り線（玉名亭）",
      "name_kana": "タマナピーエーノボリセンタマナテイ",
      "business_type": "① 飲食店営業",
      "address": "熊本県玉名郡南関町下坂下四反田1559-3",
      "lat": 33.006119,
      "lng": 130.578813,
      "geocoding_level": null,
      "phone": "0968539258",
      "license_no": "熊本県指令有保第食1-1-66号",
      "license_date": "2021-08-06",
      "expire_date": "2027-08-31"
    },
    {
      "name": "玉名PA上り線（吉野家）",
      "name_kana": "タマナピーエーノボリセンヨシノヤ",
      "business_type": "① 飲食店営業",
      "address": "熊本県玉名郡南関町未選択四反田１５５９－３",
      "lat": 33.061625,
      "lng": 130.541207,
      "geocoding_level": null,
      "phone": "0968539258",
      "license_no": "熊本県指令有保第食1-1-67号",
      "license_date": "2021-08-06",
      "expire_date": "2027-08-31"
    },
    {
      "name": "畑の天使",
      "name_kana": "ハタケノテンシ",
      "business_type": "③ 乳類販売業",
      "address": "熊本県玉名郡南関町関町桑津留４１９－１",
      "lat": 33.069439,
      "lng": 130.547643,
      "geocoding_level": null,
      "phone": "0968530388",
      "license_no": "",
      "license_date": null,
      "expire_date": null
    },
    {
      "name": "畑の天使",
      "name_kana": "ハタケノテンシ",
      "business_type": "⑦ 野菜果物販売業",
      "address": "熊本県玉名郡南関町関町４１９－１",
      "lat": 33.069421,
      "lng": 130.547737,
      "geocoding_level": null,
      "phone": "0968532887",
      "license_no": "",
      "license_date": null,
      "expire_date": null
    },
    {
      "name": "畑の天使",
      "name_kana": "ハタケノテンシ",
      "business_type": "① 飲食店営業",
      "address": "熊本県玉名郡南関町関町桑津留４１９－１",
      "lat": 33.057199,
      "lng": 130.53942,
      "geocoding_level": null,
      "phone": "0968532887",
      "license_no": "熊本県指令有保第食1-1-169号",
      "license_date": "2025-01-29",
      "expire_date": "2031-02-28"
    },
    {
      "name": "ホテルセキア",
      "name_kana": "ホテルセキア",
      "business_type": "③ 乳類販売業",
      "address": "熊本県玉名郡南関町セキアヒルズ",
      "lat": 33.060033,
      "lng": 130.51208,
      "geocoding_level": null,
      "phone": "0968696114",
      "license_no": "",
      "license_date": null,
      "expire_date": null
    },
    {
      "name": "パン工房ＯＺＡＫＩ",
      "name_kana": "パンコウボウオザキ",
      "business_type": "③ 乳類販売業",
      "address": "熊本県玉名郡南関町小原２２１１ー１",
      "lat": 33.044302,
      "lng": 130.564096,
      "geocoding_level": null,
      "phone": "0968531885",
      "license_no": "",
      "license_date": null,
      "expire_date": null
    },
    {
      "name": "パン工房ＯＺＡＫＩ",
      "name_kana": "パンコウボウオザキ",
      "business_type": "⑪ 菓子製造業",
      "address": "熊本県玉名郡南関町小原２２１１－１",
      "lat": 33.044302,
      "lng": 130.564096,
      "geocoding_level": null,
      "phone": "0968531885",
      "license_no": "熊本県指令有保第食11-16号",
      "license_date": "2021-11-18",
      "expire_date": "2027-11-30"
    },
    {
      "name": "株式会社モロフジケミカル",
      "name_kana": "モロフジケミカル",
      "business_type": "㉗ 器具、容器包装の製造・加工業（合成樹脂が使用された器具又は容器包装の製造、加工に限る。）",
      "address": "熊本県玉名郡南関町関外目811",
      "lat": 33.080303,
      "lng": 130.542297,
      "geocoding_level": null,
      "phone": "",
      "license_no": "",
      "license_date": null,
      "expire_date": null
    },
    {
      "name": "ホテルセキア　ザ・ショップ",
      "name_kana": "ホテルセキア　ザ・ショップ",
      "business_type": "② 食肉販売業（包装済みの食肉のみの販売）",
      "address": "熊本県玉名郡南関町関村１５５６番地",
      "lat": 33.057563,
      "lng": 130.525431,
      "geocoding_level": null,
      "phone": "0968696111",
      "license_no": "",
      "license_date": null,
      "expire_date": null
    },
    {
      "name": "ホテルセキア　ザ・ショップ",
      "name_kana": "ホテルセキア　ザ・ショップ",
      "business_type": "③ 乳類販売業",
      "address": "熊本県玉名郡南関町関村１５５６番地",
      "lat": 33.057563,
      "lng": 130.525431,
      "geocoding_level": null,
      "phone": "0968696111",
      "license_no": "",
      "license_date": null,
      "expire_date": null
    },
    {
      "name": "ホテルセキア　ザ・ショップ",
      "name_kana": "ホテルセキア　ザ・ショップ",
      "business_type": "⑬ その他の食料・飲料販売業",
      "address": "熊本県玉名郡南関町関村１５５６番地",
      "lat": 33.057563,
      "lng": 130.525431,
      "geocoding_level": null,
      "phone": "0968696111",
      "license_no": "",
      "license_date": null,
      "expire_date": null
    },
    {
      "name": "ローソン玉名南関関東店",
      "name_kana": "ローソンタマナナンカンセキヒガシテン",
      "business_type": "⑩ コンビニエンスストア",
      "address": "熊本県玉名郡南関町関東８９９－１",
      "lat": 33.066118,
      "lng": 130.54917,
      "geocoding_level": null,
      "phone": "09688531363",
      "license_no": "",
      "license_date": null,
      "expire_date": null
    },
    {
      "name": "認定こども園　文化幼児園",
      "name_kana": "ニンテイコドモエン　ブンカヨウジエン",
      "business_type": "㉖ 集団給食施設",
      "address": "熊本県玉名郡南関町関下字南中山１９３３番地",
      "lat": 38.310764,
      "lng": 140.825506,
      "geocoding_level": null,
      "phone": "0968531888",
      "license_no": "",
      "license_date": null,
      "expire_date": null
    },
    {
      "name": "特別養護老人ホーム　延寿荘",
      "name_kana": "トクベツヨウゴロウジンホーム　エンジュソウ",
      "business_type": "㉖ 集団給食施設",
      "address": "熊本県玉名郡南関町小原1770番地",
      "lat": 33.047478,
      "lng": 130.5605,
      "geocoding_level": null,
      "phone": "0968342227",
      "license_no": "",
      "license_date": null,
      "expire_date": null
    },
    {
      "name": "ホテルセキア",
      "name_kana": "ホテルセキア",
      "business_type": "⑱ 調味料製造・加工業",
      "address": "熊本県玉名郡南関町関村１５５６",
      "lat": 33.057563,
      "lng": 130.525431,
      "geocoding_level": null,
      "phone": "0968696135",
      "license_no": "",
      "license_date": null,
      "expire_date": null
    },
    {
      "name": "ホテルセキア　プールサイドパラダイス",
      "name_kana": "ホテルセキア　プールサイドパラダイス",
      "business_type": "⑬ その他の食料・飲料販売業",
      "address": "熊本県玉名郡南関町関村１５５６番地",
      "lat": 33.057563,
      "lng": 130.525431,
      "geocoding_level": null,
      "phone": "0968696111",
      "license_no": "",
      "license_date": null,
      "expire_date": null
    },
    {
      "name": "南関町立南関中学校",
      "name_kana": "ナンカンチョウリツナンカンチュウガッコウ",
      "business_type": "㉙ その他",
      "address": "熊本県玉名郡南関町小原２１２１",
      "lat": 33.043126,
      "lng": 130.562257,
      "geocoding_level": null,
      "phone": "0968530005",
      "license_no": "",
      "license_date": null,
      "expire_date": null
    },
    {
      "name": "とっぱ食堂",
      "name_kana": "トッパショクドウ",
      "business_type": "㉙ その他",
      "address": "熊本県玉名郡南関町上坂下７７　南関町南集会所内",
      "lat": 33.013849,
      "lng": 130.5659,
      "geocoding_level": null,
      "phone": "0968578220",
      "license_no": "",
      "license_date": null,
      "expire_date": null
    },
    {
      "name": "南の関　うから館",
      "name_kana": "ミナミノセキ　ウカラカン",
      "business_type": "㉙ その他",
      "address": "熊本県玉名郡南関町関町1230",
      "lat": 33.057747,
      "lng": 130.540092,
      "geocoding_level": null,
      "phone": "0968696200",
      "license_no": "",
      "license_date": null,
      "expire_date": null
    },
    {
      "name": "山兆",
      "name_kana": "ヤマチョウ",
      "business_type": "㉙ 漬物製造業",
      "address": "熊本県玉名郡南関町関町３２１－３",
      "lat": 33.064877,
      "lng": 130.545398,
      "geocoding_level": null,
      "phone": "09053819223",
      "license_no": "熊本県指令有保第食29-2号",
      "license_date": "2021-10-27",
      "expire_date": "2027-11-30"
    },
    {
      "name": "末竹商店",
      "name_kana": "スエタケショウテン",
      "business_type": "⑦ 野菜果物販売業",
      "address": "熊本県玉名郡南関町関町１２８８",
      "lat": 33.059765,
      "lng": 130.540638,
      "geocoding_level": null,
      "phone": "09053932948",
      "license_no": "",
      "license_date": null,
      "expire_date": null
    },
    {
      "name": "末竹商店",
      "name_kana": "スエタケショウテン",
      "business_type": "⑬ その他の食料・飲料販売業",
      "address": "熊本県玉名郡南関町関町１２８８",
      "lat": 33.059765,
      "lng": 130.540638,
      "geocoding_level": null,
      "phone": "09053932948",
      "license_no": "",
      "license_date": null,
      "expire_date": null
    },
    {
      "name": "肉のたかむく",
      "name_kana": "ニクノタカムク",
      "business_type": "② 食肉販売業（包装済みの食肉のみの販売）",
      "address": "熊本県玉名郡南関町豊永２９９－１６",
      "lat": 33.032883,
      "lng": 130.558483,
      "geocoding_level": null,
      "phone": "0968533398",
      "license_no": "",
      "license_date": null,
      "expire_date": null
    },
    {
      "name": "認定こども園南関ひまわり幼稚園",
      "name_kana": "ニンテイコドモエンナンカンヒマワリヨウチエン",
      "business_type": "㉖ 集団給食施設",
      "address": "熊本県玉名郡南関町上坂下１３３９",
      "lat": 33.001351,
      "lng": 130.552746,
      "geocoding_level": null,
      "phone": "0968538777",
      "license_no": "",
      "license_date": null,
      "expire_date": null
    },
    {
      "name": "河野商店",
      "name_kana": "カワノショウテン",
      "business_type": "⑬ その他の食料・飲料販売業",
      "address": "熊本県玉名郡南関町小原９６３",
      "lat": 33.047927,
      "lng": 130.566316,
      "geocoding_level": null,
      "phone": "0968531812",
      "license_no": "",
      "license_date": null,
      "expire_date": null
    },
    {
      "name": "ピーターショップ花見2号店",
      "name_kana": "ピーターショップハナミニゴウテン",
      "business_type": "⑬ その他の食料・飲料販売業",
      "address": "熊本県玉名郡南関町小原１９２７－１",
      "lat": 33.05106,
      "lng": 130.566107,
      "geocoding_level": null,
      "phone": "0968533486",
      "license_no": "",
      "license_date": null,
      "expire_date": null
    },
    {
      "name": "ピーターショップ花見",
      "name_kana": "ピーターショップハナミ",
      "business_type": "⑬ その他の食料・飲料販売業",
      "address": "熊本県玉名郡南関町関町１４１０",
      "lat": 33.060059,
      "lng": 130.540786,
      "geocoding_level": null,
      "phone": "0968533136",
      "license_no": "",
      "license_date": null,
      "expire_date": null
    },
    {
      "name": "ピーター花見２号店",
      "name_kana": "ピーターハナミニゴウテン",
      "business_type": "① 飲食店営業",
      "address": "熊本県玉名郡南関町小原１９２７－１",
      "lat": 33.05106,
      "lng": 130.566107,
      "geocoding_level": null,
      "phone": "0968533136",
      "license_no": "熊本県指令有保第食1-1-168号",
      "license_date": "2025-01-29",
      "expire_date": "2031-02-28"
    },
    {
      "name": "四ケ所商店",
      "name_kana": "シカショショウテン",
      "business_type": "⑬ その他の食料・飲料販売業",
      "address": "熊本県玉名郡南関町関町１３００番地２",
      "lat": 33.060606,
      "lng": 130.540497,
      "geocoding_level": null,
      "phone": "0968530122",
      "license_no": "",
      "license_date": null,
      "expire_date": null
    },
    {
      "name": "肥後の茶屋",
      "name_kana": "ヒゴノチャヤ",
      "business_type": "⑬ その他の食料・飲料販売業",
      "address": "熊本県玉名郡南関町小原９２０－１",
      "lat": 33.045952,
      "lng": 130.564658,
      "geocoding_level": null,
      "phone": "0968533057",
      "license_no": "",
      "license_date": null,
      "expire_date": null
    },
    {
      "name": "肥後の茶屋",
      "name_kana": "ヒゴノチャヤ",
      "business_type": "① 飲食店営業",
      "address": "熊本県玉名郡南関町小原池ノ元９２０－１",
      "lat": 33.05106,
      "lng": 130.566107,
      "geocoding_level": null,
      "phone": "0968-53-3057",
      "license_no": "熊本県指令有保第食1-1-158号",
      "license_date": "2025-11-19",
      "expire_date": "2031-11-30"
    },
    {
      "name": "ビッグオーク",
      "name_kana": "ビッグオーク",
      "business_type": "⑬ その他の食料・飲料販売業",
      "address": "熊本県玉名郡南関町関町1479番地",
      "lat": 33.058352,
      "lng": 130.543261,
      "geocoding_level": null,
      "phone": "0968533300",
      "license_no": "",
      "license_date": null,
      "expire_date": null
    },
    {
      "name": "ビッグオーク",
      "name_kana": "ビッグオーク",
      "business_type": "⑬ その他の食料・飲料販売業",
      "address": "熊本県玉名郡南関町関町１４７９",
      "lat": 33.058289,
      "lng": 130.54331,
      "geocoding_level": null,
      "phone": "0968533300",
      "license_no": "",
      "license_date": null,
      "expire_date": null
    },
    {
      "name": "特産品センターなんかん（いきいき村）",
      "name_kana": "トクサンヒンセンターナンカン　イキイキムラ",
      "business_type": "② 食肉販売業（包装済みの食肉のみの販売）",
      "address": "熊本県玉名郡南関町関町桑津留419－1",
      "lat": 33.057199,
      "lng": 130.53942,
      "geocoding_level": null,
      "phone": "0968530388",
      "license_no": "",
      "license_date": null,
      "expire_date": null
    },
    {
      "name": "特産品センターなんかん（いきいき村）",
      "name_kana": "トクサンヒンセンターナンカン　イキイキムラ",
      "business_type": "⑬ その他の食料・飲料販売業",
      "address": "熊本県玉名郡南関町関町桑津留419－1",
      "lat": 33.057199,
      "lng": 130.53942,
      "geocoding_level": null,
      "phone": "0968530388",
      "license_no": "",
      "license_date": null,
      "expire_date": null
    },
    {
      "name": "特産品センターなんかん（いきいき村）",
      "name_kana": "トクサンヒンセンターナンカン　イキイキムラ",
      "business_type": "① 飲食店営業",
      "address": "熊本県玉名郡南関町関町４１９－１",
      "lat": 33.069421,
      "lng": 130.547737,
      "geocoding_level": null,
      "phone": "0968-53-0388",
      "license_no": "熊本県指令有保第食1-1-61号",
      "license_date": "2022-08-05",
      "expire_date": "2028-08-31"
    },
    {
      "name": "特産品センターなんかん（いきいき村）",
      "name_kana": "トクサンヒンセンターナンカン　イキイキムラ",
      "business_type": "㉔ 麺類製造業",
      "address": "熊本県玉名郡南関町関町419－１",
      "lat": 33.069421,
      "lng": 130.547737,
      "geocoding_level": null,
      "phone": "0968-53-0388",
      "license_no": "熊本県指令有保第食24-1号",
      "license_date": "2022-08-05",
      "expire_date": "2028-08-31"
    },
    {
      "name": "特産品センターなんかん（いきいき村）",
      "name_kana": "トクサンヒンセンターナンカン　イキイキムラ",
      "business_type": "⑪ 菓子製造業",
      "address": "熊本県玉名郡南関町関町４１９－１",
      "lat": 33.069421,
      "lng": 130.547737,
      "geocoding_level": null,
      "phone": "0968-53-0388",
      "license_no": "熊本県指令有保第食11-9号",
      "license_date": "2022-08-05",
      "expire_date": "2028-08-31"
    },
    {
      "name": "特産品センターなんかん（いきいき村）",
      "name_kana": "トクサンヒンセンター　イキイキムラ",
      "business_type": "③ 食肉販売業",
      "address": "熊本県玉名郡南関町関町419-1",
      "lat": 33.069421,
      "lng": 130.547737,
      "geocoding_level": null,
      "phone": "0968-53-0388",
      "license_no": "熊本県指令有保第食3-6号",
      "license_date": "2022-08-05",
      "expire_date": "2028-08-31"
    },
    {
      "name": "特産品センターなんかん　いきいき村",
      "name_kana": "トクサンヒンセンターナンカンイキイキムラ",
      "business_type": "㉒ 豆腐製造業",
      "address": "熊本県玉名郡南関町関町419-1",
      "lat": 33.069439,
      "lng": 130.547643,
      "geocoding_level": null,
      "phone": "0968530388",
      "license_no": "熊本県指令有保第食22-1号",
      "license_date": "2023-07-31",
      "expire_date": "2029-08-31"
    },
    {
      "name": "特産品センターなんかん　お食事処いきいき",
      "name_kana": "トクサンヒンセンターナンカンオショクジドコロイキイキ",
      "business_type": "① 飲食店営業",
      "address": "熊本県玉名郡南関町関町419-1",
      "lat": 33.069421,
      "lng": 130.547737,
      "geocoding_level": null,
      "phone": "",
      "license_no": "熊本県指令有保第食1-1-70号",
      "license_date": "2023-07-31",
      "expire_date": "2029-08-31"
    },
    {
      "name": "特産品センターなんかんいきいき村　惣菜",
      "name_kana": "トクサンヒンセンターナンカンイキイキムラソウザイ",
      "business_type": "① 飲食店営業",
      "address": "熊本県玉名郡南関町関町419-1",
      "lat": 33.069421,
      "lng": 130.547737,
      "geocoding_level": null,
      "phone": "",
      "license_no": "熊本県指令有保第食1-1-71号",
      "license_date": "2023-07-31",
      "expire_date": "2029-08-31"
    },
    {
      "name": "特産品センターなんかん　いきいき村",
      "name_kana": "トクサンヒンセンターナンカン　イキイキムラ",
      "business_type": "⑯ 水産製品製造業",
      "address": "熊本県玉名郡南関町関町419-1",
      "lat": 33.069421,
      "lng": 130.547737,
      "geocoding_level": null,
      "phone": "0968-53-0388",
      "license_no": "熊本県指令有保第食16-3号",
      "license_date": "2024-05-20",
      "expire_date": "2030-05-31"
    },
    {
      "name": "南関町学校給食センター",
      "name_kana": "ナンカンマチガッコウキュウショクセンター",
      "business_type": "㉖ 集団給食施設",
      "address": "熊本県玉名郡南関町上坂下３５４１番地",
      "lat": 33.015781,
      "lng": 130.561092,
      "geocoding_level": null,
      "phone": "0968538945",
      "license_no": "",
      "license_date": null,
      "expire_date": null
    },
    {
      "name": "やさい村",
      "name_kana": "ヤサイムラ",
      "business_type": "⑦ 野菜果物販売業",
      "address": "熊本県玉名郡南関町関下1930",
      "lat": 33.052907,
      "lng": 130.552594,
      "geocoding_level": null,
      "phone": "",
      "license_no": "",
      "license_date": null,
      "expire_date": null
    },
    {
      "name": "やさい村",
      "name_kana": "ヤサイムラ",
      "business_type": "⑬ その他の食料・飲料販売業",
      "address": "熊本県玉名郡南関町関下1930",
      "lat": 33.052907,
      "lng": 130.552594,
      "geocoding_level": null,
      "phone": "",
      "license_no": "",
      "license_date": null,
      "expire_date": null
    },
    {
      "name": "マルシマ",
      "name_kana": "マルシマ",
      "business_type": "㉙ 漬物製造業",
      "address": "熊本県玉名郡南関町関村９６９",
      "lat": 33.055402,
      "lng": 130.531438,
      "geocoding_level": null,
      "phone": "0968531882",
      "license_no": "熊本県指令有保第食29-6号",
      "license_date": "2021-11-19",
      "expire_date": "2027-11-30"
    },
    {
      "name": "文屋",
      "name_kana": "フミヤ",
      "business_type": "㉙ 漬物製造業",
      "address": "熊本県玉名郡南関町関村１００６",
      "lat": 33.05536,
      "lng": 130.533396,
      "geocoding_level": null,
      "phone": "08052461348",
      "license_no": "熊本県指令有保第食29-7号",
      "license_date": "2021-11-18",
      "expire_date": "2027-11-30"
    },
    {
      "name": "静子工房",
      "name_kana": "シズココウボウ",
      "business_type": "㉙ 漬物製造業",
      "address": "熊本県玉名郡南関町小原２２６８",
      "lat": 33.044148,
      "lng": 130.564942,
      "geocoding_level": null,
      "phone": "09036628426",
      "license_no": "熊本県指令有保第食29-8号",
      "license_date": "2021-11-19",
      "expire_date": "2027-11-30"
    },
    {
      "name": "静子工房",
      "name_kana": "シズココウボウ",
      "business_type": "⑰ 農産保存食料品製造・加工業",
      "address": "熊本県玉名郡南関町小原２２６８",
      "lat": 33.039062,
      "lng": 130.562572,
      "geocoding_level": null,
      "phone": "",
      "license_no": "",
      "license_date": null,
      "expire_date": null
    },
    {
      "name": "マルシェ•オ•パン",
      "name_kana": "マルシェ　オ　パン",
      "business_type": "⑬ その他の食料・飲料販売業",
      "address": "熊本県玉名郡南関町久重14 ヤマチク第ニ工場内",
      "lat": 33.046535,
      "lng": 130.52675,
      "geocoding_level": null,
      "phone": "",
      "license_no": "",
      "license_date": null,
      "expire_date": null
    },
    {
      "name": "緒方商店",
      "name_kana": "オガタショウテン",
      "business_type": "⑬ その他の食料・飲料販売業",
      "address": "熊本県玉名郡南関町関町１４１５",
      "lat": 33.060231,
      "lng": 130.541285,
      "geocoding_level": null,
      "phone": "0968530010",
      "license_no": "",
      "license_date": null,
      "expire_date": null
    },
    {
      "name": "株式会社橋本製菓",
      "name_kana": "カブシキカイシャハシモトセイカ",
      "business_type": "⑬ その他の食料・飲料販売業",
      "address": "熊本県玉名郡南関町大字関町１５６７",
      "lat": 33.063718,
      "lng": 130.545773,
      "geocoding_level": null,
      "phone": "0968530522",
      "license_no": "",
      "license_date": null,
      "expire_date": null
    },
    {
      "name": "株式会社橋本製菓",
      "name_kana": "カブシキカイシャハシモトセイカ",
      "business_type": "⑪ 菓子製造業",
      "address": "熊本県玉名郡南関町大字関町1567",
      "lat": 33.058812,
      "lng": 130.545345,
      "geocoding_level": null,
      "phone": "0968530522",
      "license_no": "熊本県指令有保第食11-9号",
      "license_date": "2023-08-04",
      "expire_date": "2029-08-31"
    },
    {
      "name": "お菓子のキタハラ",
      "name_kana": "オカシノキタハラ",
      "business_type": "⑬ その他の食料・飲料販売業",
      "address": "熊本県玉名郡南関町関町１４７９ビッグオーク内",
      "lat": 33.058304,
      "lng": 130.543268,
      "geocoding_level": null,
      "phone": "0968532876",
      "license_no": "",
      "license_date": null,
      "expire_date": null
    },
    {
      "name": "レストラン　松風",
      "name_kana": "レストラン　マツカゼ",
      "business_type": "⑬ その他の食料・飲料販売業",
      "address": "熊本県玉名郡南関町関町１４９８－４",
      "lat": 33.058878,
      "lng": 130.544317,
      "geocoding_level": null,
      "phone": "0968530273",
      "license_no": "",
      "license_date": null,
      "expire_date": null
    },
    {
      "name": "レストラン松風",
      "name_kana": "レストランマツカゼ",
      "business_type": "① 飲食店営業",
      "address": "熊本県玉名郡南関町関町１４９８－４",
      "lat": 33.058878,
      "lng": 130.544317,
      "geocoding_level": null,
      "phone": "0968-53-0273",
      "license_no": "熊本県指令有保第食1-1-152号",
      "license_date": "2025-11-21",
      "expire_date": "2031-11-30"
    },
    {
      "name": "特産品センターなんかん（いきいき村）",
      "name_kana": "トクサンヒンセンターナンカン　イキイキムラ",
      "business_type": "㉙ 漬物製造業",
      "address": "熊本県玉名郡南関町関町４１９－１",
      "lat": 33.069421,
      "lng": 130.547737,
      "geocoding_level": null,
      "phone": "0968-53-0388",
      "license_no": "熊本県指令有保第食29-9号",
      "license_date": "2022-02-14",
      "expire_date": "2028-02-28"
    },
    {
      "name": "畑の天使",
      "name_kana": "ハタケノテンシ",
      "business_type": "㉙ 漬物製造業",
      "address": "熊本県玉名郡南関町関町桑津留４１９－１",
      "lat": 33.057199,
      "lng": 130.53942,
      "geocoding_level": null,
      "phone": "0968-53-2887",
      "license_no": "熊本県指令有保第食29-12号",
      "license_date": "2022-02-14",
      "expire_date": "2028-02-28"
    },
    {
      "name": "畑の天使",
      "name_kana": "ハタケノテンシ",
      "business_type": "⑪ 菓子製造業",
      "address": "熊本県玉名郡南関町関町419-1",
      "lat": 33.069421,
      "lng": 130.547737,
      "geocoding_level": null,
      "phone": "",
      "license_no": "熊本県指令有保第食11-8号",
      "license_date": "2023-08-04",
      "expire_date": "2029-08-31"
    },
    {
      "name": "畑の天使",
      "name_kana": "ハタケノテンシ",
      "business_type": "① 飲食店営業",
      "address": "熊本県玉名郡南関町関町419-1",
      "lat": 33.069421,
      "lng": 130.547737,
      "geocoding_level": null,
      "phone": "",
      "license_no": "熊本県指令有保第食1-1-77号",
      "license_date": "2023-08-04",
      "expire_date": "2029-08-31"
    },
    {
      "name": "畑の天使",
      "name_kana": "ハタケノテンシ",
      "business_type": "⑪ 菓子製造業",
      "address": "熊本県玉名郡南関町関町桑津留419-1",
      "lat": 33.057199,
      "lng": 130.53942,
      "geocoding_level": null,
      "phone": "0968-53-2887",
      "license_no": "熊本県指令有保第食11-21号",
      "license_date": "2025-02-05",
      "expire_date": "2031-02-28"
    },
    {
      "name": "ふる里手づくり惣菜",
      "name_kana": "フルサトテヅクリソウザイ",
      "business_type": "㉕ そうざい製造業",
      "address": "熊本県玉名郡南関町豊永4050",
      "lat": 33.032883,
      "lng": 130.558483,
      "geocoding_level": null,
      "phone": "0968-53-1157",
      "license_no": "熊本県指令有保第食25-13号",
      "license_date": "2022-03-23",
      "expire_date": "2028-05-31"
    },
    {
      "name": "デイサポートひまわり",
      "name_kana": "デイサポートヒマワリ",
      "business_type": "㉖ 集団給食施設",
      "address": "熊本県玉名郡南関町上坂下３０番地１",
      "lat": 33.014386,
      "lng": 130.553941,
      "geocoding_level": null,
      "phone": "0968577977",
      "license_no": "",
      "license_date": null,
      "expire_date": null
    },
    {
      "name": "麦の花",
      "name_kana": "ムギノハナ",
      "business_type": "⑬ その他の食料・飲料販売業",
      "address": "熊本県玉名郡南関町小原１８９０－１",
      "lat": 33.05106,
      "lng": 130.566107,
      "geocoding_level": null,
      "phone": "0968699585",
      "license_no": "",
      "license_date": null,
      "expire_date": null
    },
    {
      "name": "麦の花",
      "name_kana": "ムギノハナ",
      "business_type": "① 飲食店営業",
      "address": "熊本県玉名郡南関町小原１８９０－１",
      "lat": 33.05106,
      "lng": 130.566107,
      "geocoding_level": null,
      "phone": "0968-69-9585",
      "license_no": "熊本県指令有保第食1-1-147号",
      "license_date": "2025-11-21",
      "expire_date": "2031-11-30"
    },
    {
      "name": "カフェレストランmoto２",
      "name_kana": "カフェレストランモトツー",
      "business_type": "① 飲食店営業",
      "address": "熊本県玉名郡南関町小原１８７８－１",
      "lat": 33.049385,
      "lng": 130.557066,
      "geocoding_level": null,
      "phone": "０９６８５７８９２０",
      "license_no": "熊本県指令有保第食1-1-32号",
      "license_date": "2025-05-12",
      "expire_date": "2031-05-31"
    },
    {
      "name": "塩山食品株式会社",
      "name_kana": "シオヤマショクヒンカブシキガイシャ",
      "business_type": "㉒ 豆腐製造業",
      "address": "熊本県玉名郡南関町小原32-2",
      "lat": 33.04319,
      "lng": 130.572186,
      "geocoding_level": null,
      "phone": "0968530154",
      "license_no": "熊本県指令有保第食22-1号",
      "license_date": "2022-04-28",
      "expire_date": "2028-05-31"
    },
    {
      "name": "熊本工機(株)",
      "name_kana": "クマモトコウキカブ",
      "business_type": "⑤ コップ式自動販売機（自動洗浄・屋内設置）",
      "address": "熊本県玉名郡南関町四ッ原1280",
      "lat": 33.059858,
      "lng": 130.542726,
      "geocoding_level": null,
      "phone": "0968-53-9101",
      "license_no": "",
      "license_date": null,
      "expire_date": null
    },
    {
      "name": "焼鳥宗章",
      "name_kana": "ヤキトリソウショウ",
      "business_type": "① 飲食店営業",
      "address": "熊本県玉名郡南関町等（熊本県下一円）熊本480ひ7636",
      "lat": 32.943196,
      "lng": 130.599275,
      "geocoding_level": null,
      "phone": "",
      "license_no": "熊本県指令有保第食1-1-17号",
      "license_date": "2022-05-02",
      "expire_date": "2027-05-31"
    },
    {
      "name": "肴屋食堂　マルタカ",
      "name_kana": "サカナヤショクドウ　マルタカ",
      "business_type": "① 飲食店営業",
      "address": "熊本県玉名郡南関町下坂下116",
      "lat": 33.015359,
      "lng": 130.561719,
      "geocoding_level": null,
      "phone": "07054172976",
      "license_no": "熊本県指令有保第食1-1-41号",
      "license_date": "2022-06-03",
      "expire_date": "2028-08-31"
    },
    {
      "name": "功堂",
      "name_kana": "イサオドウ",
      "business_type": "① 飲食店営業",
      "address": "熊本県玉名郡南関町関東916-3",
      "lat": 33.067511,
      "lng": 130.548613,
      "geocoding_level": null,
      "phone": "0968536374",
      "license_no": "熊本県指令有保第食1-1-48号",
      "license_date": "2022-07-01",
      "expire_date": "2028-08-31"
    },
    {
      "name": "竹製麺所",
      "name_kana": "タケセイメンショ",
      "business_type": "㉔ 麺類製造業",
      "address": "熊本県玉名郡南関町関町1435",
      "lat": 33.05914,
      "lng": 130.541532,
      "geocoding_level": null,
      "phone": "0968-53-0107",
      "license_no": "熊本県指令有保第食24-2号",
      "license_date": "2022-08-05",
      "expire_date": "2028-08-31"
    },
    {
      "name": "株式会社髙口商店",
      "name_kana": "カブシキガイシャコウグチショウテン",
      "business_type": "② 食肉販売業（包装済みの食肉のみの販売）",
      "address": "熊本県玉名郡南関町相谷1056番地1",
      "lat": 33.041621,
      "lng": 130.582246,
      "geocoding_level": null,
      "phone": "0968532230",
      "license_no": "",
      "license_date": null,
      "expire_date": null
    },
    {
      "name": "株式会社髙口商店",
      "name_kana": "カブシキガイシャコウグチショウテン",
      "business_type": "③ 乳類販売業",
      "address": "熊本県玉名郡南関町相谷1056番地1",
      "lat": 33.041621,
      "lng": 130.582246,
      "geocoding_level": null,
      "phone": "0968532230",
      "license_no": "",
      "license_date": null,
      "expire_date": null
    },
    {
      "name": "株式会社髙口商店",
      "name_kana": "カブシキガイシャコウグチショウテン",
      "business_type": "⑦ 野菜果物販売業",
      "address": "熊本県玉名郡南関町相谷1056番地1",
      "lat": 33.041621,
      "lng": 130.582246,
      "geocoding_level": null,
      "phone": "0968532230",
      "license_no": "",
      "license_date": null,
      "expire_date": null
    },
    {
      "name": "株式会社髙口商店",
      "name_kana": "カブシキガイシャコウグチショウテン",
      "business_type": "⑬ その他の食料・飲料販売業",
      "address": "熊本県玉名郡南関町相谷1056番地1",
      "lat": 33.041621,
      "lng": 130.582246,
      "geocoding_level": null,
      "phone": "0968532230",
      "license_no": "",
      "license_date": null,
      "expire_date": null
    },
    {
      "name": "株式会社髙口商店",
      "name_kana": "カブシキガイシャコウグチショウテン",
      "business_type": "④ 魚介類販売業",
      "address": "熊本県玉名郡南関町相谷1056番地1",
      "lat": 33.041621,
      "lng": 130.582246,
      "geocoding_level": null,
      "phone": "0968532230",
      "license_no": "熊本県指令有保第食4-4号",
      "license_date": "2022-10-24",
      "expire_date": "2028-11-30"
    },
    {
      "name": "坂口製麺所",
      "name_kana": "サカグチセイメンショ",
      "business_type": "㉔ 麺類製造業",
      "address": "熊本県玉名郡南関町関村1017",
      "lat": 33.057563,
      "lng": 130.525431,
      "geocoding_level": null,
      "phone": "",
      "license_no": "熊本県指令有保第食24-3号",
      "license_date": "2022-12-01",
      "expire_date": "2028-11-30"
    },
    {
      "name": "綾田製麺所",
      "name_kana": "アヤタセイメンジョ",
      "business_type": "㉔ 麺類製造業",
      "address": "熊本県玉名郡南関町関村1140",
      "lat": 33.059276,
      "lng": 130.53745,
      "geocoding_level": null,
      "phone": "",
      "license_no": "熊本県指令有保第食24-4号",
      "license_date": "2022-12-01",
      "expire_date": "2028-11-30"
    },
    {
      "name": "BAUL",
      "name_kana": "バウル",
      "business_type": "① 飲食店営業",
      "address": "熊本県玉名郡南関町関村1384番地",
      "lat": 33.057563,
      "lng": 130.525431,
      "geocoding_level": null,
      "phone": "",
      "license_no": "熊本県指令有保第食1-1-170号",
      "license_date": "2022-11-02",
      "expire_date": "2028-11-30"
    },
    {
      "name": "BAUL",
      "name_kana": "バウル",
      "business_type": "⑪ 菓子製造業",
      "address": "熊本県玉名郡南関町関村1384番地",
      "lat": 33.057563,
      "lng": 130.525431,
      "geocoding_level": null,
      "phone": "",
      "license_no": "熊本県指令有保第食11-26号",
      "license_date": "2022-11-02",
      "expire_date": "2028-11-30"
    },
    {
      "name": "アロエの森",
      "name_kana": "アロエノモリ",
      "business_type": "① 飲食店営業",
      "address": "熊本県玉名郡南関町宮尾1357-113",
      "lat": 33.001111,
      "lng": 130.525431,
      "geocoding_level": null,
      "phone": "",
      "license_no": "熊本県指令有保第食1-1-213号",
      "license_date": "2023-03-01",
      "expire_date": "2029-02-28"
    },
    {
      "name": "まつお製麺",
      "name_kana": "マツオセイメン",
      "business_type": "㉔ 麺類製造業",
      "address": "熊本県玉名郡南関町上長田666-14",
      "lat": 33.026962,
      "lng": 130.529613,
      "geocoding_level": null,
      "phone": "0968-53-3771",
      "license_no": "熊本県指令有保第食24-8号",
      "license_date": "2023-03-01",
      "expire_date": "2029-02-28"
    },
    {
      "name": "田中製麺所",
      "name_kana": "タナカセイメンジョ",
      "business_type": "㉔ 麺類製造業",
      "address": "熊本県玉名郡南関町関東1134-1",
      "lat": 33.069865,
      "lng": 130.566107,
      "geocoding_level": null,
      "phone": "0968-53-0668",
      "license_no": "熊本県指令有保第食24-9号",
      "license_date": "2023-03-01",
      "expire_date": "2029-02-28"
    },
    {
      "name": "パン工房　モントレゾー",
      "name_kana": "パンコウボウ　モントレゾー",
      "business_type": "⑪ 菓子製造業",
      "address": "熊本県玉名郡南関町大字宮尾753-2",
      "lat": 33.011979,
      "lng": 130.520638,
      "geocoding_level": null,
      "phone": "0968-82-8800",
      "license_no": "熊本県指令有保第食11-38号",
      "license_date": "2023-03-01",
      "expire_date": "2029-02-28"
    },
    {
      "name": "南関町加工品開発センター",
      "name_kana": "ナンカンマチカコウヒンカイハツセンター",
      "business_type": "㉙ 漬物製造業",
      "address": "熊本県玉名郡南関町関町454-1",
      "lat": 33.063718,
      "lng": 130.545773,
      "geocoding_level": null,
      "phone": "",
      "license_no": "熊本県指令有保第食29-2号",
      "license_date": "2023-05-17",
      "expire_date": "2029-05-31"
    },
    {
      "name": "南関町加工品開発センター",
      "name_kana": "ナンカンマチカコウヒンカイハツセンター",
      "business_type": "㉕ そうざい製造業",
      "address": "熊本県玉名郡南関町関町454-1",
      "lat": 33.063718,
      "lng": 130.545773,
      "geocoding_level": null,
      "phone": "0968-57-7533",
      "license_no": "熊本県指令有保第食25-2号",
      "license_date": "2024-04-26",
      "expire_date": "2030-05-31"
    },
    {
      "name": "南関町加工品開発センター",
      "name_kana": "ナンカンマチカコウヒンンカイハツセンター",
      "business_type": "⑳ みそ又はしょうゆ製造業",
      "address": "熊本県玉名郡南関町関町454-1",
      "lat": 33.063718,
      "lng": 130.545773,
      "geocoding_level": null,
      "phone": "",
      "license_no": "熊本県指令有保第食20-1号",
      "license_date": "2024-04-26",
      "expire_date": "2030-05-31"
    },
    {
      "name": "南関町加工品開発センター",
      "name_kana": "ナンカンマチカコウヒンカイハツセンター",
      "business_type": "㉔ その他の食料品製造・加工業",
      "address": "熊本県玉名郡南関町関町454-1",
      "lat": 33.063718,
      "lng": 130.545773,
      "geocoding_level": null,
      "phone": "0968577533",
      "license_no": "",
      "license_date": null,
      "expire_date": null
    },
    {
      "name": "Daily dish 案山子",
      "name_kana": "デイリーディッシュカカシ",
      "business_type": "① 飲食店営業",
      "address": "熊本県玉名郡南関町上坂下3467-1",
      "lat": 33.017299,
      "lng": 130.557817,
      "geocoding_level": null,
      "phone": "09083920393",
      "license_no": "熊本県指令有保第食1-1-69号",
      "license_date": "2023-07-31",
      "expire_date": "2029-08-31"
    },
    {
      "name": "Daily dish 案山子",
      "name_kana": "デイリーディッシュカカシ",
      "business_type": "㉕ そうざい製造業",
      "address": "熊本県玉名郡南関町上坂下3467-1",
      "lat": 33.017299,
      "lng": 130.557817,
      "geocoding_level": null,
      "phone": "",
      "license_no": "熊本県指令有保第食25-5号",
      "license_date": "2023-07-31",
      "expire_date": "2029-08-31"
    },
    {
      "name": "猿渡製麺所",
      "name_kana": "サルワタリセイメンジョ",
      "business_type": "㉔ 麺類製造業",
      "address": "熊本県玉名郡南関町下坂下2889-1",
      "lat": 33.0103,
      "lng": 130.571519,
      "geocoding_level": null,
      "phone": "",
      "license_no": "熊本県指令有保第食24-1号",
      "license_date": "2023-08-04",
      "expire_date": "2029-08-31"
    },
    {
      "name": "石窯pizza Kapok",
      "name_kana": "イシガマピザカポック",
      "business_type": "① 飲食店営業",
      "address": "熊本県玉名郡南関町宮尾340-4",
      "lat": 33.002614,
      "lng": 130.522192,
      "geocoding_level": null,
      "phone": "",
      "license_no": "熊本県指令有保第食1-1-74号",
      "license_date": "2023-08-04",
      "expire_date": "2029-08-31"
    },
    {
      "name": "エーム5721",
      "name_kana": "エームゴーナナニーイチ",
      "business_type": "① 飲食店営業",
      "address": "熊本県玉名郡南関町肥猪４０００－１",
      "lat": 33.021485,
      "lng": 130.593293,
      "geocoding_level": null,
      "phone": "",
      "license_no": "熊本県指令有保第食1-1-61号",
      "license_date": "2025-07-04",
      "expire_date": "2031-08-31"
    },
    {
      "name": "ＩＪＯＯＺ自動販売機　いきいき村",
      "name_kana": "アイジュースジドウハンバイキ　イキイキムラ",
      "business_type": "② 調理機能を有する自動販売機（要許可）",
      "address": "熊本県玉名郡南関町関町４１９－１",
      "lat": 33.069439,
      "lng": 130.547643,
      "geocoding_level": null,
      "phone": "",
      "license_no": "熊本県指令有保第食2-4号",
      "license_date": "2024-12-02",
      "expire_date": "2031-02-28"
    },
    {
      "name": "お茶の芳香園",
      "name_kana": "オチャノホウコウエン",
      "business_type": "㉕ 行商",
      "address": "熊本県玉名郡南関町等　熊本県内一円",
      "lat": 33.061625,
      "lng": 130.541207,
      "geocoding_level": null,
      "phone": "",
      "license_no": "",
      "license_date": null,
      "expire_date": null
    },
    {
      "name": "拝啓",
      "name_kana": "ハイケイ",
      "business_type": "① 飲食店営業",
      "address": "熊本県玉名郡南関町久重14（ヤマチク第２工場敷地内）",
      "lat": 33.046552,
      "lng": 130.526762,
      "geocoding_level": null,
      "phone": "0968533004",
      "license_no": "熊本県指令有保第食1-1-145号",
      "license_date": "2023-10-31",
      "expire_date": "2029-11-30"
    },
    {
      "name": "勝",
      "name_kana": "マルカツ",
      "business_type": "㉙ 漬物製造業",
      "address": "熊本県玉名郡南関町相谷2112番地",
      "lat": 33.045092,
      "lng": 130.581354,
      "geocoding_level": null,
      "phone": "0968530618",
      "license_no": "熊本県指令有保第食29-3号",
      "license_date": "2023-11-01",
      "expire_date": "2029-11-30"
    },
    {
      "name": "みよし",
      "name_kana": "ミヨシ",
      "business_type": "㉕ そうざい製造業",
      "address": "熊本県玉名郡南関町大字関外目1483",
      "lat": 33.077823,
      "lng": 130.545773,
      "geocoding_level": null,
      "phone": "09050244495",
      "license_no": "熊本県指令有保第食25-7号",
      "license_date": "2023-11-17",
      "expire_date": "2029-11-30"
    },
    {
      "name": "有限会社古賀商店",
      "name_kana": "ユウゲンカイシャコガショウテン",
      "business_type": "⑧ 米穀類販売業",
      "address": "熊本県玉名郡南関町関町1280",
      "lat": 33.059042,
      "lng": 130.541108,
      "geocoding_level": null,
      "phone": "0968530026",
      "license_no": "",
      "license_date": null,
      "expire_date": null
    },
    {
      "name": "セブンイレブン　九州道玉名PA上り店",
      "name_kana": "セブンイレブン　キュウシュウドウタマナパーキングエリアノボリテン",
      "business_type": "① 飲食店営業",
      "address": "熊本県玉名郡南関町大字下坂下字四反田1562-3",
      "lat": 33.006119,
      "lng": 130.578813,
      "geocoding_level": null,
      "phone": "0968-53-8660",
      "license_no": "熊本県指令有保第食1-1-9号",
      "license_date": "2024-04-24",
      "expire_date": "2030-05-31"
    },
    {
      "name": "さちあれ",
      "name_kana": "サチアレ",
      "business_type": "⑪ 菓子製造業",
      "address": "熊本県玉名郡南関町四ツ原562",
      "lat": 33.00665,
      "lng": 130.544045,
      "geocoding_level": null,
      "phone": "",
      "license_no": "熊本県指令有保第食11-16号",
      "license_date": "2024-01-24",
      "expire_date": "2030-02-28"
    },
    {
      "name": "三日月",
      "name_kana": "ミカヅキ",
      "business_type": "⑬ その他の食料・飲料販売業",
      "address": "熊本県玉名郡南関町久重330",
      "lat": 33.041655,
      "lng": 130.524857,
      "geocoding_level": null,
      "phone": "0968-53-3004",
      "license_no": "",
      "license_date": null,
      "expire_date": null
    },
    {
      "name": "三日月",
      "name_kana": "ミカヅキ",
      "business_type": "⑬ その他の食料・飲料販売業",
      "address": "熊本県玉名郡南関町関町1316 南関町役場駐車場",
      "lat": 33.061628,
      "lng": 130.541173,
      "geocoding_level": null,
      "phone": "0968531111",
      "license_no": "",
      "license_date": null,
      "expire_date": null
    },
    {
      "name": "有限会社　野口食品　南関工場",
      "name_kana": "ユウゲンガイシャ　ノグチショクヒン　ナンカンコウジョウ",
      "business_type": "㉔ その他の食料品製造・加工業",
      "address": "熊本県玉名郡南関町関東1066-1",
      "lat": 33.069865,
      "lng": 130.566107,
      "geocoding_level": null,
      "phone": "",
      "license_no": "",
      "license_date": null,
      "expire_date": null
    },
    {
      "name": "十割そば　関庵",
      "name_kana": "ジュウワリソバ　セキアン",
      "business_type": "① 飲食店営業",
      "address": "熊本県玉名郡南関町関外目293-2",
      "lat": 33.070858,
      "lng": 130.547382,
      "geocoding_level": null,
      "phone": "0968-57-8747",
      "license_no": "熊本県指令有保第食1-1-10号",
      "license_date": "2024-04-24",
      "expire_date": "2030-05-31"
    },
    {
      "name": "はしもとキッチン",
      "name_kana": "ハシモトキッチン",
      "business_type": "⑪ 菓子製造業",
      "address": "熊本県玉名郡南関町豊永4897-11",
      "lat": 33.040095,
      "lng": 130.55853,
      "geocoding_level": null,
      "phone": "0968-53-1887",
      "license_no": "熊本県指令有保第食11-2号",
      "license_date": "2024-04-26",
      "expire_date": "2030-05-31"
    },
    {
      "name": "山荘やまひこ",
      "name_kana": "サンソウヤマヒコ",
      "business_type": "① 飲食店営業",
      "address": "熊本県玉名郡南関町長山1409",
      "lat": 33.025798,
      "lng": 130.518148,
      "geocoding_level": null,
      "phone": "0968-53-3355",
      "license_no": "熊本県指令有保第食1-1-35号",
      "license_date": "2024-05-20",
      "expire_date": "2030-05-31"
    },
    {
      "name": "SS生活彩家　荏原製作所　熊本店",
      "name_kana": "セイカツサイカ　エバラセイサクショ　クマモトテン",
      "business_type": "① 飲食店営業",
      "address": "熊本県玉名郡南関町肥猪4000-1 荏原製作所熊本事業所内",
      "lat": 33.021485,
      "lng": 130.593293,
      "geocoding_level": null,
      "phone": "0968-53-5111",
      "license_no": "熊本県指令有保第食1-1-38号",
      "license_date": "2024-05-24",
      "expire_date": "2030-05-31"
    },
    {
      "name": "SS生活彩家　荏原製作所熊本店",
      "name_kana": "セイカツサイカ　エバラセイサクショクマモトテン",
      "business_type": "⑩ コンビニエンスストア",
      "address": "熊本県玉名郡南関町肥猪4000-1",
      "lat": 33.021485,
      "lng": 130.593293,
      "geocoding_level": null,
      "phone": "0968-53-5111",
      "license_no": "",
      "license_date": null,
      "expire_date": null
    },
    {
      "name": "生活彩家　荏原製作所熊本店",
      "name_kana": "セイカツサイカ　エバラセイサクショクマモトテン",
      "business_type": "① 飲食店営業",
      "address": "熊本県玉名郡南関町肥猪4000-1 荏原製作所熊本事業所",
      "lat": 33.021485,
      "lng": 130.593293,
      "geocoding_level": null,
      "phone": "0968-53-5111",
      "license_no": "熊本県指令有保第食1-1-263号",
      "license_date": "2026-03-25",
      "expire_date": "2032-05-31"
    },
    {
      "name": "生活彩家　荏原製作所熊本店",
      "name_kana": "セイカツサイカ　エバラセイサクショクマモトテン",
      "business_type": "⑩ コンビニエンスストア",
      "address": "熊本県玉名郡南関町肥猪4000-1 株式会社荏原製作所　熊本事業所",
      "lat": 33.021485,
      "lng": 130.593293,
      "geocoding_level": null,
      "phone": "0968-53-5111",
      "license_no": "",
      "license_date": null,
      "expire_date": null
    },
    {
      "name": "株式会社モロフジケミカル",
      "name_kana": "カブシキガイシャモロフジケミカル",
      "business_type": "㉗ 器具、容器包装の製造・加工業（合成樹脂が使用された器具又は容器包装の製造、加工に限る。）",
      "address": "熊本県玉名郡南関町大字関外目811",
      "lat": 33.080322,
      "lng": 130.542325,
      "geocoding_level": null,
      "phone": "0968-53-5220",
      "license_no": "",
      "license_date": null,
      "expire_date": null
    },
    {
      "name": "ホテルセキア　2階  洋食・中華",
      "name_kana": "ホテルセキア　ニカイ　ヨウショク・チュウカ",
      "business_type": "① 飲食店営業",
      "address": "熊本県玉名郡南関町大字関村1556",
      "lat": 33.061108,
      "lng": 130.512145,
      "geocoding_level": null,
      "phone": "0968-69-6111",
      "license_no": "熊本県指令有保第食1-1-73号",
      "license_date": "2024-07-31",
      "expire_date": "2030-08-31"
    },
    {
      "name": "ホテルセキア　プールサイドパラダイス",
      "name_kana": "ホテルセキア　プールサイドパラダイス",
      "business_type": "① 飲食店営業",
      "address": "熊本県玉名郡南関町大字関村1556",
      "lat": 33.061108,
      "lng": 130.512145,
      "geocoding_level": null,
      "phone": "0968-69-6111",
      "license_no": "熊本県指令有保第食1-1-74号",
      "license_date": "2024-07-31",
      "expire_date": "2030-08-31"
    },
    {
      "name": "ホテルセキア　２階　和食",
      "name_kana": "ホテルセキア　ニカイ　ワショク",
      "business_type": "① 飲食店営業",
      "address": "熊本県玉名郡南関町大字関村1556",
      "lat": 33.061108,
      "lng": 130.512145,
      "geocoding_level": null,
      "phone": "0968-69-6111",
      "license_no": "熊本県指令有保第食1-1-75号",
      "license_date": "2024-07-31",
      "expire_date": "2030-08-31"
    },
    {
      "name": "ホテルセキア　ピッツェリアバール　イルモンテ",
      "name_kana": "ホテルセキア　ピッツェリアバール　イルモンテ",
      "business_type": "① 飲食店営業",
      "address": "熊本県玉名郡南関町大字関村1556",
      "lat": 33.061108,
      "lng": 130.512145,
      "geocoding_level": null,
      "phone": "0968-69-6111",
      "license_no": "熊本県指令有保第食1-1-76号",
      "license_date": "2024-07-31",
      "expire_date": "2030-08-31"
    },
    {
      "name": "パブリックスペース雲海",
      "name_kana": "パブリックスペースウンカイ",
      "business_type": "① 飲食店営業",
      "address": "熊本県玉名郡南関町大字関村1556",
      "lat": 33.061108,
      "lng": 130.512145,
      "geocoding_level": null,
      "phone": "0968696111",
      "license_no": "熊本県指令有保第食1-1-167号",
      "license_date": "2025-01-29",
      "expire_date": "2031-02-28"
    },
    {
      "name": "工房　庭の花",
      "name_kana": "コウボウ　ニワノハナ",
      "business_type": "① 飲食店営業",
      "address": "熊本県玉名郡南関町宮尾357-92",
      "lat": 33.001864,
      "lng": 130.522245,
      "geocoding_level": null,
      "phone": "",
      "license_no": "熊本県指令有保第食1-1-78号",
      "license_date": "2024-08-05",
      "expire_date": "2030-08-31"
    },
    {
      "name": "徳丸商店",
      "name_kana": "トクマルショウテン",
      "business_type": "㉔ その他の食料品製造・加工業",
      "address": "熊本県玉名郡南関町小原441",
      "lat": 33.047524,
      "lng": 130.568603,
      "geocoding_level": null,
      "phone": "0968-53-2662",
      "license_no": "",
      "license_date": null,
      "expire_date": null
    },
    {
      "name": "団蘭",
      "name_kana": "ダンラン",
      "business_type": "① 飲食店営業",
      "address": "熊本県玉名郡南関町豊永3293-2",
      "lat": 33.030839,
      "lng": 130.562911,
      "geocoding_level": null,
      "phone": "080-1784-3311",
      "license_no": "熊本県指令有保第食1-1-94号",
      "license_date": "2024-10-02",
      "expire_date": "2030-11-30"
    },
    {
      "name": "株式会社エム・ケイ・ケミカル　南関工場",
      "name_kana": "カブシキガイシャエム・ケイ・ケミカル　ナンカンコウジョウ",
      "business_type": "㉜ 添加物製造業",
      "address": "熊本県玉名郡南関町関外目1432",
      "lat": 33.067923,
      "lng": 130.544015,
      "geocoding_level": null,
      "phone": "0968532881",
      "license_no": "熊本県指令有保第食32-1号",
      "license_date": "2024-11-01",
      "expire_date": "2030-11-30"
    },
    {
      "name": "ウチごはんSeki",
      "name_kana": "ウチゴハンセキ",
      "business_type": "① 飲食店営業",
      "address": "熊本県玉名郡南関町長山343-1",
      "lat": 33.015866,
      "lng": 130.525225,
      "geocoding_level": null,
      "phone": "0968578423",
      "license_no": "熊本県指令有保第食1-1-104号",
      "license_date": "2024-10-23",
      "expire_date": "2030-11-30"
    },
    {
      "name": "ウチごはんSeki",
      "name_kana": "ウチゴハンセキ",
      "business_type": "⑪ 菓子製造業",
      "address": "熊本県玉名郡南関町長山343-1",
      "lat": 33.015866,
      "lng": 130.525225,
      "geocoding_level": null,
      "phone": "0968-57-8423",
      "license_no": "熊本県指令有保第食11-9号",
      "license_date": "2024-10-23",
      "expire_date": "2030-11-30"
    },
    {
      "name": "株式会社いわもと　南関工場",
      "name_kana": "カブシキガイシャイワモト　ナンカンコウジョウ",
      "business_type": "㉕ そうざい製造業",
      "address": "熊本県玉名郡南関町関東838-4",
      "lat": 33.065562,
      "lng": 130.551729,
      "geocoding_level": null,
      "phone": "0968-53-2131",
      "license_no": "熊本県指令有保第食25-12号",
      "license_date": "2024-10-23",
      "expire_date": "2030-11-30"
    },
    {
      "name": "Ａ‐ランチ",
      "name_kana": "エーランチ",
      "business_type": "㉕ そうざい製造業",
      "address": "熊本県玉名郡南関町関町1463",
      "lat": 33.058127,
      "lng": 130.542158,
      "geocoding_level": null,
      "phone": "0968-57-7038",
      "license_no": "熊本県指令有保第食25-14号",
      "license_date": "2024-11-08",
      "expire_date": "2030-11-30"
    },
    {
      "name": "想so cooking工房",
      "name_kana": "ソウクッキングコウボウ",
      "business_type": "⑬ その他の食料・飲料販売業",
      "address": "熊本県玉名郡南関町関町",
      "lat": 33.063718,
      "lng": 130.545773,
      "geocoding_level": null,
      "phone": "",
      "license_no": "",
      "license_date": null,
      "expire_date": null
    },
    {
      "name": "クスノキホテル",
      "name_kana": "クスノキホテル",
      "business_type": "① 飲食店営業",
      "address": "熊本県玉名郡南関町関外目1577-1",
      "lat": 33.070357,
      "lng": 130.537209,
      "geocoding_level": null,
      "phone": "0968-53-0700",
      "license_no": "熊本県指令有保第食1-1-144号",
      "license_date": "2024-11-22",
      "expire_date": "2030-11-30"
    },
    {
      "name": "生粉打ちそば処良久良久",
      "name_kana": "キコウチソバドコロラクラク",
      "business_type": "① 飲食店営業",
      "address": "熊本県玉名郡南関町関東966",
      "lat": 33.067214,
      "lng": 130.550122,
      "geocoding_level": null,
      "phone": "08039651292",
      "license_no": "熊本県指令有保第食1-1-19号",
      "license_date": "2026-05-25",
      "expire_date": "2032-05-31"
    },
    {
      "name": "K･B･S株式会社",
      "name_kana": "ケービーエスカブシキガイシャ",
      "business_type": "② 食肉販売業（包装済みの食肉のみの販売）",
      "address": "熊本県玉名郡南関町細永2396-3",
      "lat": 33.028401,
      "lng": 130.541864,
      "geocoding_level": null,
      "phone": "",
      "license_no": "",
      "license_date": null,
      "expire_date": null
    },
    {
      "name": "K･B･S株式会社",
      "name_kana": "ケービーエスカブシキガイシャ",
      "business_type": "⑬ その他の食料・飲料販売業",
      "address": "熊本県玉名郡南関町細永2396-3",
      "lat": 33.028401,
      "lng": 130.541864,
      "geocoding_level": null,
      "phone": "",
      "license_no": "",
      "license_date": null,
      "expire_date": null
    },
    {
      "name": "もやいの郷　青空",
      "name_kana": "モヤイノサト　アオゾラ",
      "business_type": "⑬ その他の食料・飲料販売業",
      "address": "熊本県玉名郡南関町上坂下1830-1",
      "lat": 33.014415,
      "lng": 130.551063,
      "geocoding_level": null,
      "phone": "0968-65-1112",
      "license_no": "",
      "license_date": null,
      "expire_date": null
    },
    {
      "name": "セブン‐イレブン南関関外目店",
      "name_kana": "セブンイレブンナンカンセキホカメテン",
      "business_type": "① 飲食店営業",
      "address": "熊本県玉名郡南関町大字関外目1571-1",
      "lat": 33.077823,
      "lng": 130.545773,
      "geocoding_level": null,
      "phone": "0968-53-2322",
      "license_no": "熊本県指令有保第食1-1-157号",
      "license_date": "2025-01-15",
      "expire_date": "2031-02-28"
    },
    {
      "name": "セブン‐イレブン南関関外目店",
      "name_kana": "セブンイレブンナンカンセキホカメテン",
      "business_type": "⑩ コンビニエンスストア",
      "address": "熊本県玉名郡南関町関外目1571-1",
      "lat": 33.077823,
      "lng": 130.545773,
      "geocoding_level": null,
      "phone": "0968-53-2322",
      "license_no": "",
      "license_date": null,
      "expire_date": null
    },
    {
      "name": "ビッグオーク精肉部",
      "name_kana": "ビッグオークセイニクブ",
      "business_type": "③ 食肉販売業",
      "address": "熊本県玉名郡南関町関町１４７９番地 協同組合南関ショッピングセンター内",
      "lat": 33.058328,
      "lng": 130.543242,
      "geocoding_level": null,
      "phone": "0968531242",
      "license_no": "熊本県指令有保第食3-15号",
      "license_date": "2025-01-29",
      "expire_date": "2031-02-28"
    },
    {
      "name": "有限会社　オークフーズ",
      "name_kana": "ユウゲンガイシャ　オークフーズ",
      "business_type": "① 飲食店営業",
      "address": "熊本県玉名郡南関町等（熊本県下一円）",
      "lat": 33.059858,
      "lng": 130.542726,
      "geocoding_level": null,
      "phone": "",
      "license_no": "熊本県指令有保第食1-1-29号",
      "license_date": "2023-05-18",
      "expire_date": "2028-05-31"
    },
    {
      "name": "ビッグオーク",
      "name_kana": "ビッグオーク",
      "business_type": "⑬ その他の食料・飲料販売業",
      "address": "熊本県玉名郡南関町関町等(熊本県内一円）",
      "lat": 33.063718,
      "lng": 130.545773,
      "geocoding_level": null,
      "phone": "0968533300",
      "license_no": "",
      "license_date": null,
      "expire_date": null
    },
    {
      "name": "ビッグオーク",
      "name_kana": "ビッグオーク",
      "business_type": "③ 乳類販売業",
      "address": "熊本県玉名郡南関町関町１４７９",
      "lat": 33.058328,
      "lng": 130.543242,
      "geocoding_level": null,
      "phone": "0968533300",
      "license_no": "",
      "license_date": null,
      "expire_date": null
    },
    {
      "name": "ビッグオーク",
      "name_kana": "ビッグオーク",
      "business_type": "① 飲食店営業",
      "address": "熊本県玉名郡南関町関町１４７９",
      "lat": 33.058328,
      "lng": 130.543242,
      "geocoding_level": null,
      "phone": "0968-53-3300",
      "license_no": "熊本県指令有保第食1-1-155号",
      "license_date": "2025-11-19",
      "expire_date": "2031-11-30"
    },
    {
      "name": "ビッグオーク",
      "name_kana": "ビッグオーク",
      "business_type": "④ 魚介類販売業",
      "address": "熊本県玉名郡南関町関町１４７９",
      "lat": 33.058328,
      "lng": 130.543242,
      "geocoding_level": null,
      "phone": "0968-53-3300",
      "license_no": "熊本県指令有保第食4-7号",
      "license_date": "2025-11-21",
      "expire_date": "2031-11-30"
    },
    {
      "name": "３",
      "name_kana": "スリー",
      "business_type": "⑪ 菓子製造業",
      "address": "熊本県玉名郡南関町関東880番地1",
      "lat": 33.067006,
      "lng": 130.549675,
      "geocoding_level": null,
      "phone": "",
      "license_no": "熊本県指令有保第食11-23号",
      "license_date": "2025-02-10",
      "expire_date": "2031-02-28"
    },
    {
      "name": "カレーパン専門店FAM",
      "name_kana": "カレーパンセンモンテンファム",
      "business_type": "⑬ その他の食料・飲料販売業",
      "address": "熊本県玉名郡南関町久重14 ヤマチクファクトリーショップ拝啓",
      "lat": 33.046535,
      "lng": 130.52675,
      "geocoding_level": null,
      "phone": "",
      "license_no": "",
      "license_date": null,
      "expire_date": null
    },
    {
      "name": "ビバリーヒルズ",
      "name_kana": "ビバリーヒルズ",
      "business_type": "① 飲食店営業",
      "address": "熊本県玉名郡南関町関外目1523",
      "lat": 33.069815,
      "lng": 130.532463,
      "geocoding_level": null,
      "phone": "0968531105",
      "license_no": "熊本県指令有保第食1-1-31号",
      "license_date": "2025-05-12",
      "expire_date": "2031-05-31"
    },
    {
      "name": "A-life cafe",
      "name_kana": "エイライフカフェ",
      "business_type": "① 飲食店営業",
      "address": "熊本県玉名郡南関町等（熊本県下一円）",
      "lat": 33.059858,
      "lng": 130.542726,
      "geocoding_level": null,
      "phone": "",
      "license_no": "熊本県指令有保第食1-1-50号",
      "license_date": "2025-05-28",
      "expire_date": "2030-05-31"
    },
    {
      "name": "田中パン教室",
      "name_kana": "タナカパンキョウシツ",
      "business_type": "⑪ 菓子製造業",
      "address": "熊本県玉名郡南関町関村1215",
      "lat": 33.059977,
      "lng": 130.539166,
      "geocoding_level": null,
      "phone": "0968530426",
      "license_no": "熊本県指令有保第食11-9号",
      "license_date": "2025-08-22",
      "expire_date": "2031-08-31"
    },
    {
      "name": "奈良原製麺所",
      "name_kana": "ナラハラセイメンショ",
      "business_type": "㉔ 麺類製造業",
      "address": "熊本県玉名郡南関町小原1418-1",
      "lat": 33.05106,
      "lng": 130.566107,
      "geocoding_level": null,
      "phone": "0968530551",
      "license_no": "熊本県指令有保第食24-1号",
      "license_date": "2025-08-20",
      "expire_date": "2031-08-31"
    },
    {
      "name": "菅原食品",
      "name_kana": "スガハラショクヒン",
      "business_type": "㉕ そうざい製造業",
      "address": "熊本県玉名郡南関町相谷2139",
      "lat": 33.046123,
      "lng": 130.579921,
      "geocoding_level": null,
      "phone": "09015120259",
      "license_no": "熊本県指令有保第食25-3号",
      "license_date": "2025-08-22",
      "expire_date": "2031-08-31"
    },
    {
      "name": "キツネノボタン",
      "name_kana": "キツネノボタン",
      "business_type": "① 飲食店営業",
      "address": "熊本県玉名郡南関町関町1230",
      "lat": 33.057767,
      "lng": 130.540119,
      "geocoding_level": null,
      "phone": "",
      "license_no": "熊本県指令有保第食1-1-108号",
      "license_date": "2025-09-26",
      "expire_date": "2031-11-30"
    },
    {
      "name": "キツネノボタン",
      "name_kana": "キツネノボタン",
      "business_type": "㉕ そうざい製造業",
      "address": "熊本県玉名郡南関町関町1230",
      "lat": 33.057767,
      "lng": 130.540119,
      "geocoding_level": null,
      "phone": "",
      "license_no": "熊本県指令有保第食25-4号",
      "license_date": "2025-09-26",
      "expire_date": "2031-11-30"
    },
    {
      "name": "キツネノボタン",
      "name_kana": "キツネノボタン",
      "business_type": "⑪ 菓子製造業",
      "address": "熊本県玉名郡南関町関町1230",
      "lat": 33.057767,
      "lng": 130.540119,
      "geocoding_level": null,
      "phone": "",
      "license_no": "熊本県指令有保第食11－22号",
      "license_date": "2026-01-28",
      "expire_date": "2032-02-29"
    },
    {
      "name": "フォレスト南関ゴルフクラブ",
      "name_kana": "フォレストナンカンゴルフクラブ",
      "business_type": "① 飲食店営業",
      "address": "熊本県玉名郡南関町下坂下４７３７",
      "lat": 32.997783,
      "lng": 130.568713,
      "geocoding_level": null,
      "phone": "0968-53-9111",
      "license_no": "熊本県指令有保第食1-1-154号",
      "license_date": "2025-11-19",
      "expire_date": "2031-11-30"
    },
    {
      "name": "万屋キ三郎",
      "name_kana": "ヨロズヤキサブロウ",
      "business_type": "⑦ 野菜果物販売業",
      "address": "熊本県玉名郡南関町関町１３７５－2",
      "lat": 33.063718,
      "lng": 130.545773,
      "geocoding_level": null,
      "phone": "",
      "license_no": "",
      "license_date": null,
      "expire_date": null
    },
    {
      "name": "オニクロ～onicro～",
      "name_kana": "オニクロ",
      "business_type": "① 飲食店営業",
      "address": "熊本県玉名郡南関町等（熊本県下一円）熊本800せ8334",
      "lat": 33.059858,
      "lng": 130.542726,
      "geocoding_level": null,
      "phone": "",
      "license_no": "熊本県指令有保第食1-1-199号",
      "license_date": "2026-01-07",
      "expire_date": "2031-02-28"
    },
    {
      "name": "寺本家",
      "name_kana": "テラモトケ",
      "business_type": "⑰ 農産保存食料品製造・加工業",
      "address": "熊本県玉名郡南関町豊永３４１５",
      "lat": 33.034139,
      "lng": 130.56292,
      "geocoding_level": null,
      "phone": "",
      "license_no": "",
      "license_date": null,
      "expire_date": null
    },
    {
      "name": "なんちゃん",
      "name_kana": "ナンチャン",
      "business_type": "① 飲食店営業",
      "address": "熊本県玉名郡南関町関外目784‐1",
      "lat": 33.079351,
      "lng": 130.542103,
      "geocoding_level": null,
      "phone": "09075462094",
      "license_no": "熊本県指令有保第食1-1-90号",
      "license_date": "2025-08-21",
      "expire_date": "2031-08-31"
    },
    {
      "name": "ひらやま農園",
      "name_kana": "ヒラヤマノウエン",
      "business_type": "⑰ 農産保存食料品製造・加工業",
      "address": "熊本県玉名郡南関町豊永882-3",
      "lat": 33.032883,
      "lng": 130.558483,
      "geocoding_level": null,
      "phone": "",
      "license_no": "",
      "license_date": null,
      "expire_date": null
    },
    {
      "name": "南関町交流拠点施設ukara",
      "name_kana": "ナンカンマチコウリュウキョテンシセツウカラ",
      "business_type": "⑬ その他の食料・飲料販売業",
      "address": "熊本県玉名郡南関町関町1230",
      "lat": 33.057767,
      "lng": 130.540119,
      "geocoding_level": null,
      "phone": "",
      "license_no": "",
      "license_date": null,
      "expire_date": null
    },
    {
      "name": "関所亭",
      "name_kana": "セキショテイ",
      "business_type": "① 飲食店営業",
      "address": "熊本県玉名郡南関町上長田654-1",
      "lat": 33.028442,
      "lng": 130.53014,
      "geocoding_level": null,
      "phone": "0968536288",
      "license_no": "熊本県指令有保第食1-1-24号",
      "license_date": "2023-05-17",
      "expire_date": "2029-05-31"
    }
  ]
}
