{
  "meta": {
    "updated": 1783568789,
    "sources": [
      {
        "source": "厚生労働省 食品衛生申請等システム（オープンデータ）",
        "license": "公共データ利用規約（第1.0版, PDL1.0）"
      }
    ]
  },
  "data": [
    {
      "name": "ファミリーマート　中井ＰＡ上り",
      "name_kana": "ファミリーマート　ナカイパーキングエリアノボリ",
      "business_type": "⑩ コンビニエンスストア",
      "address": "神奈川県足柄上郡中井町松本９２６－２中井パーキングエリア",
      "lat": 35.342672,
      "lng": 139.198903,
      "geocoding_level": null,
      "phone": "0465-80-3488",
      "license_no": "",
      "license_date": null,
      "expire_date": null
    },
    {
      "name": "ファミリーマート 　中井ＰＡ下り",
      "name_kana": "ファミリーマート　ナカイパーキングエリアクダリ",
      "business_type": "⑩ コンビニエンスストア",
      "address": "神奈川県足柄上郡中井町岩倉５６２－５中井ＰＡ下り線内",
      "lat": 35.343049,
      "lng": 139.203566,
      "geocoding_level": null,
      "phone": "0465-81-2631",
      "license_no": "",
      "license_date": null,
      "expire_date": null
    },
    {
      "name": "中井富士白苑",
      "name_kana": "ナカイフジシロエン",
      "business_type": "⑫ 自動販売機による販売業（コップ式自動販売機（自動洗浄・屋内設置）及び営業許可の対象となる自動販売機を除く）",
      "address": "神奈川県足柄上郡中井町井ノ口2305-4",
      "lat": 35.342311,
      "lng": 139.228917,
      "geocoding_level": null,
      "phone": "0465-81-5888",
      "license_no": "",
      "license_date": null,
      "expire_date": null
    },
    {
      "name": "株式会社オイカワ",
      "name_kana": "カブシキガイシャオイカワ",
      "business_type": "㉔ その他の食料品製造・加工業",
      "address": "神奈川県足柄上郡中井町境別所36",
      "lat": 35.355769,
      "lng": 139.206585,
      "geocoding_level": null,
      "phone": "0465810255",
      "license_no": "",
      "license_date": null,
      "expire_date": null
    },
    {
      "name": "ゼストクック　食品館あおば中井町店",
      "name_kana": "ゼストクック　ショクヒンカンアオバナカイマチテン",
      "business_type": "⑥ 弁当販売業",
      "address": "神奈川県足柄上郡中井町井ノ口1848-1 RISEMALL　A棟　食品館あおば中井町店",
      "lat": 35.336572,
      "lng": 139.23238,
      "geocoding_level": null,
      "phone": "0465-43-7708",
      "license_no": "",
      "license_date": null,
      "expire_date": null
    },
    {
      "name": "ブルックス・ファーム・コーヒー　中井A工場",
      "name_kana": "ブルックスファームコーヒー 　ナカイエーコウジョウ",
      "business_type": "⑯ コーヒー製造・加工業（飲料の製造を除く。）",
      "address": "神奈川県足柄上郡中井町井ノ口2752-1",
      "lat": 35.349618,
      "lng": 139.231072,
      "geocoding_level": null,
      "phone": "",
      "license_no": "",
      "license_date": null,
      "expire_date": null
    },
    {
      "name": "宮川酒店",
      "name_kana": "ミヤガワサケテン",
      "business_type": "⑬ その他の食料・飲料販売業",
      "address": "神奈川県足柄上郡中井町井ノ口693-10",
      "lat": 35.33174,
      "lng": 139.235387,
      "geocoding_level": null,
      "phone": "0465810309",
      "license_no": "",
      "license_date": null,
      "expire_date": null
    },
    {
      "name": "株式会社キユーソー流通システム　中井第二営業所",
      "name_kana": "カブシキカイシャキユーソーリユウツウシステム　ナカイダイニエイギョウショ　フジミエイギヨウシヨ",
      "business_type": "㉙ その他",
      "address": "神奈川県足柄上郡中井町境824-1",
      "lat": 35.349983,
      "lng": 139.221405,
      "geocoding_level": null,
      "phone": "0465-80-1775",
      "license_no": "",
      "license_date": null,
      "expire_date": null
    },
    {
      "name": "株式会社キユーソー流通システム　中井営業所",
      "name_kana": "カブシキカイシャキユーソーリユウツウシステム　ナカイエイギョウショ　フジミエイギヨウシヨ",
      "business_type": "㉙ その他",
      "address": "神奈川県足柄上郡中井町境797",
      "lat": 35.348319,
      "lng": 139.217008,
      "geocoding_level": null,
      "phone": "0465-81-2911",
      "license_no": "",
      "license_date": null,
      "expire_date": null
    },
    {
      "name": "コメリハードアンドグリーン中井店",
      "name_kana": "コメリハードアンドグリーンナカイテン",
      "business_type": "⑧ 米穀類販売業",
      "address": "神奈川県足柄上郡中井町遠藤２０９－１",
      "lat": 35.317398,
      "lng": 139.222935,
      "geocoding_level": null,
      "phone": "0465-81-7055",
      "license_no": "",
      "license_date": null,
      "expire_date": null
    }
  ]
}
