{
  "meta": {
    "updated": 1783568789,
    "sources": [
      {
        "source": "厚生労働省 食品衛生申請等システム（オープンデータ）",
        "license": "公共データ利用規約（第1.0版, PDL1.0）"
      }
    ]
  },
  "data": [
    {
      "name": "フレンドリーショップ きたさん",
      "name_kana": "フレンドリーショップキタサン",
      "business_type": "① 飲食店営業",
      "address": "北海道川上郡弟子屈町川湯温泉5丁目2番11号",
      "lat": 43.63854,
      "lng": 144.44122,
      "geocoding_level": null,
      "phone": "015-483-2830",
      "license_no": "4-549",
      "license_date": "2026-03-16",
      "expire_date": "2031-03-31"
    },
    {
      "name": "Aコープてしかが店",
      "name_kana": "エーコープテシカガテン",
      "business_type": "⑫ 自動販売機による販売業（コップ式自動販売機（自動洗浄・屋内設置）及び営業許可の対象となる自動販売機を除く）",
      "address": "北海道川上郡弟子屈町中央３丁目７番12号",
      "lat": 43.484787,
      "lng": 144.463379,
      "geocoding_level": null,
      "phone": "015-482-2104",
      "license_no": "",
      "license_date": null,
      "expire_date": null
    },
    {
      "name": "ツルハドラッグ弟子屈店",
      "name_kana": "ツルハドラッグ テシカガテン",
      "business_type": "⑬ その他の食料・飲料販売業",
      "address": "北海道川上郡弟子屈町鈴蘭1丁目3番6号",
      "lat": 43.492545,
      "lng": 144.454163,
      "geocoding_level": null,
      "phone": "0154-86-7257",
      "license_no": "",
      "license_date": null,
      "expire_date": null
    },
    {
      "name": "サツドラ弟子屈店",
      "name_kana": "サツドラテシカガテン",
      "business_type": "⑪ 百貨店、総合スーパー",
      "address": "北海道川上郡弟子屈町鈴蘭3丁目1番7号",
      "lat": 43.494406,
      "lng": 144.45345,
      "geocoding_level": null,
      "phone": "015-482-8383",
      "license_no": "",
      "license_date": null,
      "expire_date": null
    },
    {
      "name": "エーコープてしかが店",
      "name_kana": "エーコープテシカガテン",
      "business_type": "① 飲食店営業",
      "address": "北海道川上郡弟子屈町中央3丁目7-12",
      "lat": 43.484787,
      "lng": 144.463379,
      "geocoding_level": null,
      "phone": "0154-82-2393",
      "license_no": "4-395",
      "license_date": "2025-11-25",
      "expire_date": "2033-03-31"
    },
    {
      "name": "エーコープてしかが店",
      "name_kana": "エーコープテシカガテン",
      "business_type": "③ 食肉販売業",
      "address": "北海道川上郡弟子屈町中央3丁目7-12",
      "lat": 43.484787,
      "lng": 144.463379,
      "geocoding_level": null,
      "phone": "0154-82-2393",
      "license_no": "4-395",
      "license_date": "2025-11-25",
      "expire_date": "2033-03-31"
    },
    {
      "name": "エーコープてしかが店",
      "name_kana": "エーコープテシカガテン",
      "business_type": "④ 魚介類販売業",
      "address": "北海道川上郡弟子屈町中央3丁目7-12",
      "lat": 43.484787,
      "lng": 144.463379,
      "geocoding_level": null,
      "phone": "0154-82-2393",
      "license_no": "4-395",
      "license_date": "2025-11-25",
      "expire_date": "2033-03-31"
    },
    {
      "name": "移動販売車てしかが",
      "name_kana": "イドウハンバイシャテシカガ",
      "business_type": "⑬ その他の食料・飲料販売業",
      "address": "北海道川上郡弟子屈町全道一円",
      "lat": 43.485348,
      "lng": 144.459298,
      "geocoding_level": null,
      "phone": "0154-82-2393",
      "license_no": "",
      "license_date": null,
      "expire_date": null
    },
    {
      "name": "エーコープてしかが店",
      "name_kana": "エーコープテシカガテン",
      "business_type": "⑪ 百貨店、総合スーパー",
      "address": "北海道川上郡弟子屈町中央3丁目7-12",
      "lat": 43.484787,
      "lng": 144.463379,
      "geocoding_level": null,
      "phone": "0154-82-2393",
      "license_no": "",
      "license_date": null,
      "expire_date": null
    },
    {
      "name": "セブンイレブン弟子屈中央店",
      "name_kana": "テシカガチュウオウテン",
      "business_type": "⑩ コンビニエンスストア",
      "address": "北海道川上郡弟子屈町高栄1丁目4番５号",
      "lat": 43.486143,
      "lng": 144.454898,
      "geocoding_level": null,
      "phone": "0154822050",
      "license_no": "",
      "license_date": null,
      "expire_date": null
    },
    {
      "name": "セブンイレブン弟子屈中央店",
      "name_kana": "セブンイレブンテシカガチュウオウテン",
      "business_type": "① 飲食店営業",
      "address": "北海道川上郡弟子屈町高栄1丁目4番5号",
      "lat": 43.486143,
      "lng": 144.454898,
      "geocoding_level": null,
      "phone": "015-482-2050",
      "license_no": "7-316",
      "license_date": "2021-09-27",
      "expire_date": "2027-09-30"
    },
    {
      "name": "アトレーユ",
      "name_kana": "アトレーユ",
      "business_type": "⑪ 菓子製造業",
      "address": "北海道川上郡弟子屈町屈斜路原野475番地56",
      "lat": 43.506001,
      "lng": 144.282152,
      "geocoding_level": null,
      "phone": "0154842455",
      "license_no": "7-117",
      "license_date": "2021-06-24",
      "expire_date": "2026-09-30"
    },
    {
      "name": "アトレーユ",
      "name_kana": "アトレーユ",
      "business_type": "① 飲食店営業",
      "address": "北海道川上郡弟子屈町屈斜路原野475番地56",
      "lat": 43.552456,
      "lng": 144.363762,
      "geocoding_level": null,
      "phone": "",
      "license_no": "4-273",
      "license_date": "2025-09-08",
      "expire_date": "2030-09-30"
    },
    {
      "name": "アトレーユ",
      "name_kana": "アトレーユ",
      "business_type": "⑬ 乳製品製造業",
      "address": "北海道川上郡弟子屈町屈斜路原野475番地56",
      "lat": 43.552456,
      "lng": 144.363762,
      "geocoding_level": null,
      "phone": "015-484-2455",
      "license_no": "4-561",
      "license_date": "2026-03-23",
      "expire_date": "2031-03-31"
    },
    {
      "name": "フクハラ摩周店",
      "name_kana": "フクハラマシュウテン",
      "business_type": "⑪ 百貨店、総合スーパー",
      "address": "北海道川上郡弟子屈町鈴蘭4丁目1番8号",
      "lat": 43.49266,
      "lng": 144.455575,
      "geocoding_level": null,
      "phone": "015-482-2318",
      "license_no": "",
      "license_date": null,
      "expire_date": null
    },
    {
      "name": "フクハラ摩周店（魚介類販売）",
      "name_kana": "フクハラマシュウテン　ギョカイルイハンバイ",
      "business_type": "④ 魚介類販売業",
      "address": "北海道川上郡弟子屈町鈴蘭4丁目1番8号",
      "lat": 43.49266,
      "lng": 144.455575,
      "geocoding_level": null,
      "phone": "015-482-2318",
      "license_no": "7-300",
      "license_date": "2021-09-24",
      "expire_date": "2027-09-30"
    },
    {
      "name": "フクハラ摩周店（食肉販売）",
      "name_kana": "フクハラマシュウテン　ショクニクハンバイ",
      "business_type": "③ 食肉販売業",
      "address": "北海道川上郡弟子屈町鈴蘭4丁目1番8号",
      "lat": 43.49266,
      "lng": 144.455575,
      "geocoding_level": null,
      "phone": "015-482-2318",
      "license_no": "7-300",
      "license_date": "2021-09-24",
      "expire_date": "2027-09-30"
    },
    {
      "name": "フクハラ摩周店",
      "name_kana": "フクハラマシュウテン",
      "business_type": "① 飲食店営業",
      "address": "北海道川上郡弟子屈町鈴蘭4丁目1番8号",
      "lat": 43.49266,
      "lng": 144.455575,
      "geocoding_level": null,
      "phone": "015-482-2318",
      "license_no": "7-300",
      "license_date": "2021-09-24",
      "expire_date": "2027-09-30"
    },
    {
      "name": "川湯ビレッジ",
      "name_kana": "カワユビレッジ",
      "business_type": "① 飲食店営業",
      "address": "北海道川上郡弟子屈町跡佐登原野63-77",
      "lat": 43.679613,
      "lng": 144.465249,
      "geocoding_level": null,
      "phone": "0154832229",
      "license_no": "7-159",
      "license_date": "2021-07-30",
      "expire_date": "2026-09-30"
    },
    {
      "name": "かくふじ商店",
      "name_kana": "カクフジショウテン",
      "business_type": "② 食肉販売業（包装済みの食肉のみの販売）",
      "address": "北海道川上郡弟子屈町湯の島１丁目１番４号",
      "lat": 43.488213,
      "lng": 144.454297,
      "geocoding_level": null,
      "phone": "0154822262",
      "license_no": "",
      "license_date": null,
      "expire_date": null
    },
    {
      "name": "かくふじ商店",
      "name_kana": "カクフジショウテン",
      "business_type": "③ 乳類販売業",
      "address": "北海道川上郡弟子屈町湯の島１丁目１番４号",
      "lat": 43.488213,
      "lng": 144.454297,
      "geocoding_level": null,
      "phone": "0154822262",
      "license_no": "",
      "license_date": null,
      "expire_date": null
    },
    {
      "name": "かくふじ商店",
      "name_kana": "カクフジショウテン",
      "business_type": "⑬ その他の食料・飲料販売業",
      "address": "北海道川上郡弟子屈町湯の島１丁目１番４号",
      "lat": 43.488213,
      "lng": 144.454297,
      "geocoding_level": null,
      "phone": "0154822262",
      "license_no": "",
      "license_date": null,
      "expire_date": null
    },
    {
      "name": "Livingbar221",
      "name_kana": "リビングバーツツイ",
      "business_type": "① 飲食店営業",
      "address": "北海道川上郡弟子屈町湯の島2丁目7番27号",
      "lat": 43.488118,
      "lng": 144.452543,
      "geocoding_level": null,
      "phone": "015-482-4206",
      "license_no": "3-811",
      "license_date": "2024-03-05",
      "expire_date": "2029-03-31"
    },
    {
      "name": "黒川商店",
      "name_kana": "クロカワショウテン",
      "business_type": "⑩ コンビニエンスストア",
      "address": "北海道川上郡弟子屈町桜丘3-3-17",
      "lat": 43.477997,
      "lng": 144.447061,
      "geocoding_level": null,
      "phone": "0154822716",
      "license_no": "",
      "license_date": null,
      "expire_date": null
    },
    {
      "name": "有限会社ディスカントショップ摩周",
      "name_kana": "ユウゲンガイシャディスカントショップマシュウ",
      "business_type": "⑩ コンビニエンスストア",
      "address": "北海道川上郡弟子屈町中央2丁目6番6号",
      "lat": 43.485688,
      "lng": 144.461094,
      "geocoding_level": null,
      "phone": "0154822115",
      "license_no": "",
      "license_date": null,
      "expire_date": null
    },
    {
      "name": "山三右近商店",
      "name_kana": "ヤマサンウコンショウテン",
      "business_type": "⑩ コンビニエンスストア",
      "address": "北海道川上郡弟子屈町中央1-9-1",
      "lat": 43.486788,
      "lng": 144.457945,
      "geocoding_level": null,
      "phone": "",
      "license_no": "",
      "license_date": null,
      "expire_date": null
    },
    {
      "name": "鱒や",
      "name_kana": "マスヤ",
      "business_type": "① 飲食店営業",
      "address": "北海道川上郡弟子屈町札友内原野51線19番地46号",
      "lat": 43.525515,
      "lng": 144.402517,
      "geocoding_level": null,
      "phone": "015-482-5489",
      "license_no": "7-281",
      "license_date": "2021-09-14",
      "expire_date": "2027-09-30"
    },
    {
      "name": "food & bar DOMANI",
      "name_kana": "フード　アンド　バー　ドマニ",
      "business_type": "① 飲食店営業",
      "address": "北海道川上郡弟子屈町湯の島2丁目2-8",
      "lat": 43.487695,
      "lng": 144.453572,
      "geocoding_level": null,
      "phone": "015-482-1985",
      "license_no": "7-158",
      "license_date": "2021-07-30",
      "expire_date": "2027-09-30"
    },
    {
      "name": "国家公務員共済組合連合会　川湯保養所(KKRかわゆ)",
      "name_kana": "コッカコウムインキョウサイクミアイレンゴウカイ　カワユホヨウショ　ケイケイアールカワユ",
      "business_type": "① 飲食店営業",
      "address": "北海道川上郡弟子屈町川湯温泉1丁目2番15号",
      "lat": 43.637445,
      "lng": 144.439007,
      "geocoding_level": null,
      "phone": "015-483-2643",
      "license_no": "2-737",
      "license_date": "2023-03-02",
      "expire_date": "2029-03-31"
    },
    {
      "name": "国家公務員共済組合連合会　川湯保養所(KKRかわゆ)",
      "name_kana": "コッカコウムインキョウサイクミアイレンゴウカイ　カワユホヨウショ　ケイケイアールカワユ",
      "business_type": "⑬ その他の食料・飲料販売業",
      "address": "北海道川上郡弟子屈町川湯温泉1丁目2番15号",
      "lat": 43.637445,
      "lng": 144.439007,
      "geocoding_level": null,
      "phone": "015-483-2643",
      "license_no": "",
      "license_date": null,
      "expire_date": null
    },
    {
      "name": "炭家　石花木金",
      "name_kana": "スミヤ　セッカモクキン",
      "business_type": "① 飲食店営業",
      "address": "北海道川上郡弟子屈町湯の島２丁目１番１３号",
      "lat": 43.487299,
      "lng": 144.453219,
      "geocoding_level": null,
      "phone": "015-482-5151",
      "license_no": "3-448",
      "license_date": "2023-09-25",
      "expire_date": "2029-09-25"
    },
    {
      "name": "炭家　石花木金",
      "name_kana": "スミヤ　セッカモクキン",
      "business_type": "① 飲食店営業",
      "address": "北海道川上郡弟子屈町全道一円",
      "lat": 43.485348,
      "lng": 144.459298,
      "geocoding_level": null,
      "phone": "",
      "license_no": "10-146",
      "license_date": "2024-05-22",
      "expire_date": "2029-05-31"
    },
    {
      "name": "BANS BASH",
      "name_kana": "バンズ　バッシュ",
      "business_type": "① 飲食店営業",
      "address": "北海道川上郡弟子屈町高栄1丁目１－２",
      "lat": 43.487335,
      "lng": 144.45448,
      "geocoding_level": null,
      "phone": "",
      "license_no": "10-658",
      "license_date": "2025-02-12",
      "expire_date": "2031-03-31"
    },
    {
      "name": "宮﨑商店",
      "name_kana": "ミヤザキショウテン",
      "business_type": "⑬ その他の食料・飲料販売業",
      "address": "北海道川上郡弟子屈町屈斜路和琴半島",
      "lat": 43.583955,
      "lng": 144.313235,
      "geocoding_level": null,
      "phone": "015-484-2542",
      "license_no": "",
      "license_date": null,
      "expire_date": null
    },
    {
      "name": "宮﨑商店",
      "name_kana": "ミヤザキショウテン",
      "business_type": "① 飲食店営業",
      "address": "北海道川上郡弟子屈町屈斜路和琴半島",
      "lat": 43.583955,
      "lng": 144.313235,
      "geocoding_level": null,
      "phone": "015-484-2542",
      "license_no": "2-397",
      "license_date": "2022-09-20",
      "expire_date": "2027-09-30"
    },
    {
      "name": "釧路ヤクルト販売(株)弟子屈センター",
      "name_kana": "クシロヤクルトハンバイカブシキガイシャテシカガセンター",
      "business_type": "⑬ その他の食料・飲料販売業",
      "address": "北海道川上郡弟子屈町朝日1丁目5-7",
      "lat": 43.487512,
      "lng": 144.459683,
      "geocoding_level": null,
      "phone": "",
      "license_no": "",
      "license_date": null,
      "expire_date": null
    },
    {
      "name": "風月堂",
      "name_kana": "フウゲツドウ",
      "business_type": "⑪ 菓子製造業",
      "address": "北海道川上郡弟子屈町川湯温泉2丁目1-3",
      "lat": 43.636478,
      "lng": 144.436692,
      "geocoding_level": null,
      "phone": "015-483-2436",
      "license_no": "7-307",
      "license_date": "2021-09-27",
      "expire_date": "2027-09-30"
    },
    {
      "name": "羊小屋　ラムチョップ",
      "name_kana": "ヒツジコヤ　ラムチョップ",
      "business_type": "① 飲食店営業",
      "address": "北海道川上郡弟子屈町川湯温泉１丁目４番25",
      "lat": 43.636474,
      "lng": 144.437809,
      "geocoding_level": null,
      "phone": "",
      "license_no": "7-232",
      "license_date": "2021-08-27",
      "expire_date": "2027-09-30"
    },
    {
      "name": "羊小屋　ラムチョップ",
      "name_kana": "ヒツジコヤ　ラムチョップ",
      "business_type": "③ 食肉販売業",
      "address": "北海道川上郡弟子屈町川湯温泉１丁目４番25",
      "lat": 43.636474,
      "lng": 144.437809,
      "geocoding_level": null,
      "phone": "",
      "license_no": "7-232",
      "license_date": "2021-08-27",
      "expire_date": "2027-09-30"
    },
    {
      "name": "9.SHARO",
      "name_kana": "クッシャロ",
      "business_type": "① 飲食店営業",
      "address": "北海道川上郡弟子屈町川湯温泉1丁目2-30 川湯観光ホテル内2F",
      "lat": 43.636489,
      "lng": 144.439102,
      "geocoding_level": null,
      "phone": "015-483-2121",
      "license_no": "10-294",
      "license_date": "2024-07-19",
      "expire_date": "2030-09-30"
    },
    {
      "name": "（有）菱網食販",
      "name_kana": "ユウ　リョウモウショクハン",
      "business_type": "⑬ その他の食料・飲料販売業",
      "address": "北海道川上郡弟子屈町川湯温泉5丁目1-20",
      "lat": 43.638906,
      "lng": 144.440902,
      "geocoding_level": null,
      "phone": "015-483-2470",
      "license_no": "",
      "license_date": null,
      "expire_date": null
    },
    {
      "name": "有限会社渡辺体験牧場",
      "name_kana": "ユウゲンガイシャワタナベタイケンボクジョウ",
      "business_type": "① 飲食店営業",
      "address": "北海道川上郡弟子屈町川上郡弟子屈町弟子屈原野646-4",
      "lat": 43.516193,
      "lng": 144.449329,
      "geocoding_level": null,
      "phone": "0154825184",
      "license_no": "3-443",
      "license_date": "2023-09-25",
      "expire_date": "2028-09-30"
    },
    {
      "name": "有限会社渡辺体験牧場",
      "name_kana": "ユウゲンガイシャワタナベタイケンボクジョウ",
      "business_type": "② 食肉販売業（包装済みの食肉のみの販売）",
      "address": "北海道川上郡弟子屈町川上郡弟子屈町弟子屈原野646-4",
      "lat": 43.516193,
      "lng": 144.449329,
      "geocoding_level": null,
      "phone": "0154825184",
      "license_no": "",
      "license_date": null,
      "expire_date": null
    },
    {
      "name": "有限会社渡辺体験牧場",
      "name_kana": "ユウゲンガイシャワタナベタイケンボクジョウ",
      "business_type": "⑦ 乳処理業",
      "address": "北海道川上郡弟子屈町川上郡弟子屈町弟子屈原野646-1",
      "lat": 43.516227,
      "lng": 144.449312,
      "geocoding_level": null,
      "phone": "0154825184",
      "license_no": "3-443",
      "license_date": "2023-09-25",
      "expire_date": "2028-09-30"
    },
    {
      "name": "有限会社渡辺体験牧場",
      "name_kana": "ユウゲンガイシャワタナベタイケンボクジョウ",
      "business_type": "⑬ 乳製品製造業",
      "address": "北海道川上郡弟子屈町字弟子屈原野646番地4",
      "lat": 43.516193,
      "lng": 144.449329,
      "geocoding_level": null,
      "phone": "015-482-5184",
      "license_no": "10-407",
      "license_date": "2024-09-20",
      "expire_date": "2029-09-30"
    },
    {
      "name": "有限会社渡辺体験牧場（ジンギスカン厨房）",
      "name_kana": "ユウゲンガイシャワタナベタイケンボクジョウ　ジンギスカンチュウボウ",
      "business_type": "① 飲食店営業",
      "address": "北海道川上郡弟子屈町弟子屈原野646番地4",
      "lat": 43.516193,
      "lng": 144.449329,
      "geocoding_level": null,
      "phone": "015-482-5184",
      "license_no": "4-393",
      "license_date": "2025-11-25",
      "expire_date": "2032-03-31"
    },
    {
      "name": "摩周湖のあいす",
      "name_kana": "マシュウコノアイス",
      "business_type": "⑬ 乳製品製造業",
      "address": "北海道川上郡弟子屈町摩周2丁目8番6号",
      "lat": 43.499653,
      "lng": 144.455066,
      "geocoding_level": null,
      "phone": "015-482-6500",
      "license_no": "7-299",
      "license_date": "2021-09-24",
      "expire_date": "2026-09-30"
    },
    {
      "name": "摩周湖のあいす",
      "name_kana": "マシュウコノアイス",
      "business_type": "⑫ アイスクリーム類製造業",
      "address": "北海道川上郡弟子屈町摩周2丁目8番6号",
      "lat": 43.499653,
      "lng": 144.455066,
      "geocoding_level": null,
      "phone": "015-482-6500",
      "license_no": "2112",
      "license_date": "2022-03-07",
      "expire_date": "2028-03-31"
    },
    {
      "name": "摩周湖のあいす",
      "name_kana": "マシュウコノアイス",
      "business_type": "① 飲食店営業",
      "address": "北海道川上郡弟子屈町摩周2丁目8番6号",
      "lat": 43.499653,
      "lng": 144.455066,
      "geocoding_level": null,
      "phone": "015-482-6500",
      "license_no": "2063-55",
      "license_date": "2022-03-23",
      "expire_date": "2028-03-31"
    },
    {
      "name": "硫黄山レストハウス",
      "name_kana": "イオウザンレストハウス",
      "business_type": "⑬ その他の食料・飲料販売業",
      "address": "北海道川上郡弟子屈町字川湯温泉1丁目５２番地１先",
      "lat": 43.63696,
      "lng": 144.437762,
      "geocoding_level": null,
      "phone": "0154833511",
      "license_no": "",
      "license_date": null,
      "expire_date": null
    },
    {
      "name": "摩周湖レストハウス",
      "name_kana": "マシュウコレストハウス",
      "business_type": "⑪ 菓子製造業",
      "address": "北海道川上郡弟子屈町摩周湖第一展望台レストハウス",
      "lat": 43.556947,
      "lng": 144.50734,
      "geocoding_level": null,
      "phone": "0154821530",
      "license_no": "7-560",
      "license_date": "2022-01-28",
      "expire_date": "2028-03-31"
    },
    {
      "name": "摩周湖レストハウス",
      "name_kana": "マシュウコレストハウス",
      "business_type": "⑬ その他の食料・飲料販売業",
      "address": "北海道川上郡弟子屈町摩周湖第一展望台レストハウス",
      "lat": 43.556947,
      "lng": 144.50734,
      "geocoding_level": null,
      "phone": "0154821530",
      "license_no": "",
      "license_date": null,
      "expire_date": null
    },
    {
      "name": "摩周湖レストハウス",
      "name_kana": "マシュウコレストハウス",
      "business_type": "① 飲食店営業",
      "address": "北海道川上郡弟子屈町国有地内240ロ林小班",
      "lat": 43.485348,
      "lng": 144.459298,
      "geocoding_level": null,
      "phone": "015-482-1530",
      "license_no": "2106",
      "license_date": "2022-03-07",
      "expire_date": "2028-03-31"
    },
    {
      "name": "硫黄山レストハウス",
      "name_kana": "イオウザンレストハウス",
      "business_type": "① 飲食店営業",
      "address": "北海道川上郡弟子屈町川湯温泉1丁目52番地1先",
      "lat": 43.617965,
      "lng": 144.443288,
      "geocoding_level": null,
      "phone": "015-483-3511",
      "license_no": "3ｰ432",
      "license_date": "2023-09-22",
      "expire_date": "2030-09-30"
    },
    {
      "name": "自然食材&山菜　摩周の郷",
      "name_kana": "シゼンショクザイアンドサンサイ　マシュウノサト",
      "business_type": "⑬ その他の食料・飲料販売業",
      "address": "北海道川上郡弟子屈町鈴蘭1丁目1-13",
      "lat": 43.490677,
      "lng": 144.454232,
      "geocoding_level": null,
      "phone": "015-482-5170",
      "license_no": "",
      "license_date": null,
      "expire_date": null
    },
    {
      "name": "はなこや",
      "name_kana": "ハナコヤ",
      "business_type": "① 飲食店営業",
      "address": "北海道川上郡弟子屈町屈斜路201-4",
      "lat": 43.55362,
      "lng": 144.338915,
      "geocoding_level": null,
      "phone": "015-484-2333",
      "license_no": "7-298",
      "license_date": "2021-09-24",
      "expire_date": "2026-09-30"
    },
    {
      "name": "和琴みどりや",
      "name_kana": "ワコトミドリヤ",
      "business_type": "① 飲食店営業",
      "address": "北海道川上郡弟子屈町屈斜路和琴番外地",
      "lat": 43.583955,
      "lng": 144.313235,
      "geocoding_level": null,
      "phone": "015-484-2547",
      "license_no": "7-305",
      "license_date": "2021-09-24",
      "expire_date": "2026-09-30"
    },
    {
      "name": "ペンション　Birao",
      "name_kana": "ペンション　ビラオ",
      "business_type": "① 飲食店営業",
      "address": "北海道川上郡弟子屈町美里4丁目7-10",
      "lat": 43.491324,
      "lng": 144.444871,
      "geocoding_level": null,
      "phone": "015-482-2979",
      "license_no": "7-304",
      "license_date": "2021-09-24",
      "expire_date": "2027-09-30"
    },
    {
      "name": "新居豆腐店",
      "name_kana": "ニイトウフテン",
      "business_type": "㉒ 豆腐製造業",
      "address": "北海道川上郡弟子屈町川湯温泉5丁目5-7",
      "lat": 43.639732,
      "lng": 144.440922,
      "geocoding_level": null,
      "phone": "015-483-2251",
      "license_no": "7-306",
      "license_date": "2021-09-27",
      "expire_date": "2026-09-30"
    },
    {
      "name": "レタラチップ",
      "name_kana": "レタラチップ",
      "business_type": "① 飲食店営業",
      "address": "北海道川上郡弟子屈町美留和1-570",
      "lat": 43.623921,
      "lng": 144.359911,
      "geocoding_level": null,
      "phone": "015-484-2106",
      "license_no": "7-297",
      "license_date": "2021-09-24",
      "expire_date": "2027-09-30"
    },
    {
      "name": "レタラチップ",
      "name_kana": "レタラチップ",
      "business_type": "⑬ その他の食料・飲料販売業",
      "address": "北海道川上郡弟子屈町美留和1",
      "lat": 43.602849,
      "lng": 144.351641,
      "geocoding_level": null,
      "phone": "015-484-2106",
      "license_no": "",
      "license_date": null,
      "expire_date": null
    },
    {
      "name": "イコル",
      "name_kana": "イコル",
      "business_type": "⑩ コンビニエンスストア",
      "address": "北海道川上郡弟子屈町字屈斜路336番地1号 屈斜路プリンスホテルB1",
      "lat": 43.586317,
      "lng": 144.272471,
      "geocoding_level": null,
      "phone": "",
      "license_no": "",
      "license_date": null,
      "expire_date": null
    },
    {
      "name": "路地裏の屋台",
      "name_kana": "ロジウラノヤタイ",
      "business_type": "① 飲食店営業",
      "address": "北海道川上郡弟子屈町川湯温泉1丁目2-30",
      "lat": 43.636453,
      "lng": 144.439146,
      "geocoding_level": null,
      "phone": "015-483-2121",
      "license_no": "7-303",
      "license_date": "2021-09-24",
      "expire_date": "2027-09-30"
    },
    {
      "name": "川湯観光ホテル（コンベンションホール）",
      "name_kana": "カワユカンコウホテル　コンベンションホール",
      "business_type": "① 飲食店営業",
      "address": "北海道川上郡弟子屈町川湯温泉1丁目2番30号",
      "lat": 43.636453,
      "lng": 144.439146,
      "geocoding_level": null,
      "phone": "015-483-2121",
      "license_no": "2095",
      "license_date": "2022-03-07",
      "expire_date": "2028-03-31"
    },
    {
      "name": "（株）川湯観光ホテル",
      "name_kana": "カブシキガイシャカワユカンコウホテル",
      "business_type": "① 飲食店営業",
      "address": "北海道川上郡弟子屈町川湯温泉1丁目2番30号",
      "lat": 43.636489,
      "lng": 144.439102,
      "geocoding_level": null,
      "phone": "015-483-2121",
      "license_no": "3-440",
      "license_date": "2023-09-25",
      "expire_date": "2029-09-30"
    },
    {
      "name": "くりーむ童話",
      "name_kana": "クリームドウワ",
      "business_type": "⑬ 乳製品製造業",
      "address": "北海道川上郡弟子屈町跡佐登原野65線71番地3",
      "lat": 43.623681,
      "lng": 144.458213,
      "geocoding_level": null,
      "phone": "015-483-2008",
      "license_no": "7-324",
      "license_date": "2021-09-29",
      "expire_date": "2026-09-30"
    },
    {
      "name": "くりーむ童話",
      "name_kana": "クリームドウワ",
      "business_type": "① 飲食店営業",
      "address": "北海道川上郡弟子屈町字跡佐登原野65線71番地3",
      "lat": 43.679613,
      "lng": 144.465249,
      "geocoding_level": null,
      "phone": "015-483-2008",
      "license_no": "3-439",
      "license_date": "2023-09-25",
      "expire_date": "2028-09-30"
    },
    {
      "name": "くりーむ童話",
      "name_kana": "クリームドウワ",
      "business_type": "⑫ アイスクリーム類製造業",
      "address": "北海道川上郡弟子屈町字跡佐登原野65線71番地3",
      "lat": 43.679613,
      "lng": 144.465249,
      "geocoding_level": null,
      "phone": "015-483-2008",
      "license_no": "3-439",
      "license_date": "2023-09-25",
      "expire_date": "2028-09-30"
    },
    {
      "name": "カフェノーブル",
      "name_kana": "カフェノーブル",
      "business_type": "① 飲食店営業",
      "address": "北海道川上郡弟子屈町川湯温泉1-4-8",
      "lat": 43.636631,
      "lng": 144.43712,
      "geocoding_level": null,
      "phone": "015-483-2213",
      "license_no": "7-309",
      "license_date": "2021-09-27",
      "expire_date": "2026-09-30"
    },
    {
      "name": "レストラン摩周",
      "name_kana": "レストランマシュウ",
      "business_type": "① 飲食店営業",
      "address": "北海道川上郡弟子屈町摩周3丁目3番1号",
      "lat": 43.506979,
      "lng": 144.450601,
      "geocoding_level": null,
      "phone": "015-482-1860",
      "license_no": "7-301",
      "license_date": "2021-09-24",
      "expire_date": "2027-09-30"
    },
    {
      "name": "レストラン摩周",
      "name_kana": "レストランマシュウ",
      "business_type": "① 飲食店営業",
      "address": "北海道川上郡弟子屈町摩周3丁目3－1",
      "lat": 43.506961,
      "lng": 144.450656,
      "geocoding_level": null,
      "phone": "015-482-1860",
      "license_no": "2097",
      "license_date": "2022-03-07",
      "expire_date": "2028-03-31"
    },
    {
      "name": "Aコープてしかが店",
      "name_kana": "エーコープテシカガテン",
      "business_type": "③ 食肉販売業",
      "address": "北海道川上郡弟子屈町中央3丁目7-12",
      "lat": 43.484735,
      "lng": 144.463423,
      "geocoding_level": null,
      "phone": "015-482-2393",
      "license_no": "7-302",
      "license_date": "2021-09-24",
      "expire_date": "2027-09-30"
    },
    {
      "name": "Ａコープてしかが店",
      "name_kana": "エーコープテシカガテン",
      "business_type": "㉕ 行商",
      "address": "北海道川上郡弟子屈町釧路保健所管内一円",
      "lat": 43.485348,
      "lng": 144.459298,
      "geocoding_level": null,
      "phone": "",
      "license_no": "",
      "license_date": null,
      "expire_date": null
    },
    {
      "name": "JA摩周湖　移動販売車",
      "name_kana": "ジェイエーマシュウコ　イドウハンバイシャ",
      "business_type": "⑪ 百貨店、総合スーパー",
      "address": "北海道川上郡弟子屈町中央3丁目7番12号",
      "lat": 43.484788,
      "lng": 144.463347,
      "geocoding_level": null,
      "phone": "015-482-2104",
      "license_no": "",
      "license_date": null,
      "expire_date": null
    },
    {
      "name": "JA摩周湖二次加工センター",
      "name_kana": "ジェイエーマシュウコニジカコウセンター",
      "business_type": "⑳ みそ又はしょうゆ製造業",
      "address": "北海道川上郡弟子屈町中央3丁目6番30号",
      "lat": 43.48474,
      "lng": 144.464167,
      "geocoding_level": null,
      "phone": "015-482-2104",
      "license_no": "2-398",
      "license_date": "2022-09-20",
      "expire_date": "2028-09-30"
    },
    {
      "name": "摩周湖農業協同組合",
      "name_kana": "マシュウコノウギョウキョウドウクミアイ",
      "business_type": "① 飲食店営業",
      "address": "北海道川上郡弟子屈町営業計画書に基づく釧路保健所管内一円",
      "lat": 43.485348,
      "lng": 144.459298,
      "geocoding_level": null,
      "phone": "015-482-2104",
      "license_no": "2-668",
      "license_date": "2023-01-31",
      "expire_date": "2028-01-31"
    },
    {
      "name": "弟子屈町役場牛乳自動販売機",
      "name_kana": "テシカガチョウヤクバギュウニュウジドウハンバイキ",
      "business_type": "③ 乳類販売業",
      "address": "北海道川上郡弟子屈町中央2丁目3番1号",
      "lat": 43.485325,
      "lng": 144.459214,
      "geocoding_level": null,
      "phone": "015-482-2393",
      "license_no": "",
      "license_date": null,
      "expire_date": null
    },
    {
      "name": "Aコープてしかが店　牧場",
      "name_kana": "エーコープテシカガテン　マキバ",
      "business_type": "① 飲食店営業",
      "address": "北海道川上郡弟子屈町中央3丁目7番12号",
      "lat": 43.484787,
      "lng": 144.463379,
      "geocoding_level": null,
      "phone": "015-482-2104",
      "license_no": "3-810",
      "license_date": "2024-03-05",
      "expire_date": "2030-03-31"
    },
    {
      "name": "摩周湖農業協同組合",
      "name_kana": "マシュウコノウギョウキョウドウクミアイ",
      "business_type": "㉔ 麺類製造業",
      "address": "北海道川上郡弟子屈町中央3丁目7-12 JA摩周湖ビル4F",
      "lat": 43.484787,
      "lng": 144.463379,
      "geocoding_level": null,
      "phone": "015-482-3137",
      "license_no": "10-709",
      "license_date": "2025-03-18",
      "expire_date": "2030-03-31"
    },
    {
      "name": "温泉浪漫の宿湯の閣池田屋",
      "name_kana": "オンセンロマンノヤドユノカクイケダヤ",
      "business_type": "① 飲食店営業",
      "address": "北海道川上郡弟子屈町川湯温泉2丁目6番25号",
      "lat": 43.639253,
      "lng": 144.430887,
      "geocoding_level": null,
      "phone": "015-483-2011",
      "license_no": "7-328",
      "license_date": "2021-09-30",
      "expire_date": "2027-09-30"
    },
    {
      "name": "ローソン弟子屈摩周店",
      "name_kana": "ローソンテシカガマシュウテン",
      "business_type": "⑩ コンビニエンスストア",
      "address": "北海道川上郡弟子屈町鈴蘭２丁目４番１号",
      "lat": 43.492873,
      "lng": 144.453451,
      "geocoding_level": null,
      "phone": "",
      "license_no": "",
      "license_date": null,
      "expire_date": null
    },
    {
      "name": "ライフショップ　万代",
      "name_kana": "ライフショップ　マンダイ",
      "business_type": "⑬ その他の食料・飲料販売業",
      "address": "北海道川上郡弟子屈町美留和74番地1",
      "lat": 43.555718,
      "lng": 144.434723,
      "geocoding_level": null,
      "phone": "015-482-2821",
      "license_no": "",
      "license_date": null,
      "expire_date": null
    },
    {
      "name": "てつなぎ工房",
      "name_kana": "テツナギコウボウ",
      "business_type": "⑰ 農産保存食料品製造・加工業",
      "address": "北海道川上郡弟子屈町泉2丁目5番14号",
      "lat": 43.479167,
      "lng": 144.464664,
      "geocoding_level": null,
      "phone": "0154825323",
      "license_no": "",
      "license_date": null,
      "expire_date": null
    },
    {
      "name": "社会福祉法人てつなぎ",
      "name_kana": "シャカイフクシホウジンテツナギ",
      "business_type": "① 飲食店営業",
      "address": "北海道川上郡弟子屈町釧路保健所管内一円",
      "lat": 43.485348,
      "lng": 144.459298,
      "geocoding_level": null,
      "phone": "015-482-1026",
      "license_no": "2-260",
      "license_date": "2022-08-02",
      "expire_date": "2027-08-31"
    },
    {
      "name": "ぬくもり弁当",
      "name_kana": "ヌクモリベントウ",
      "business_type": "① 飲食店営業",
      "address": "北海道川上郡弟子屈町湯の島2丁目2番12号",
      "lat": 43.487657,
      "lng": 144.453215,
      "geocoding_level": null,
      "phone": "015-482-1717",
      "license_no": "10-701",
      "license_date": "2025-03-18",
      "expire_date": "2031-03-31"
    },
    {
      "name": "お多福食堂",
      "name_kana": "オタフクショクドウ",
      "business_type": "① 飲食店営業",
      "address": "北海道川上郡弟子屈町川湯温泉1丁目4番23号",
      "lat": 43.63666,
      "lng": 144.437653,
      "geocoding_level": null,
      "phone": "015-483-2105",
      "license_no": "2098",
      "license_date": "2022-03-07",
      "expire_date": "2027-03-31"
    },
    {
      "name": "セイコーマート川湯",
      "name_kana": "セイコーマートカワユ",
      "business_type": "⑩ コンビニエンスストア",
      "address": "北海道川上郡弟子屈町川湯温泉1丁目57番地",
      "lat": 43.63696,
      "lng": 144.437762,
      "geocoding_level": null,
      "phone": "015-483-5021",
      "license_no": "",
      "license_date": null,
      "expire_date": null
    },
    {
      "name": "弟子屈町学校給食センター",
      "name_kana": "テシカガチョウガッコウキュウショクセンター",
      "business_type": "㉖ 集団給食施設",
      "address": "北海道川上郡弟子屈町美里1-3-2",
      "lat": 43.487974,
      "lng": 144.443404,
      "geocoding_level": null,
      "phone": "0154823204",
      "license_no": "",
      "license_date": null,
      "expire_date": null
    },
    {
      "name": "一般社団法人みちえき摩周直売会",
      "name_kana": "イッパンシャダンホウジンミチエキマシュウチョクバイカイ",
      "business_type": "⑬ その他の食料・飲料販売業",
      "address": "北海道川上郡弟子屈町湯の島３丁目５番５号",
      "lat": 43.492256,
      "lng": 144.447652,
      "geocoding_level": null,
      "phone": "0154822288",
      "license_no": "",
      "license_date": null,
      "expire_date": null
    },
    {
      "name": "一般社団法人みちえき摩周直売会",
      "name_kana": "イッパンシャダンホウジンミチエキマシュウチョクバイカイ",
      "business_type": "① 飲食店営業",
      "address": "北海道川上郡弟子屈町湯の島3丁目5番5号",
      "lat": 43.49243,
      "lng": 144.447689,
      "geocoding_level": null,
      "phone": "015-482-2288",
      "license_no": "2-403",
      "license_date": "2022-09-20",
      "expire_date": "2028-09-30"
    },
    {
      "name": "みちえき摩周直売会　屋外催事場",
      "name_kana": "ミチノエキマシュウチョクバイカイ　オクガイサイジジョウ",
      "business_type": "① 飲食店営業",
      "address": "北海道川上郡弟子屈町釧路保健所管内一円",
      "lat": 43.639504,
      "lng": 144.438941,
      "geocoding_level": null,
      "phone": "0154822288",
      "license_no": "10-36",
      "license_date": "2024-04-19",
      "expire_date": "2029-04-30"
    },
    {
      "name": "神弟技食堂　たけしおじさん",
      "name_kana": "シンテイギショクドウ　タケシオジサン",
      "business_type": "① 飲食店営業",
      "address": "北海道川上郡弟子屈町弟子屈原野419-61 弟子屈カントリークラブハウス内",
      "lat": 43.524244,
      "lng": 144.488299,
      "geocoding_level": null,
      "phone": "090-8638-2626",
      "license_no": "7-537",
      "license_date": "2022-01-18",
      "expire_date": "2028-03-31"
    },
    {
      "name": "ファットリア　リッコ",
      "name_kana": "ファットリア　リッコ",
      "business_type": "㉑ 製茶業",
      "address": "北海道川上郡弟子屈町跡佐登原野６８線87-5",
      "lat": 43.679613,
      "lng": 144.465249,
      "geocoding_level": null,
      "phone": "08055993381",
      "license_no": "",
      "license_date": null,
      "expire_date": null
    },
    {
      "name": "FLOR",
      "name_kana": "フロール",
      "business_type": "① 飲食店営業",
      "address": "北海道川上郡弟子屈町湯の島2丁目1－13",
      "lat": 43.487289,
      "lng": 144.453222,
      "geocoding_level": null,
      "phone": "",
      "license_no": "7-590",
      "license_date": "2022-02-15",
      "expire_date": "2027-03-31"
    },
    {
      "name": "スナック&居酒屋　エンゼル",
      "name_kana": "スナックアンドイザカヤ　エンゼル",
      "business_type": "① 飲食店営業",
      "address": "北海道川上郡弟子屈町川湯温泉1丁目7番2号",
      "lat": 43.638191,
      "lng": 144.439124,
      "geocoding_level": null,
      "phone": "015-483-2377",
      "license_no": "2096",
      "license_date": "2022-03-07",
      "expire_date": "2028-03-31"
    },
    {
      "name": "屈斜路原野ユースゲストハウス",
      "name_kana": "クッシャロゲンヤユースゲストハウス",
      "business_type": "⑯ 水産製品製造業",
      "address": "北海道川上郡弟子屈町屈斜路原野443－1",
      "lat": 43.548181,
      "lng": 144.348129,
      "geocoding_level": null,
      "phone": "015-484-2609",
      "license_no": "2107",
      "license_date": "2022-03-07",
      "expire_date": "2027-03-31"
    },
    {
      "name": "屈斜路原野ユースゲストハウス",
      "name_kana": "クッシャロゲンヤユースゲストハウス",
      "business_type": "① 飲食店営業",
      "address": "北海道川上郡弟子屈町字屈斜路原野443-1",
      "lat": 43.548181,
      "lng": 144.348129,
      "geocoding_level": null,
      "phone": "015-484-2609",
      "license_no": "10-404",
      "license_date": "2024-09-20",
      "expire_date": "2029-09-30"
    },
    {
      "name": "弟子屈JIMBA",
      "name_kana": "テシカガジンバ",
      "business_type": "① 飲食店営業",
      "address": "北海道川上郡弟子屈町中央3-8-3",
      "lat": 43.484426,
      "lng": 144.462219,
      "geocoding_level": null,
      "phone": "08016666387",
      "license_no": "2063-48",
      "license_date": "2022-03-14",
      "expire_date": "2028-03-31"
    },
    {
      "name": "民宿美里",
      "name_kana": "ミンシュクミサト",
      "business_type": "① 飲食店営業",
      "address": "北海道川上郡弟子屈町美里２－１１－１",
      "lat": 43.487974,
      "lng": 144.443404,
      "geocoding_level": null,
      "phone": "",
      "license_no": "2-25",
      "license_date": "2022-04-19",
      "expire_date": "2027-09-30"
    },
    {
      "name": "お宿欣喜湯",
      "name_kana": "オヤドキンキユ",
      "business_type": "① 飲食店営業",
      "address": "北海道川上郡弟子屈町川湯温泉１丁目5-10",
      "lat": 43.637611,
      "lng": 144.43624,
      "geocoding_level": null,
      "phone": "0154832211",
      "license_no": "2",
      "license_date": "2022-04-01",
      "expire_date": "2028-04-01"
    },
    {
      "name": "お宿欣喜湯",
      "name_kana": "オヤドキンキユ",
      "business_type": "⑬ その他の食料・飲料販売業",
      "address": "北海道川上郡弟子屈町川湯温泉1丁目5-10",
      "lat": 43.63758,
      "lng": 144.436229,
      "geocoding_level": null,
      "phone": "015-483-2211",
      "license_no": "",
      "license_date": null,
      "expire_date": null
    },
    {
      "name": "お宿欣喜湯 別邸 すいかずら",
      "name_kana": "オヤドキンキユベッテイスイカズラ",
      "business_type": "① 飲食店営業",
      "address": "北海道川上郡弟子屈町川湯温泉1丁目2番3号",
      "lat": 43.636864,
      "lng": 144.438991,
      "geocoding_level": null,
      "phone": "015-483-2211",
      "license_no": "4-545",
      "license_date": "2026-03-16",
      "expire_date": "2032-03-31"
    },
    {
      "name": "THE ELEMENTAL",
      "name_kana": "ザ　エレメンタル",
      "business_type": "① 飲食店営業",
      "address": "北海道川上郡弟子屈町美留和1-21",
      "lat": 43.571743,
      "lng": 144.408265,
      "geocoding_level": null,
      "phone": "070-2183-9124",
      "license_no": "4-428",
      "license_date": "2025-12-16",
      "expire_date": "2032-03-31"
    },
    {
      "name": "TAPKOP",
      "name_kana": "タップコップ",
      "business_type": "① 飲食店営業",
      "address": "北海道川上郡弟子屈町屈斜路181",
      "lat": 43.554918,
      "lng": 144.347104,
      "geocoding_level": null,
      "phone": "09097534704",
      "license_no": "2-168",
      "license_date": "2022-06-16",
      "expire_date": "2028-09-30"
    },
    {
      "name": "Chip Hop Cafe",
      "name_kana": "チップホップカフェ",
      "business_type": "① 飲食店営業",
      "address": "北海道川上郡弟子屈町川湯温泉2丁目2-6",
      "lat": 43.636662,
      "lng": 144.433773,
      "geocoding_level": null,
      "phone": "",
      "license_no": "2-33",
      "license_date": "2022-04-22",
      "expire_date": "2027-09-30"
    },
    {
      "name": "THINK'A 弟子屈店",
      "name_kana": "シンカ テシカガテン",
      "business_type": "① 飲食店営業",
      "address": "北海道川上郡弟子屈町弟子屈原野465-2",
      "lat": 43.52349,
      "lng": 144.532276,
      "geocoding_level": null,
      "phone": "015-486-7135",
      "license_no": "2-149",
      "license_date": "2022-06-02",
      "expire_date": "2028-09-30"
    },
    {
      "name": "Ｓｗｅｅｔ　Ｐｌａｚａ　摩周２丁目",
      "name_kana": "スイートプラザマシュウニチョウメ",
      "business_type": "⑬ その他の食料・飲料販売業",
      "address": "北海道川上郡弟子屈町摩周2-3-1",
      "lat": 43.498231,
      "lng": 144.45524,
      "geocoding_level": null,
      "phone": "0154825566",
      "license_no": "",
      "license_date": null,
      "expire_date": null
    },
    {
      "name": "長谷製菓",
      "name_kana": "ハセセイカ",
      "business_type": "⑪ 菓子製造業",
      "address": "北海道川上郡弟子屈町摩周2丁目4-7",
      "lat": 43.498943,
      "lng": 144.456049,
      "geocoding_level": null,
      "phone": "015-482-1212",
      "license_no": "4-274",
      "license_date": "2025-09-08",
      "expire_date": "2031-09-30"
    },
    {
      "name": "特別養護老人ホーム摩周・養護老人ホーム倖和園事業所",
      "name_kana": "トクベツヨウゴロウジンホームマシュウ ヨウゴロウジンホームコウワエンジギョウショ",
      "business_type": "① 飲食店営業",
      "address": "北海道川上郡弟子屈町泉2丁目3番7－2",
      "lat": 43.48032,
      "lng": 144.463522,
      "geocoding_level": null,
      "phone": "015-482-2829",
      "license_no": "2-345",
      "license_date": "2022-08-29",
      "expire_date": "2029-09-30"
    },
    {
      "name": "認定こども園ましゅう",
      "name_kana": "ニンテイコドモエンマシュウ",
      "business_type": "① 飲食店営業",
      "address": "北海道川上郡弟子屈町泉1丁目11番1号",
      "lat": 43.48269,
      "lng": 144.461773,
      "geocoding_level": null,
      "phone": "015-482-1010",
      "license_no": "10-718",
      "license_date": "2025-03-24",
      "expire_date": "2031-03-31"
    },
    {
      "name": "いりこ",
      "name_kana": "イリコ",
      "business_type": "① 飲食店営業",
      "address": "北海道川上郡弟子屈町湯の島3丁目3番25号",
      "lat": 43.490795,
      "lng": 144.449565,
      "geocoding_level": null,
      "phone": "015-482-2666",
      "license_no": "2-187",
      "license_date": "2022-06-21",
      "expire_date": "2027-09-30"
    },
    {
      "name": "はらぺこ　はらっ葉",
      "name_kana": "ハラペコ　ハラッパ",
      "business_type": "① 飲食店営業",
      "address": "北海道川上郡弟子屈町奥春別原野123番1",
      "lat": 43.45179,
      "lng": 144.360111,
      "geocoding_level": null,
      "phone": "015-486-9030",
      "license_no": "2-218",
      "license_date": "2022-06-29",
      "expire_date": "2027-09-30"
    },
    {
      "name": "はらぺこ　はらっ葉",
      "name_kana": "ハラペコ　ハラッパ",
      "business_type": "⑪ 菓子製造業",
      "address": "北海道川上郡弟子屈町奥春別原野123番1",
      "lat": 43.45179,
      "lng": 144.360111,
      "geocoding_level": null,
      "phone": "015-486-9030",
      "license_no": "2-218",
      "license_date": "2022-06-29",
      "expire_date": "2027-09-30"
    },
    {
      "name": "レイクサイドリゾートペンション クッシャレラ",
      "name_kana": "レイクサイドリゾートペンション クッシャレラ",
      "business_type": "㉚ 密封包装食品製造業",
      "address": "北海道川上郡弟子屈町屈斜路市街三条通２番地３",
      "lat": 43.566446,
      "lng": 144.309129,
      "geocoding_level": null,
      "phone": "015-486-7866",
      "license_no": "2-249",
      "license_date": "2022-07-27",
      "expire_date": "2027-09-30"
    },
    {
      "name": "レイクサイドリゾートペンション クッシャレラ",
      "name_kana": "レイクサイドリゾートペンション クッシャレラ",
      "business_type": "① 飲食店営業",
      "address": "北海道川上郡弟子屈町屈斜路市街三条通２番地３",
      "lat": 43.566446,
      "lng": 144.309129,
      "geocoding_level": null,
      "phone": "015-486-7866",
      "license_no": "4-131",
      "license_date": "2025-06-16",
      "expire_date": "2030-09-30"
    },
    {
      "name": "レイクサイドリゾートペンション クッシャレラ",
      "name_kana": "レイクサイドリゾートペンション クッシャレラ",
      "business_type": "⑪ 菓子製造業",
      "address": "北海道川上郡弟子屈町屈斜路市街三条通２番地３",
      "lat": 43.566446,
      "lng": 144.309129,
      "geocoding_level": null,
      "phone": "015-486-7866",
      "license_no": "4-131",
      "license_date": "2025-06-16",
      "expire_date": "2030-09-30"
    },
    {
      "name": "弟子屈町立川湯保育園",
      "name_kana": "テシカガチョウリツカワユホイクエン",
      "business_type": "㉖ 集団給食施設",
      "address": "北海道川上郡弟子屈町川湯温泉4-15-8",
      "lat": 43.642,
      "lng": 144.443764,
      "geocoding_level": null,
      "phone": "015-486-9101",
      "license_no": "",
      "license_date": null,
      "expire_date": null
    },
    {
      "name": "もっきり家",
      "name_kana": "モッキリヤ",
      "business_type": "① 飲食店営業",
      "address": "北海道川上郡弟子屈町営業計画書に基づく釧路保健所管内一円",
      "lat": 43.485348,
      "lng": 144.459298,
      "geocoding_level": null,
      "phone": "",
      "license_no": "2-355",
      "license_date": "2022-09-01",
      "expire_date": "2027-08-31"
    },
    {
      "name": "極寒ARt カフェ＆バー",
      "name_kana": "ゴッカンアート カフェアンドバー",
      "business_type": "① 飲食店営業",
      "address": "北海道川上郡弟子屈町川湯温泉3丁目2番40号",
      "lat": 43.638814,
      "lng": 144.437117,
      "geocoding_level": null,
      "phone": "080-3830-0202",
      "license_no": "2-376",
      "license_date": "2022-09-13",
      "expire_date": "2027-09-30"
    },
    {
      "name": "森のホール",
      "name_kana": "モリノホール",
      "business_type": "① 飲食店営業",
      "address": "北海道川上郡弟子屈町川湯駅前2丁目30番",
      "lat": 43.618293,
      "lng": 144.457581,
      "geocoding_level": null,
      "phone": "015-483-2906",
      "license_no": "2-377",
      "license_date": "2022-09-13",
      "expire_date": "2028-09-30"
    },
    {
      "name": "オーチャードグラス",
      "name_kana": "オーチャードグラス",
      "business_type": "① 飲食店営業",
      "address": "北海道川上郡弟子屈町川湯駅前1丁目1番",
      "lat": 43.615815,
      "lng": 144.457395,
      "geocoding_level": null,
      "phone": "015-483-3787",
      "license_no": "2-378",
      "license_date": "2022-09-13",
      "expire_date": "2028-09-30"
    },
    {
      "name": "森のホール",
      "name_kana": "モリノホール",
      "business_type": "⑪ 菓子製造業",
      "address": "北海道川上郡弟子屈町川湯駅前2丁目29,30番",
      "lat": 43.618293,
      "lng": 144.457581,
      "geocoding_level": null,
      "phone": "015-483-2906",
      "license_no": "3-808",
      "license_date": "2024-03-05",
      "expire_date": "2030-03-31"
    },
    {
      "name": "PANAPANA",
      "name_kana": "パナパナ",
      "business_type": "⑪ 菓子製造業",
      "address": "北海道川上郡弟子屈町川湯駅前1丁目1-14",
      "lat": 43.616379,
      "lng": 144.457342,
      "geocoding_level": null,
      "phone": "015-483-3188",
      "license_no": "2-380",
      "license_date": "2022-09-13",
      "expire_date": "2028-09-30"
    },
    {
      "name": "ホテル開コウ",
      "name_kana": "ホテルカイコウ",
      "business_type": "① 飲食店営業",
      "address": "北海道川上郡弟子屈町川湯温泉2丁目6-30",
      "lat": 43.639643,
      "lng": 144.430078,
      "geocoding_level": null,
      "phone": "015-483-2318",
      "license_no": "2-379",
      "license_date": "2022-09-13",
      "expire_date": "2027-09-30"
    },
    {
      "name": "そば処　東家",
      "name_kana": "ソバドコロ　アズマヤ",
      "business_type": "① 飲食店営業",
      "address": "北海道川上郡弟子屈町川湯温泉1丁目5番52号",
      "lat": 43.637093,
      "lng": 144.437176,
      "geocoding_level": null,
      "phone": "015-483-3644",
      "license_no": "2-375",
      "license_date": "2022-09-13",
      "expire_date": "2027-09-30"
    },
    {
      "name": "株式会社西澤商店",
      "name_kana": "カブシキガイシャニシザワショウテン",
      "business_type": "⑬ その他の食料・飲料販売業",
      "address": "北海道川上郡弟子屈町川湯駅前2丁目1番6号",
      "lat": 43.616778,
      "lng": 144.456771,
      "geocoding_level": null,
      "phone": "",
      "license_no": "",
      "license_date": null,
      "expire_date": null
    },
    {
      "name": "シカマルシェ",
      "name_kana": "シカマルシェ",
      "business_type": "⑨ 食肉処理業",
      "address": "北海道川上郡弟子屈町字奥春別原野45線西101-22",
      "lat": 43.466828,
      "lng": 144.35254,
      "geocoding_level": null,
      "phone": "070-6633-6655",
      "license_no": "2-399",
      "license_date": "2022-09-20",
      "expire_date": "2028-09-30"
    },
    {
      "name": "ぽらりす",
      "name_kana": "ポラリス",
      "business_type": "① 飲食店営業",
      "address": "北海道川上郡弟子屈町字札友内原野52線30番地3",
      "lat": 43.525254,
      "lng": 144.402781,
      "geocoding_level": null,
      "phone": "015-482-2622",
      "license_no": "2-396",
      "license_date": "2022-09-20",
      "expire_date": "2028-09-30"
    },
    {
      "name": "菅野旅館",
      "name_kana": "カンノリョカン",
      "business_type": "① 飲食店営業",
      "address": "北海道川上郡弟子屈町中央3丁目8-5",
      "lat": 43.48494,
      "lng": 144.462593,
      "geocoding_level": null,
      "phone": "015-482-2203",
      "license_no": "2-395",
      "license_date": "2022-09-20",
      "expire_date": "2027-09-30"
    },
    {
      "name": "ぢぢカヌー",
      "name_kana": "ヂヂカヌー",
      "business_type": "① 飲食店営業",
      "address": "北海道川上郡弟子屈町屈斜路市街3条通り11-1",
      "lat": 43.566446,
      "lng": 144.309129,
      "geocoding_level": null,
      "phone": "015-484-2808",
      "license_no": "2-400",
      "license_date": "2022-09-20",
      "expire_date": "2027-09-30"
    },
    {
      "name": "両国食堂",
      "name_kana": "リョウゴクショクドウ",
      "business_type": "① 飲食店営業",
      "address": "北海道川上郡弟子屈町中央2丁目9-6",
      "lat": 43.484865,
      "lng": 144.459123,
      "geocoding_level": null,
      "phone": "015-482-3064",
      "license_no": "2-401",
      "license_date": "2022-09-20",
      "expire_date": "2027-09-30"
    },
    {
      "name": "民宿　はとや",
      "name_kana": "ミンシュク　ハトヤ",
      "business_type": "① 飲食店営業",
      "address": "北海道川上郡弟子屈町湯の島1丁目1-3",
      "lat": 43.488139,
      "lng": 144.454368,
      "geocoding_level": null,
      "phone": "015-482-2040",
      "license_no": "2-402",
      "license_date": "2022-09-20",
      "expire_date": "2027-09-30"
    },
    {
      "name": "コナモノヤ",
      "name_kana": "コナモノヤ",
      "business_type": "⑪ 菓子製造業",
      "address": "北海道川上郡弟子屈町泉4丁目8番13号",
      "lat": 43.475643,
      "lng": 144.46731,
      "geocoding_level": null,
      "phone": "",
      "license_no": "2-394",
      "license_date": "2022-09-16",
      "expire_date": "2028-09-30"
    },
    {
      "name": "スナック　アムール",
      "name_kana": "スナック　アムール",
      "business_type": "① 飲食店営業",
      "address": "北海道川上郡弟子屈町湯の島2丁目1-15",
      "lat": 43.487365,
      "lng": 144.453448,
      "geocoding_level": null,
      "phone": "015-482-5023",
      "license_no": "2-390",
      "license_date": "2022-09-16",
      "expire_date": "2027-09-30"
    },
    {
      "name": "和風スナック　からまつ",
      "name_kana": "ワフウスナック　カラマツ",
      "business_type": "① 飲食店営業",
      "address": "北海道川上郡弟子屈町湯の島2丁目8-23",
      "lat": 43.48799,
      "lng": 144.453024,
      "geocoding_level": null,
      "phone": "090-3019-6524",
      "license_no": "2-391",
      "license_date": "2023-10-30",
      "expire_date": "2029-03-31"
    },
    {
      "name": "屈斜路湖物語　丸木舟",
      "name_kana": "クッシャロコモノガタリ　マルキブネ",
      "business_type": "① 飲食店営業",
      "address": "北海道川上郡弟子屈町屈斜路市街二条通49番地1",
      "lat": 43.764284,
      "lng": 142.368144,
      "geocoding_level": null,
      "phone": "015-484-2644",
      "license_no": "2-392",
      "license_date": "2022-09-16",
      "expire_date": "2028-09-30"
    },
    {
      "name": "らぁめん鶏ノ雫",
      "name_kana": "ラァメントリノシズク",
      "business_type": "① 飲食店営業",
      "address": "北海道川上郡弟子屈町川湯温泉1-4-27",
      "lat": 43.636257,
      "lng": 144.437924,
      "geocoding_level": null,
      "phone": "070-8371-1025",
      "license_no": "2-40",
      "license_date": "2026-04-24",
      "expire_date": "2032-09-30"
    },
    {
      "name": "有限会社ホットライスフーズほかほか弁当",
      "name_kana": "ユウゲンガイシャホットライスフーズホカホカベントウ",
      "business_type": "⑥ 弁当販売業",
      "address": "北海道川上郡弟子屈町美里４丁目９番９号",
      "lat": 26.350408,
      "lng": 127.814659,
      "geocoding_level": null,
      "phone": "0154821759",
      "license_no": "",
      "license_date": null,
      "expire_date": null
    },
    {
      "name": "（有）ホットライスフーズ",
      "name_kana": "ユウゲンガイシャ　ホットライスフーズ",
      "business_type": "① 飲食店営業",
      "address": "北海道川上郡弟子屈町美里4丁目9番9号",
      "lat": 43.491138,
      "lng": 144.44348,
      "geocoding_level": null,
      "phone": "0154821759",
      "license_no": "10-210",
      "license_date": "2024-06-04",
      "expire_date": "2029-09-30"
    },
    {
      "name": "北愛本舗株式会社　ミネラルウォーター工場",
      "name_kana": "ホクアイホンポカブシキガイシャ　ミネラルウォーターコウジョウ",
      "business_type": "⑭ 清涼飲料水製造業",
      "address": "北海道川上郡弟子屈町字熊牛原野26線東2-7",
      "lat": 35.65353,
      "lng": 139.710045,
      "geocoding_level": null,
      "phone": "015-482-6088",
      "license_no": "2-409",
      "license_date": "2022-09-27",
      "expire_date": "2027-09-30"
    },
    {
      "name": "牧之瀬牧場",
      "name_kana": "マキノセボクジョウ",
      "business_type": "⑦ 乳処理業",
      "address": "北海道川上郡弟子屈町中央1-5-22",
      "lat": 43.486549,
      "lng": 144.456428,
      "geocoding_level": null,
      "phone": "",
      "license_no": "10-524",
      "license_date": "2024-11-15",
      "expire_date": "2030-03-31"
    },
    {
      "name": "牧之瀬牧場",
      "name_kana": "マキノセボクジョウ",
      "business_type": "⑬ その他の食料・飲料販売業",
      "address": "北海道川上郡弟子屈町字弟子屈原野40線東21-7",
      "lat": 43.52349,
      "lng": 144.532276,
      "geocoding_level": null,
      "phone": "",
      "license_no": "",
      "license_date": null,
      "expire_date": null
    },
    {
      "name": "餃子工房　昇龍軒",
      "name_kana": "ギョウザコウボウ　ショウリュウケン",
      "business_type": "㉗ 冷凍食品製造業",
      "address": "北海道川上郡弟子屈町摩周1丁目６-9",
      "lat": 43.498098,
      "lng": 144.454643,
      "geocoding_level": null,
      "phone": "05014803141",
      "license_no": "2-555",
      "license_date": "2022-11-24",
      "expire_date": "2029-03-31"
    },
    {
      "name": "冷凍自販機",
      "name_kana": "レイトウジハンキ",
      "business_type": "⑫ 自動販売機による販売業（コップ式自動販売機（自動洗浄・屋内設置）及び営業許可の対象となる自動販売機を除く）",
      "address": "北海道川上郡弟子屈町摩周１丁目６-9",
      "lat": 43.498098,
      "lng": 144.454643,
      "geocoding_level": null,
      "phone": "05014803141",
      "license_no": "",
      "license_date": null,
      "expire_date": null
    },
    {
      "name": "株式会社Casual chinese kitchen昇龍軒",
      "name_kana": "カブシキガイシャカジュアル チャイニーズ キッチンショウリュウケン",
      "business_type": "① 飲食店営業",
      "address": "北海道川上郡弟子屈町摩周1丁目6番9号",
      "lat": 43.498098,
      "lng": 144.454643,
      "geocoding_level": null,
      "phone": "050-1480-3141",
      "license_no": "2-751",
      "license_date": "2023-03-13",
      "expire_date": "2028-03-31"
    },
    {
      "name": "WAKKA　TOMARI",
      "name_kana": "ワッカ　トマリ",
      "business_type": "① 飲食店営業",
      "address": "北海道川上郡弟子屈町美留和1-204",
      "lat": 43.602851,
      "lng": 144.351496,
      "geocoding_level": null,
      "phone": "015-486-7271",
      "license_no": "3-839",
      "license_date": "2024-03-15",
      "expire_date": "2030-03-31"
    },
    {
      "name": "Bakery&Cafe miriya(美森家)",
      "name_kana": "ベーカリーアンドカフェ　ミリヤ",
      "business_type": "① 飲食店営業",
      "address": "北海道川上郡弟子屈町川湯温泉5丁目3-32",
      "lat": 43.638449,
      "lng": 144.442933,
      "geocoding_level": null,
      "phone": "",
      "license_no": "4-279",
      "license_date": "2025-09-10",
      "expire_date": "2031-09-30"
    },
    {
      "name": "すずめ食堂＆バル",
      "name_kana": "スズメショクドウアンドバル",
      "business_type": "① 飲食店営業",
      "address": "北海道川上郡弟子屈町川湯温泉3丁目1-1",
      "lat": 43.638144,
      "lng": 144.436175,
      "geocoding_level": null,
      "phone": "015-486-7380",
      "license_no": "2-635",
      "license_date": "2023-01-20",
      "expire_date": "2029-03-31"
    },
    {
      "name": "工房一丁目",
      "name_kana": "コウボウイッチョウメ",
      "business_type": "① 飲食店営業",
      "address": "北海道川上郡弟子屈町中央1-4-17",
      "lat": 43.486969,
      "lng": 144.45741,
      "geocoding_level": null,
      "phone": "015-486-7699",
      "license_no": "4-546",
      "license_date": "2026-03-16",
      "expire_date": "2032-03-31"
    },
    {
      "name": "工房一丁目",
      "name_kana": "コウボウイッチョウメ",
      "business_type": "⑪ 菓子製造業",
      "address": "北海道川上郡弟子屈町中央1-4-17",
      "lat": 43.486969,
      "lng": 144.45741,
      "geocoding_level": null,
      "phone": "015-486-7699",
      "license_no": "4-546",
      "license_date": "2026-03-16",
      "expire_date": "2032-03-31"
    },
    {
      "name": "旅人宿　あさ寝坊",
      "name_kana": "タビビトヤド　アサネボウ",
      "business_type": "① 飲食店営業",
      "address": "北海道川上郡弟子屈町川湯駅前2-8-2",
      "lat": 43.616357,
      "lng": 144.455759,
      "geocoding_level": null,
      "phone": "015-483-2725",
      "license_no": "2-697",
      "license_date": "2023-02-22",
      "expire_date": "2028-03-31"
    },
    {
      "name": "ゴスペル珈琲店　あい",
      "name_kana": "ゴスペルコーヒーテン　アイ",
      "business_type": "① 飲食店営業",
      "address": "北海道川上郡弟子屈町中央3丁目2番27号",
      "lat": 43.485464,
      "lng": 144.461701,
      "geocoding_level": null,
      "phone": "015-482-4898",
      "license_no": "2-750",
      "license_date": "2023-03-13",
      "expire_date": "2028-03-31"
    },
    {
      "name": "喫茶　遊",
      "name_kana": "キッサ　ユウ",
      "business_type": "① 飲食店営業",
      "address": "北海道川上郡弟子屈町中央1丁目4番16",
      "lat": 43.486935,
      "lng": 144.45758,
      "geocoding_level": null,
      "phone": "015-482-2596",
      "license_no": "2-749",
      "license_date": "2023-03-13",
      "expire_date": "2028-03-31"
    },
    {
      "name": "みずほ",
      "name_kana": "ミズホ",
      "business_type": "① 飲食店営業",
      "address": "北海道川上郡弟子屈町中央1丁目3-14",
      "lat": 43.487099,
      "lng": 144.457859,
      "geocoding_level": null,
      "phone": "015-482-2189",
      "license_no": "2-748",
      "license_date": "2023-03-13",
      "expire_date": "2028-03-31"
    },
    {
      "name": "船木水産",
      "name_kana": "フナキスイサン",
      "business_type": "⑯ 水産製品製造業",
      "address": "北海道川上郡弟子屈町朝日3丁目31-17",
      "lat": 43.488212,
      "lng": 144.469071,
      "geocoding_level": null,
      "phone": "015-482-2300",
      "license_no": "2-754",
      "license_date": "2023-03-13",
      "expire_date": "2028-03-31"
    },
    {
      "name": "東寿司",
      "name_kana": "アズマズシ",
      "business_type": "① 飲食店営業",
      "address": "北海道川上郡弟子屈町湯の島2丁目7-25",
      "lat": 43.488272,
      "lng": 144.452413,
      "geocoding_level": null,
      "phone": "015-482-2433",
      "license_no": "2-752",
      "license_date": "2023-03-13",
      "expire_date": "2029-03-31"
    },
    {
      "name": "Cafe TiKi",
      "name_kana": "カフェ　ティキ",
      "business_type": "① 飲食店営業",
      "address": "北海道川上郡弟子屈町川湯温泉6丁目4-15",
      "lat": 43.636187,
      "lng": 144.449964,
      "geocoding_level": null,
      "phone": "090-6445-5597",
      "license_no": "10-639",
      "license_date": "2025-01-27",
      "expire_date": "2030-03-31"
    },
    {
      "name": "有限会社あぐり",
      "name_kana": "アグリ",
      "business_type": "⑬ その他の食料・飲料販売業",
      "address": "北海道川上郡弟子屈町川湯駅前2丁目6番12号",
      "lat": 43.617489,
      "lng": 144.45561,
      "geocoding_level": null,
      "phone": "",
      "license_no": "",
      "license_date": null,
      "expire_date": null
    },
    {
      "name": "川湯観光ホテル　売店　栗田民芸店",
      "name_kana": "カワユカンコウホテル　バイテン　クリタミンゲイテン",
      "business_type": "⑬ その他の食料・飲料販売業",
      "address": "北海道川上郡弟子屈町川湯温泉1-2-30",
      "lat": 43.636453,
      "lng": 144.439146,
      "geocoding_level": null,
      "phone": "09015257933",
      "license_no": "",
      "license_date": null,
      "expire_date": null
    },
    {
      "name": "poppotei",
      "name_kana": "ポッポテイ",
      "business_type": "③ 乳類販売業",
      "address": "北海道川上郡弟子屈町朝日1丁目7番18号",
      "lat": 35.809159,
      "lng": 139.733948,
      "geocoding_level": null,
      "phone": "",
      "license_no": "",
      "license_date": null,
      "expire_date": null
    },
    {
      "name": "食堂と喫茶　poppotei",
      "name_kana": "ショクドウトキッサ　ポッポテイ",
      "business_type": "① 飲食店営業",
      "address": "北海道川上郡弟子屈町朝日1丁目7番18号",
      "lat": 43.48676,
      "lng": 144.464211,
      "geocoding_level": null,
      "phone": "",
      "license_no": "10-409",
      "license_date": "2024-09-20",
      "expire_date": "2030-09-30"
    },
    {
      "name": "食堂と喫茶　poppotei",
      "name_kana": "ショクドウトキッサ　ポッポテイ",
      "business_type": "㉕ そうざい製造業",
      "address": "北海道川上郡弟子屈町朝日1丁目7番18号",
      "lat": 43.48676,
      "lng": 144.464211,
      "geocoding_level": null,
      "phone": "",
      "license_no": "10-409",
      "license_date": "2024-09-20",
      "expire_date": "2030-09-30"
    },
    {
      "name": "ARINKA",
      "name_kana": "アリンカ",
      "business_type": "① 飲食店営業",
      "address": "北海道川上郡弟子屈町弟子屈原野419番64 Nature Base HotelNUPPUKOTTE",
      "lat": 43.518569,
      "lng": 144.478787,
      "geocoding_level": null,
      "phone": "0154867608",
      "license_no": "3-35",
      "license_date": "2023-04-17",
      "expire_date": "2028-09-30"
    },
    {
      "name": "EZO HOUSE",
      "name_kana": "エゾ ハウス",
      "business_type": "① 飲食店営業",
      "address": "北海道川上郡弟子屈町川湯温泉1丁目5-40",
      "lat": 43.637287,
      "lng": 144.437512,
      "geocoding_level": null,
      "phone": "0154867767",
      "license_no": "3-155",
      "license_date": "2023-05-29",
      "expire_date": "2029-09-30"
    },
    {
      "name": "BB SHEEP COFFEE",
      "name_kana": "ビービーシープコーヒー",
      "business_type": "① 飲食店営業",
      "address": "北海道川上郡弟子屈町摩周2丁目10 くるま館敷地内",
      "lat": 43.498557,
      "lng": 144.456884,
      "geocoding_level": null,
      "phone": "015-486-9376",
      "license_no": "10-396",
      "license_date": "2024-09-13",
      "expire_date": "2030-09-30"
    },
    {
      "name": "BB SHEEP COFFEE",
      "name_kana": "ビービーシープコーヒー",
      "business_type": "⑪ 菓子製造業",
      "address": "北海道川上郡弟子屈町摩周2丁目10 くるま館敷地内",
      "lat": 43.498557,
      "lng": 144.456884,
      "geocoding_level": null,
      "phone": "015-486-9376",
      "license_no": "10-396",
      "license_date": "2024-09-13",
      "expire_date": "2030-09-30"
    },
    {
      "name": "摩周湖ユースホステル",
      "name_kana": "マシュウコユースホステル",
      "business_type": "① 飲食店営業",
      "address": "北海道川上郡弟子屈町字弟子屈原野883",
      "lat": 43.518016,
      "lng": 144.478112,
      "geocoding_level": null,
      "phone": "",
      "license_no": "3-243",
      "license_date": "2023-06-26",
      "expire_date": "2028-09-30"
    },
    {
      "name": "摩周湖ユースホステル",
      "name_kana": "マシュウコユースホステル",
      "business_type": "① 飲食店営業",
      "address": "北海道川上郡弟子屈町釧路保健所管内一円",
      "lat": 43.639504,
      "lng": 144.438941,
      "geocoding_level": null,
      "phone": "",
      "license_no": "3-280",
      "license_date": "2023-07-24",
      "expire_date": "2028-07-31"
    },
    {
      "name": "弟子屈ベース",
      "name_kana": "テシカガベース",
      "business_type": "① 飲食店営業",
      "address": "北海道川上郡弟子屈町仁多12-3",
      "lat": 43.493158,
      "lng": 144.495542,
      "geocoding_level": null,
      "phone": "015-486-9705",
      "license_no": "3-461",
      "license_date": "2023-09-26",
      "expire_date": "2028-09-30"
    },
    {
      "name": "UOTEI RAVO",
      "name_kana": "ウオテイ　ラボ",
      "business_type": "① 飲食店営業",
      "address": "北海道川上郡弟子屈町中央1丁目5番22号",
      "lat": 35.978047,
      "lng": 139.749955,
      "geocoding_level": null,
      "phone": "",
      "license_no": "3-273",
      "license_date": "2023-07-10",
      "expire_date": "2028-09-30"
    },
    {
      "name": "UOTEI RAVO",
      "name_kana": "ウオテイ　ラボ",
      "business_type": "⑯ 水産製品製造業",
      "address": "北海道川上郡弟子屈町中央1丁目5番22号",
      "lat": 35.978047,
      "lng": 139.749955,
      "geocoding_level": null,
      "phone": "",
      "license_no": "3-273",
      "license_date": "2023-07-10",
      "expire_date": "2028-09-30"
    },
    {
      "name": "コタンの里",
      "name_kana": "コタンノサト",
      "business_type": "① 飲食店営業",
      "address": "北海道川上郡弟子屈町屈斜路原野608",
      "lat": 43.506001,
      "lng": 144.282152,
      "geocoding_level": null,
      "phone": "090-8898-8259",
      "license_no": "3-272",
      "license_date": "2023-07-10",
      "expire_date": "2028-09-30"
    },
    {
      "name": "Ｈｏｋｋａｉｄｏ　Ｄｅｓｉｇｎ　ＰＭ合同会社",
      "name_kana": "ホッカイドウデザインピーエム",
      "business_type": "① 飲食店営業",
      "address": "北海道川上郡弟子屈町熊牛原野27線東１",
      "lat": 35.655368,
      "lng": 139.708369,
      "geocoding_level": null,
      "phone": "",
      "license_no": "3-281",
      "license_date": "2023-07-24",
      "expire_date": "2028-09-30"
    },
    {
      "name": "Ｈｏｋｋａｉｄｏ　Ｄｅｓｉｇｎ　ＰＭ合同会社",
      "name_kana": "ホッカイドウデザインピーエム",
      "business_type": "⑪ 菓子製造業",
      "address": "北海道川上郡弟子屈町熊牛原野27線東１",
      "lat": 35.655368,
      "lng": 139.708369,
      "geocoding_level": null,
      "phone": "",
      "license_no": "3-281",
      "license_date": "2023-07-24",
      "expire_date": "2028-09-30"
    },
    {
      "name": "鮨のよこ山",
      "name_kana": "スシノヨコヤマ",
      "business_type": "① 飲食店営業",
      "address": "北海道川上郡弟子屈町中央1-6-29",
      "lat": 43.486865,
      "lng": 144.455404,
      "geocoding_level": null,
      "phone": "",
      "license_no": "3-282",
      "license_date": "2023-07-24",
      "expire_date": "2029-09-30"
    },
    {
      "name": "（株）加藤水産",
      "name_kana": "カブ　カトウスイサン",
      "business_type": "⑯ 水産製品製造業",
      "address": "北海道川上郡弟子屈町川湯温泉5丁目10-6",
      "lat": 43.637801,
      "lng": 144.444962,
      "geocoding_level": null,
      "phone": "015-483-2132",
      "license_no": "7-317",
      "license_date": "2021-09-27",
      "expire_date": "2026-09-30"
    },
    {
      "name": "株式会社加藤水産",
      "name_kana": "カトウスイサン",
      "business_type": "① 魚介類販売業（包装済みの魚介類のみの販売）",
      "address": "北海道川上郡弟子屈町川湯温泉5丁目10番6号",
      "lat": 43.637801,
      "lng": 144.444962,
      "geocoding_level": null,
      "phone": "",
      "license_no": "",
      "license_date": null,
      "expire_date": null
    },
    {
      "name": "株式会社加藤水産",
      "name_kana": "カブシキガイシャカトウスイサン",
      "business_type": "① 飲食店営業",
      "address": "北海道川上郡弟子屈町釧路保健所管内一円",
      "lat": 43.639504,
      "lng": 144.438941,
      "geocoding_level": null,
      "phone": "09016475652",
      "license_no": "10-235",
      "license_date": "2024-06-18",
      "expire_date": "2029-06-30"
    },
    {
      "name": "株式会社加藤水産",
      "name_kana": "カブシキガイシャカトウスイサン",
      "business_type": "③ 食肉販売業",
      "address": "北海道川上郡弟子屈町川湯温泉5丁目10-6",
      "lat": 43.637836,
      "lng": 144.444987,
      "geocoding_level": null,
      "phone": "0154832045",
      "license_no": "10-243",
      "license_date": "2024-06-20",
      "expire_date": "2030-09-30"
    },
    {
      "name": "食事　ふらっと",
      "name_kana": "ショクジ　フラット",
      "business_type": "① 飲食店営業",
      "address": "北海道川上郡弟子屈町桜丘3丁目7番",
      "lat": 43.475352,
      "lng": 144.444872,
      "geocoding_level": null,
      "phone": "090-9517-0067",
      "license_no": "3-445",
      "license_date": "2023-09-25",
      "expire_date": "2028-09-30"
    },
    {
      "name": "旅人宿のんき舎",
      "name_kana": "タビビトヤドノンキシャ",
      "business_type": "① 飲食店営業",
      "address": "北海道川上郡弟子屈町美留和原野63線49番地36号",
      "lat": 43.563945,
      "lng": 144.350529,
      "geocoding_level": null,
      "phone": "015-484-2624",
      "license_no": "3-446",
      "license_date": "2023-09-25",
      "expire_date": "2028-09-25"
    },
    {
      "name": "合同会社　SOMOKUYA",
      "name_kana": "ゴウドウガイシャ　ソモクヤ",
      "business_type": "① 飲食店営業",
      "address": "北海道川上郡弟子屈町字屈斜路198-4",
      "lat": 43.556195,
      "lng": 144.338551,
      "geocoding_level": null,
      "phone": "015-484-3765",
      "license_no": "3-447",
      "license_date": "2023-09-25",
      "expire_date": "2028-09-30"
    },
    {
      "name": "合同会社　SOMOKUYA",
      "name_kana": "ゴウドウガイシャ　ソモクヤ",
      "business_type": "⑪ 菓子製造業",
      "address": "北海道川上郡弟子屈町字屈斜路198-4",
      "lat": 43.556195,
      "lng": 144.338551,
      "geocoding_level": null,
      "phone": "015-484-3765",
      "license_no": "3-447",
      "license_date": "2023-09-25",
      "expire_date": "2028-09-30"
    },
    {
      "name": "香楽園",
      "name_kana": "コウラクエン",
      "business_type": "① 飲食店営業",
      "address": "北海道川上郡弟子屈町中央1丁目6番11号",
      "lat": 43.48672,
      "lng": 144.455897,
      "geocoding_level": null,
      "phone": "015-482-2507",
      "license_no": "3-433",
      "license_date": "2023-09-22",
      "expire_date": "2029-09-30"
    },
    {
      "name": "和琴湖畔キャンプフィールド",
      "name_kana": "ワコトコハンキャンプフィールド",
      "business_type": "① 飲食店営業",
      "address": "北海道川上郡弟子屈町字屈斜路和琴半島",
      "lat": 43.583955,
      "lng": 144.313235,
      "geocoding_level": null,
      "phone": "090-4563-2437",
      "license_no": "3-431",
      "license_date": "2023-09-22",
      "expire_date": "2028-09-30"
    },
    {
      "name": "食の友　一味",
      "name_kana": "ショクノトモ　ヒトミ",
      "business_type": "① 飲食店営業",
      "address": "北海道川上郡弟子屈町湯の島1丁目6番2号",
      "lat": 43.488508,
      "lng": 144.454054,
      "geocoding_level": null,
      "phone": "015-482-1300",
      "license_no": "3-434",
      "license_date": "2023-09-22",
      "expire_date": "2028-09-30"
    },
    {
      "name": "食の友　一味",
      "name_kana": "ショクノトモ　ヒトミ",
      "business_type": "⑯ 水産製品製造業",
      "address": "北海道川上郡弟子屈町湯の島1丁目6番2号",
      "lat": 43.488508,
      "lng": 144.454054,
      "geocoding_level": null,
      "phone": "015-482-1300",
      "license_no": "3-434",
      "license_date": "2023-09-22",
      "expire_date": "2028-09-30"
    },
    {
      "name": "食の友　一味",
      "name_kana": "ショクノトモ　ヒトミ",
      "business_type": "㉙ 漬物製造業",
      "address": "北海道川上郡弟子屈町湯の島1丁目6番2号",
      "lat": 43.488508,
      "lng": 144.454054,
      "geocoding_level": null,
      "phone": "015-482-1300",
      "license_no": "3-434",
      "license_date": "2023-09-22",
      "expire_date": "2028-09-30"
    },
    {
      "name": "居酒屋　縄のれん",
      "name_kana": "イザカヤ　ナワノレン",
      "business_type": "① 飲食店営業",
      "address": "北海道川上郡弟子屈町湯の島2丁目6番1号",
      "lat": 43.487611,
      "lng": 144.4521,
      "geocoding_level": null,
      "phone": "015-482-3829",
      "license_no": "3-435",
      "license_date": "2023-09-22",
      "expire_date": "2028-09-30"
    },
    {
      "name": "ホームスイートホーム",
      "name_kana": "ホームスイートホーム",
      "business_type": "㉕ そうざい製造業",
      "address": "北海道川上郡弟子屈町湯の島2丁目6-1 縄のれん内",
      "lat": 43.487611,
      "lng": 144.4521,
      "geocoding_level": null,
      "phone": "015-482-3829",
      "license_no": "10-695",
      "license_date": "2025-03-12",
      "expire_date": "2030-03-31"
    },
    {
      "name": "喫茶ポプラ",
      "name_kana": "キッサポプラ",
      "business_type": "① 飲食店営業",
      "address": "北海道川上郡弟子屈町中央1丁目6番26号",
      "lat": 43.486558,
      "lng": 144.455556,
      "geocoding_level": null,
      "phone": "015-482-2408",
      "license_no": "3-436",
      "license_date": "2023-09-25",
      "expire_date": "2028-09-30"
    },
    {
      "name": "鳥やき翻車魚",
      "name_kana": "トリヤキマンボウ",
      "business_type": "① 飲食店営業",
      "address": "北海道川上郡弟子屈町湯の島1丁目2番4号",
      "lat": 43.488375,
      "lng": 144.455031,
      "geocoding_level": null,
      "phone": "015-482-3867",
      "license_no": "3-437",
      "license_date": "2023-09-25",
      "expire_date": "2029-09-30"
    },
    {
      "name": "レイクサイドペンション　ぱぴりお",
      "name_kana": "レイクサイドペンション　パピリオ",
      "business_type": "① 飲食店営業",
      "address": "北海道川上郡弟子屈町美留和1番地20号",
      "lat": 43.616863,
      "lng": 144.361468,
      "geocoding_level": null,
      "phone": "015-484-2201",
      "license_no": "3-438",
      "license_date": "2023-09-25",
      "expire_date": "2028-09-30"
    },
    {
      "name": "ざっく安堵ばらん",
      "name_kana": "ザックアンドバラン",
      "business_type": "① 飲食店営業",
      "address": "北海道川上郡弟子屈町川湯温泉1丁目5番43号",
      "lat": 43.637157,
      "lng": 144.437362,
      "geocoding_level": null,
      "phone": "015-483-2580",
      "license_no": "3-441",
      "license_date": "2023-09-25",
      "expire_date": "2028-09-30"
    },
    {
      "name": "",
      "name_kana": "",
      "business_type": "① 飲食店営業",
      "address": "北海道川上郡弟子屈町朝日3丁目18番6号",
      "lat": 43.487416,
      "lng": 144.474191,
      "geocoding_level": null,
      "phone": "015-482-2977",
      "license_no": "3-442",
      "license_date": "2023-09-25",
      "expire_date": "2028-09-30"
    },
    {
      "name": "レストラン樹絵里",
      "name_kana": "レストランジュエリ",
      "business_type": "① 飲食店営業",
      "address": "北海道川上郡弟子屈町鈴蘭2丁目1-1",
      "lat": 43.490169,
      "lng": 144.453461,
      "geocoding_level": null,
      "phone": "0154-82-1112",
      "license_no": "3-449",
      "license_date": "2023-09-25",
      "expire_date": "2028-09-30"
    },
    {
      "name": "フードセラピー　森のいえ",
      "name_kana": "フードセラピー　モリノイエ",
      "business_type": "① 飲食店営業",
      "address": "北海道川上郡弟子屈町字奥春別259-29",
      "lat": 43.480189,
      "lng": 144.3606,
      "geocoding_level": null,
      "phone": "090-2054-3441",
      "license_no": "3-536",
      "license_date": "2023-10-27",
      "expire_date": "2029-03-31"
    },
    {
      "name": "フードセラピー　森のいえ",
      "name_kana": "フードセラピー　モリノイエ",
      "business_type": "⑪ 菓子製造業",
      "address": "北海道川上郡弟子屈町字奥春別259-29",
      "lat": 43.480189,
      "lng": 144.3606,
      "geocoding_level": null,
      "phone": "090-2054-3441",
      "license_no": "3-536",
      "license_date": "2023-10-27",
      "expire_date": "2029-03-31"
    },
    {
      "name": "テシカガマルシェ",
      "name_kana": "テシカガマルシェ",
      "business_type": "③ 食肉販売業",
      "address": "北海道川上郡弟子屈町朝日１丁目３－９",
      "lat": 43.487215,
      "lng": 144.461162,
      "geocoding_level": null,
      "phone": "015-486-9027",
      "license_no": "3-858",
      "license_date": "2024-03-27",
      "expire_date": "2030-03-31"
    },
    {
      "name": "テシカガマルシェ",
      "name_kana": "テシカガマルシェ",
      "business_type": "③ 乳類販売業",
      "address": "北海道川上郡弟子屈町朝日１丁目３－９",
      "lat": 43.487212,
      "lng": 144.461123,
      "geocoding_level": null,
      "phone": "015-486-9027",
      "license_no": "",
      "license_date": null,
      "expire_date": null
    },
    {
      "name": "テシカガマルシェ",
      "name_kana": "テシカガマルシェ",
      "business_type": "⑪ 菓子製造業",
      "address": "北海道川上郡弟子屈町朝日１丁目３－９",
      "lat": 43.487215,
      "lng": 144.461162,
      "geocoding_level": null,
      "phone": "015-486-9027",
      "license_no": "3-858",
      "license_date": "2024-03-27",
      "expire_date": "2030-03-31"
    },
    {
      "name": "チーズ等製造施設",
      "name_kana": "チーズトウセイゾウシセツ",
      "business_type": "⑬ 乳製品製造業",
      "address": "北海道川上郡弟子屈町字弟子屈原野４６線西２－２",
      "lat": 43.52349,
      "lng": 144.532276,
      "geocoding_level": null,
      "phone": "",
      "license_no": "3-723",
      "license_date": "2024-01-22",
      "expire_date": "2030-03-31"
    },
    {
      "name": "テシカガマルシェ",
      "name_kana": "テシカガマルシェ",
      "business_type": "⑬ その他の食料・飲料販売業",
      "address": "北海道川上郡弟子屈町朝日1丁目3番9号",
      "lat": 43.487212,
      "lng": 144.461123,
      "geocoding_level": null,
      "phone": "015-486-9195",
      "license_no": "",
      "license_date": null,
      "expire_date": null
    },
    {
      "name": "海と大地の恵み　居酒屋　でんでん",
      "name_kana": "ウミトダイチノメグミ　イザカヤ　デンデン",
      "business_type": "① 飲食店営業",
      "address": "北海道川上郡弟子屈町湯の島２丁目8-27",
      "lat": 43.488061,
      "lng": 144.452887,
      "geocoding_level": null,
      "phone": "08025902824",
      "license_no": "3-664",
      "license_date": "2023-12-11",
      "expire_date": "2029-03-31"
    },
    {
      "name": "海と大地の恵み　居酒屋でんでん",
      "name_kana": "ウミトダイチノメグミ　イザカヤデンデン",
      "business_type": "① 飲食店営業",
      "address": "北海道川上郡弟子屈町釧路保健所管内一円",
      "lat": 43.485348,
      "lng": 144.459298,
      "geocoding_level": null,
      "phone": "",
      "license_no": "4-176",
      "license_date": "2025-07-09",
      "expire_date": "2030-07-31"
    },
    {
      "name": "屈斜路プリンスホテル　レストラン　ルーペーニュ",
      "name_kana": "クッシャロプリンスホテル　レストラン　ルーペーニュ",
      "business_type": "① 飲食店営業",
      "address": "北海道川上郡弟子屈町字屈斜路336番地1号",
      "lat": 43.586317,
      "lng": 144.272471,
      "geocoding_level": null,
      "phone": "015-484-2165",
      "license_no": "4-285",
      "license_date": "2025-09-11",
      "expire_date": "2031-09-30"
    },
    {
      "name": "",
      "name_kana": "",
      "business_type": "㉑ 酒類製造業",
      "address": "北海道川上郡弟子屈町字弟子屈原野789-3",
      "lat": 43.52349,
      "lng": 144.532276,
      "geocoding_level": null,
      "phone": "09076468551",
      "license_no": "3-420",
      "license_date": "2023-09-15",
      "expire_date": "2028-09-30"
    },
    {
      "name": "セイコーマート　弟子屈美里",
      "name_kana": "セイコーマート　テシカガミサト",
      "business_type": "⑩ コンビニエンスストア",
      "address": "北海道川上郡弟子屈町美里1丁目2-3",
      "lat": 43.485254,
      "lng": 144.448825,
      "geocoding_level": null,
      "phone": "01548-2-8201",
      "license_no": "",
      "license_date": null,
      "expire_date": null
    },
    {
      "name": "セイコーマート　やまな",
      "name_kana": "セイコーマート　ヤマナ",
      "business_type": "⑩ コンビニエンスストア",
      "address": "北海道川上郡弟子屈町摩周2丁目8番6号",
      "lat": 43.499669,
      "lng": 144.455079,
      "geocoding_level": null,
      "phone": "015-482-2004",
      "license_no": "",
      "license_date": null,
      "expire_date": null
    },
    {
      "name": "リラクゼーション　りもら",
      "name_kana": "リラクゼーション　リモラ",
      "business_type": "① 飲食店営業",
      "address": "北海道川上郡弟子屈町営業計画書に基づく釧路保健所管内一円",
      "lat": 43.639504,
      "lng": 144.438941,
      "geocoding_level": null,
      "phone": "",
      "license_no": "3-786",
      "license_date": "2024-02-21",
      "expire_date": "2029-02-28"
    },
    {
      "name": "（有）味楽寿司",
      "name_kana": "ユウゲンガイシャ　ミラクズシ",
      "business_type": "① 飲食店営業",
      "address": "北海道川上郡弟子屈町川湯温泉1丁目5番36号",
      "lat": 43.637486,
      "lng": 144.437296,
      "geocoding_level": null,
      "phone": "015-483-2036",
      "license_no": "3-807",
      "license_date": "2024-03-05",
      "expire_date": "2029-03-31"
    },
    {
      "name": "きらの宿すばる",
      "name_kana": "キラノヤドスバル",
      "business_type": "① 飲食店営業",
      "address": "北海道川上郡弟子屈町美留和原野286番地41",
      "lat": 43.567451,
      "lng": 144.433369,
      "geocoding_level": null,
      "phone": "015-482-2224",
      "license_no": "3-809",
      "license_date": "2024-03-05",
      "expire_date": "2029-03-05"
    },
    {
      "name": "ホテル摩周",
      "name_kana": "ホテルマシュウ",
      "business_type": "① 飲食店営業",
      "address": "北海道川上郡弟子屈町湯の島2丁目3番22号",
      "lat": 43.4875,
      "lng": 144.452842,
      "geocoding_level": null,
      "phone": "015-482-2141",
      "license_no": "3-812",
      "license_date": "2024-03-05",
      "expire_date": "2030-03-31"
    },
    {
      "name": "スナック　カド",
      "name_kana": "スナック　カド",
      "business_type": "① 飲食店営業",
      "address": "北海道川上郡弟子屈町湯の島2丁目1番15号",
      "lat": 43.487365,
      "lng": 144.453448,
      "geocoding_level": null,
      "phone": "015-482-4248",
      "license_no": "3-813",
      "license_date": "2024-03-05",
      "expire_date": "2029-03-31"
    },
    {
      "name": "キングコング",
      "name_kana": "キングコング",
      "business_type": "① 飲食店営業",
      "address": "北海道川上郡弟子屈町湯の島2丁目8番28号",
      "lat": 43.488208,
      "lng": 144.452766,
      "geocoding_level": null,
      "phone": "090-6997-0650",
      "license_no": "3-814",
      "license_date": "2024-03-05",
      "expire_date": "2029-03-31"
    },
    {
      "name": "三香温泉",
      "name_kana": "サンコウオンセン",
      "business_type": "① 飲食店営業",
      "address": "北海道川上郡弟子屈町字屈斜路391番地15",
      "lat": 43.573974,
      "lng": 144.315221,
      "geocoding_level": null,
      "phone": "015-484-2140",
      "license_no": "3-820",
      "license_date": "2024-03-12",
      "expire_date": "2029-03-31"
    },
    {
      "name": "牧之瀬牧場",
      "name_kana": "マキノセボクジョウ",
      "business_type": "⑫ アイスクリーム類製造業",
      "address": "北海道川上郡弟子屈町中央1-5-22",
      "lat": 43.486549,
      "lng": 144.456428,
      "geocoding_level": null,
      "phone": "",
      "license_no": "10-84",
      "license_date": "2024-04-30",
      "expire_date": "2029-09-30"
    },
    {
      "name": "ワークマンハウス弟子屈",
      "name_kana": "ワークマンハウステシカガ",
      "business_type": "① 飲食店営業",
      "address": "北海道川上郡弟子屈町鈴蘭3-1-12 ワークマンハウス弟子屈",
      "lat": 43.494348,
      "lng": 144.453175,
      "geocoding_level": null,
      "phone": "011-206-1305",
      "license_no": "10-576",
      "license_date": "2024-12-02",
      "expire_date": "2031-03-31"
    },
    {
      "name": "ＤＣＭニコット　弟子屈店",
      "name_kana": "ディーシーエムニコット　テシカガテン",
      "business_type": "⑬ その他の食料・飲料販売業",
      "address": "北海道川上郡弟子屈町鈴蘭４－１－３",
      "lat": 43.492337,
      "lng": 144.456225,
      "geocoding_level": null,
      "phone": "01548-2-8600",
      "license_no": "",
      "license_date": null,
      "expire_date": null
    },
    {
      "name": "ひまわり食堂",
      "name_kana": "ヒマワリショクドウ",
      "business_type": "① 飲食店営業",
      "address": "北海道川上郡弟子屈町川湯温泉4丁目15-5",
      "lat": 43.640804,
      "lng": 144.443681,
      "geocoding_level": null,
      "phone": "015-483-2720",
      "license_no": "10-34",
      "license_date": "2024-04-19",
      "expire_date": "2030-09-30"
    },
    {
      "name": "屈斜路カルデラワイナリー",
      "name_kana": "クッシャロカルデラワイナリー",
      "business_type": "① 飲食店営業",
      "address": "北海道川上郡弟子屈町屈斜路329番地3",
      "lat": 43.566446,
      "lng": 144.309129,
      "geocoding_level": null,
      "phone": "",
      "license_no": "10-212",
      "license_date": "2024-06-06",
      "expire_date": "2030-09-30"
    },
    {
      "name": "屈斜路カルデラワイナリー",
      "name_kana": "クッシャロカルデラワイナリー",
      "business_type": "⑭ 清涼飲料水製造業",
      "address": "北海道川上郡弟子屈町屈斜路329番地3",
      "lat": 43.566446,
      "lng": 144.309129,
      "geocoding_level": null,
      "phone": "",
      "license_no": "10-212",
      "license_date": "2024-06-06",
      "expire_date": "2030-09-30"
    },
    {
      "name": "屈斜路カルデラワイナリー",
      "name_kana": "クッシャロカルデラワイナリー",
      "business_type": "㉑ 酒類製造業",
      "address": "北海道川上郡弟子屈町屈斜路329番地3",
      "lat": 43.566446,
      "lng": 144.309129,
      "geocoding_level": null,
      "phone": "",
      "license_no": "10-212",
      "license_date": "2024-06-06",
      "expire_date": "2030-09-30"
    },
    {
      "name": "屈斜路カルデラワイナリー",
      "name_kana": "クッシャロカルデラワイナリー",
      "business_type": "⑬ その他の食料・飲料販売業",
      "address": "北海道川上郡弟子屈町屈斜路329番地3",
      "lat": 43.566446,
      "lng": 144.309129,
      "geocoding_level": null,
      "phone": "",
      "license_no": "",
      "license_date": null,
      "expire_date": null
    },
    {
      "name": "屈斜路カルデラワイナリー",
      "name_kana": "クッシャロカルデラワイナリー",
      "business_type": "⑪ 菓子製造業",
      "address": "北海道川上郡弟子屈町字屈斜路329番地3",
      "lat": 43.566446,
      "lng": 144.309129,
      "geocoding_level": null,
      "phone": "",
      "license_no": "4-171",
      "license_date": "2025-07-07",
      "expire_date": "2031-01-31"
    },
    {
      "name": "ubusuna",
      "name_kana": "ウブスナ",
      "business_type": "⑪ 菓子製造業",
      "address": "北海道川上郡弟子屈町湯の島２丁目8-33",
      "lat": 43.488433,
      "lng": 144.452749,
      "geocoding_level": null,
      "phone": "090-5950-1464",
      "license_no": "10-145",
      "license_date": "2024-05-22",
      "expire_date": "2030-09-30"
    },
    {
      "name": "花音",
      "name_kana": "カノン",
      "business_type": "① 飲食店営業",
      "address": "北海道川上郡弟子屈町サワンチサップ5-8",
      "lat": 43.643614,
      "lng": 144.393426,
      "geocoding_level": null,
      "phone": "015-486-7890",
      "license_no": "10-410",
      "license_date": "2024-09-20",
      "expire_date": "2030-09-30"
    },
    {
      "name": "garone",
      "name_kana": "ガロネ",
      "business_type": "① 飲食店営業",
      "address": "北海道川上郡弟子屈町屈斜路193-5",
      "lat": 43.55446,
      "lng": 144.339427,
      "geocoding_level": null,
      "phone": "080-8517-8268",
      "license_no": "10-310",
      "license_date": "2024-07-29",
      "expire_date": "2029-09-30"
    },
    {
      "name": "GaRone",
      "name_kana": "ガロネ",
      "business_type": "① 飲食店営業",
      "address": "北海道川上郡弟子屈町全道一円（営業基地:川上郡弟子屈町屈斜路193-5）",
      "lat": 43.55446,
      "lng": 144.339427,
      "geocoding_level": null,
      "phone": "",
      "license_no": "4-232",
      "license_date": "2025-08-20",
      "expire_date": "2030-08-31"
    },
    {
      "name": "民宿　ましゅまろ",
      "name_kana": "ミンシュク　マシュマロ",
      "business_type": "① 飲食店営業",
      "address": "北海道川上郡弟子屈町美留和61番地8号",
      "lat": 43.554047,
      "lng": 144.434519,
      "geocoding_level": null,
      "phone": "015-482-2027",
      "license_no": "3-444",
      "license_date": "2023-09-25",
      "expire_date": "2028-09-30"
    },
    {
      "name": "Barndominium PETETOK",
      "name_kana": "バーンドミニウム　ペテトク",
      "business_type": "① 飲食店営業",
      "address": "北海道川上郡弟子屈町屈斜路413-3",
      "lat": 43.576983,
      "lng": 144.309905,
      "geocoding_level": null,
      "phone": "0154-86-7912",
      "license_no": "10-173",
      "license_date": "2024-05-22",
      "expire_date": "2030-05-31"
    },
    {
      "name": "薫風の森KOSO",
      "name_kana": "クンプウノモリ",
      "business_type": "① 飲食店営業",
      "address": "北海道川上郡弟子屈町サワンチサップ9番",
      "lat": 43.643636,
      "lng": 144.397262,
      "geocoding_level": null,
      "phone": "015-483-2545",
      "license_no": "2-374",
      "license_date": "2022-09-13",
      "expire_date": "2028-09-30"
    },
    {
      "name": "なんということだ。",
      "name_kana": "ナントイウコトダ",
      "business_type": "⑬ その他の食料・飲料販売業",
      "address": "北海道川上郡弟子屈町川湯温泉３丁目１番地５ 郵便局川湯支店",
      "lat": 43.638072,
      "lng": 144.435837,
      "geocoding_level": null,
      "phone": "09012907596",
      "license_no": "",
      "license_date": null,
      "expire_date": null
    },
    {
      "name": "なんということだ。",
      "name_kana": "ナントイウコトダ",
      "business_type": "⑬ その他の食料・飲料販売業",
      "address": "北海道川上郡弟子屈町中央３丁目８番地１",
      "lat": 43.484813,
      "lng": 144.462229,
      "geocoding_level": null,
      "phone": "09012907596",
      "license_no": "",
      "license_date": null,
      "expire_date": null
    },
    {
      "name": "ビックリッキー弟子屈",
      "name_kana": "ビックリッキーテシカガ",
      "business_type": "① 飲食店営業",
      "address": "北海道川上郡弟子屈町釧路保健所管内一円",
      "lat": 43.639504,
      "lng": 144.438941,
      "geocoding_level": null,
      "phone": "090-3890-8677",
      "license_no": "10-278",
      "license_date": "2024-07-08",
      "expire_date": "2029-07-31"
    },
    {
      "name": "ユナイト",
      "name_kana": "ユナイト",
      "business_type": "① 飲食店営業",
      "address": "北海道川上郡弟子屈町川湯温泉1丁目−24",
      "lat": 43.63696,
      "lng": 144.437762,
      "geocoding_level": null,
      "phone": "08041180136",
      "license_no": "10-280",
      "license_date": "2024-07-09",
      "expire_date": "2030-09-30"
    },
    {
      "name": "MASHYU　LITTLE　HOUSE",
      "name_kana": "マシュー　リトル　ハウス",
      "business_type": "⑫ 自動販売機による販売業（コップ式自動販売機（自動洗浄・屋内設置）及び営業許可の対象となる自動販売機を除く）",
      "address": "北海道川上郡弟子屈町弟子屈原野465-2",
      "lat": 43.494092,
      "lng": 144.475403,
      "geocoding_level": null,
      "phone": "015-486-9003",
      "license_no": "",
      "license_date": null,
      "expire_date": null
    },
    {
      "name": "アトリエ　ハナエミ",
      "name_kana": "アトリエハナエミ",
      "business_type": "① 飲食店営業",
      "address": "北海道川上郡弟子屈町湯の島3丁目2－3",
      "lat": 43.488857,
      "lng": 144.451878,
      "geocoding_level": null,
      "phone": "090-2056-5922",
      "license_no": "10-315",
      "license_date": "2024-08-07",
      "expire_date": "2029-09-30"
    },
    {
      "name": "道の駅「摩周温泉」",
      "name_kana": "ミチノエキマシュウオンセン",
      "business_type": "⑦ 野菜果物販売業",
      "address": "北海道川上郡弟子屈町川湯温泉3丁目5番5",
      "lat": 43.640681,
      "lng": 144.439618,
      "geocoding_level": null,
      "phone": "090-9523-4301",
      "license_no": "",
      "license_date": null,
      "expire_date": null
    },
    {
      "name": "釧路カレーチキン弟子屈店",
      "name_kana": "クシロカレーチキンテシカガテン",
      "business_type": "① 飲食店営業",
      "address": "北海道川上郡弟子屈町湯の島３丁目1-4",
      "lat": 43.489299,
      "lng": 144.453351,
      "geocoding_level": null,
      "phone": "",
      "license_no": "10-439",
      "license_date": "2024-09-30",
      "expire_date": "2030-09-30"
    },
    {
      "name": "ビジネスホテル泉荘",
      "name_kana": "ビジネスホテルイズミソウ",
      "business_type": "① 飲食店営業",
      "address": "北海道川上郡弟子屈町中央1丁目5-9",
      "lat": 43.48713,
      "lng": 144.456598,
      "geocoding_level": null,
      "phone": "015-482-2415",
      "license_no": "10-411",
      "license_date": "2024-09-20",
      "expire_date": "2029-09-30"
    },
    {
      "name": "カフェ　うりむぅ",
      "name_kana": "カフェウリムゥ",
      "business_type": "① 飲食店営業",
      "address": "北海道川上郡弟子屈町美留和原野315-1",
      "lat": 43.563945,
      "lng": 144.350529,
      "geocoding_level": null,
      "phone": "015-482-6033",
      "license_no": "10-406",
      "license_date": "2024-09-20",
      "expire_date": "2029-09-30"
    },
    {
      "name": "炭火焼　べこの助",
      "name_kana": "スミビヤキ　ベコノスケ",
      "business_type": "① 飲食店営業",
      "address": "北海道川上郡弟子屈町湯の島2丁目2-19",
      "lat": 43.487789,
      "lng": 144.453081,
      "geocoding_level": null,
      "phone": "015-432-5711",
      "license_no": "10-405",
      "license_date": "2024-09-20",
      "expire_date": "2029-09-30"
    },
    {
      "name": "摩周苑",
      "name_kana": "マシュウエン",
      "business_type": "① 飲食店営業",
      "address": "北海道川上郡弟子屈町字熊牛原野31線東36番5号",
      "lat": 43.432087,
      "lng": 144.534713,
      "geocoding_level": null,
      "phone": "015-482-3926",
      "license_no": "10-432",
      "license_date": "2024-09-26",
      "expire_date": "2029-09-30"
    },
    {
      "name": "つじや食堂",
      "name_kana": "ツジヤショクドウ",
      "business_type": "① 飲食店営業",
      "address": "北海道川上郡弟子屈町湯の島3丁目3-37",
      "lat": 43.491793,
      "lng": 144.447085,
      "geocoding_level": null,
      "phone": "015-482-4020",
      "license_no": "10-414",
      "license_date": "2024-09-20",
      "expire_date": "2030-09-30"
    },
    {
      "name": "つじや食堂",
      "name_kana": "ツジヤショクドウ",
      "business_type": "㉗ 冷凍食品製造業",
      "address": "北海道川上郡弟子屈町湯の島3丁目3-37",
      "lat": 43.491793,
      "lng": 144.447085,
      "geocoding_level": null,
      "phone": "015-482-4020",
      "license_no": "4-560",
      "license_date": "2026-03-23",
      "expire_date": "2032-03-31"
    },
    {
      "name": "摩周の森",
      "name_kana": "マシュウノモリ",
      "business_type": "① 飲食店営業",
      "address": "北海道川上郡弟子屈町摩周3-6-1",
      "lat": 43.504723,
      "lng": 144.452146,
      "geocoding_level": null,
      "phone": "090-1899-6567",
      "license_no": "10-416",
      "license_date": "2024-09-20",
      "expire_date": "2029-09-30"
    },
    {
      "name": "カクテル&ドリンク　そろ",
      "name_kana": "カクテルアンドドリンクソロ",
      "business_type": "① 飲食店営業",
      "address": "北海道川上郡弟子屈町湯の島2丁目7番26号",
      "lat": 43.488205,
      "lng": 144.452488,
      "geocoding_level": null,
      "phone": "014-482-2464",
      "license_no": "10-417",
      "license_date": "2024-09-20",
      "expire_date": "2029-09-30"
    },
    {
      "name": "うさの森",
      "name_kana": "ウサノモリ",
      "business_type": "① 飲食店営業",
      "address": "北海道川上郡弟子屈町鐺別原野41-32-4",
      "lat": 43.489514,
      "lng": 144.429748,
      "geocoding_level": null,
      "phone": "080-2878-0386",
      "license_no": "10-413",
      "license_date": "2024-09-20",
      "expire_date": "2029-09-30"
    },
    {
      "name": "キッチン　みちくさ",
      "name_kana": "キッチンミチクサ",
      "business_type": "① 飲食店営業",
      "address": "北海道川上郡弟子屈町中央1丁目6番28",
      "lat": 43.486715,
      "lng": 144.455546,
      "geocoding_level": null,
      "phone": "015-482-2858",
      "license_no": "10-415",
      "license_date": "2024-09-20",
      "expire_date": "2029-09-30"
    },
    {
      "name": "中国料理　青龍",
      "name_kana": "チュウゴクリョウリ　セイリュウ",
      "business_type": "① 飲食店営業",
      "address": "北海道川上郡弟子屈町中央1丁目9-14",
      "lat": 43.486399,
      "lng": 144.458695,
      "geocoding_level": null,
      "phone": "015-482-1152",
      "license_no": "10-418",
      "license_date": "2024-09-20",
      "expire_date": "2030-09-30"
    },
    {
      "name": "株式会社更科商店",
      "name_kana": "カブシキガイシャサラシナショウテン",
      "business_type": "⑪ 菓子製造業",
      "address": "北海道川上郡弟子屈町中央1丁目1-22",
      "lat": 43.487249,
      "lng": 144.455015,
      "geocoding_level": null,
      "phone": "015-482-2212",
      "license_no": "10-412",
      "license_date": "2024-09-20",
      "expire_date": "2030-09-30"
    },
    {
      "name": "こぐま",
      "name_kana": "コグマ",
      "business_type": "① 飲食店営業",
      "address": "北海道川上郡弟子屈町湯の島2丁目2-22",
      "lat": 43.487917,
      "lng": 144.45338,
      "geocoding_level": null,
      "phone": "090-8471-0518",
      "license_no": "10-496",
      "license_date": "2024-10-31",
      "expire_date": "2030-10-31"
    },
    {
      "name": "シカラボ",
      "name_kana": "シカラボ",
      "business_type": "⑨ 食肉処理業",
      "address": "北海道川上郡弟子屈町鈴蘭4丁目9-11",
      "lat": 43.492094,
      "lng": 144.456676,
      "geocoding_level": null,
      "phone": "090-9100-8919",
      "license_no": "10-535",
      "license_date": "2024-11-21",
      "expire_date": "2030-03-31"
    },
    {
      "name": "ユナイト",
      "name_kana": "ユナイト",
      "business_type": "① 飲食店営業",
      "address": "北海道川上郡弟子屈町川湯温泉1丁目4-24",
      "lat": 43.636579,
      "lng": 144.437725,
      "geocoding_level": null,
      "phone": "080-4118-0136",
      "license_no": "10-649",
      "license_date": "2025-01-30",
      "expire_date": "2030-03-31"
    },
    {
      "name": "寺cafe「和み」",
      "name_kana": "テラカフェナゴミ",
      "business_type": "① 飲食店営業",
      "address": "北海道川上郡弟子屈町美里2丁目9-17",
      "lat": 43.484955,
      "lng": 144.443225,
      "geocoding_level": null,
      "phone": "015-482-2439",
      "license_no": "10-707",
      "license_date": "2025-03-18",
      "expire_date": "2030-03-31"
    },
    {
      "name": "ラーメン・カレーの吉松",
      "name_kana": "ラーメン・カレーノヨシマツ",
      "business_type": "① 飲食店営業",
      "address": "北海道川上郡弟子屈町湯の島3-2-5",
      "lat": 43.488875,
      "lng": 144.451658,
      "geocoding_level": null,
      "phone": "015-482-1234",
      "license_no": "10-717",
      "license_date": "2025-03-25",
      "expire_date": "2030-03-31"
    },
    {
      "name": "摩周そば道楽",
      "name_kana": "マシュウソバドウラク",
      "business_type": "① 飲食店営業",
      "address": "北海道川上郡弟子屈町川湯温泉7-5-12",
      "lat": 43.639225,
      "lng": 144.450124,
      "geocoding_level": null,
      "phone": "015-483-2038",
      "license_no": "10-703",
      "license_date": "2025-03-18",
      "expire_date": "2030-03-31"
    },
    {
      "name": "カフェ・バールcovo",
      "name_kana": "カフェ・バールコーヴォ",
      "business_type": "⑪ 菓子製造業",
      "address": "北海道川上郡弟子屈町字札友内89番",
      "lat": 43.530865,
      "lng": 144.413374,
      "geocoding_level": null,
      "phone": "015-482-8557",
      "license_no": "10-702",
      "license_date": "2025-03-18",
      "expire_date": "2030-03-31"
    },
    {
      "name": "cafe bal.covo",
      "name_kana": "カフェバール　コーヴォ",
      "business_type": "① 飲食店営業",
      "address": "北海道川上郡弟子屈町札友内89番",
      "lat": 43.5309,
      "lng": 144.413354,
      "geocoding_level": null,
      "phone": "015-482-8557",
      "license_no": "4-294",
      "license_date": "2025-09-19",
      "expire_date": "2030-09-30"
    },
    {
      "name": "Cafe SOFTWOOD",
      "name_kana": "カフェ　ソフトウッド",
      "business_type": "① 飲食店営業",
      "address": "北海道川上郡弟子屈町川湯温泉2丁目2-6 川湯ビジターセンター　2階",
      "lat": 43.636662,
      "lng": 144.433773,
      "geocoding_level": null,
      "phone": "",
      "license_no": "4-90",
      "license_date": "2025-05-23",
      "expire_date": "2028-09-30"
    },
    {
      "name": "CAFE SOFTWOOD",
      "name_kana": "カフェソフトウッド",
      "business_type": "⑬ その他の食料・飲料販売業",
      "address": "北海道川上郡弟子屈町川湯温泉2丁目2-6川湯ビジターセンター2F",
      "lat": 43.636662,
      "lng": 144.433773,
      "geocoding_level": null,
      "phone": "090-3115-7899",
      "license_no": "",
      "license_date": null,
      "expire_date": null
    },
    {
      "name": "AUN Terrace",
      "name_kana": "アウンテラス",
      "business_type": "① 飲食店営業",
      "address": "北海道川上郡弟子屈町美留和1-536",
      "lat": 43.602851,
      "lng": 144.351496,
      "geocoding_level": null,
      "phone": "090-5497-0013",
      "license_no": "4-59",
      "license_date": "2025-05-01",
      "expire_date": "2031-09-30"
    },
    {
      "name": "nupuricoffee",
      "name_kana": "ヌプリコーヒー",
      "business_type": "⑯ コーヒー製造・加工業（飲料の製造を除く。）",
      "address": "北海道川上郡弟子屈町川湯温泉3-3-11",
      "lat": 43.639924,
      "lng": 144.440067,
      "geocoding_level": null,
      "phone": "",
      "license_no": "",
      "license_date": null,
      "expire_date": null
    },
    {
      "name": "アリスガーデン",
      "name_kana": "アリスガーデン",
      "business_type": "① 飲食店営業",
      "address": "北海道川上郡弟子屈町泉３丁目１３の２０",
      "lat": 43.478887,
      "lng": 144.468213,
      "geocoding_level": null,
      "phone": "",
      "license_no": "4-149",
      "license_date": "2025-06-20",
      "expire_date": "2030-09-30"
    },
    {
      "name": "COFFEE＆REST　ドールハウス",
      "name_kana": "コーヒーアンドレスト　ドールハウス",
      "business_type": "① 飲食店営業",
      "address": "北海道川上郡弟子屈町朝日1丁目5番17号",
      "lat": 43.486771,
      "lng": 144.461083,
      "geocoding_level": null,
      "phone": "090-6876-2367",
      "license_no": "4-182",
      "license_date": "2025-07-18",
      "expire_date": "2031-09-30"
    },
    {
      "name": "ayuruvedahouse　ほっかいどう",
      "name_kana": "アーユルヴェーダハウス　ホッカイドウ",
      "business_type": "① 飲食店営業",
      "address": "北海道川上郡弟子屈町奥春別原野35線83番地1",
      "lat": 43.45179,
      "lng": 144.360111,
      "geocoding_level": null,
      "phone": "080-4251-7461",
      "license_no": "4-192",
      "license_date": "2025-08-01",
      "expire_date": "2030-09-30"
    },
    {
      "name": "ayuruvedahouse　ほっかいどう",
      "name_kana": "アーユルヴェーダハウス　ホッカイドウ",
      "business_type": "⑬ 乳製品製造業",
      "address": "北海道川上郡弟子屈町奥春別原野35線83番地1",
      "lat": 43.45179,
      "lng": 144.360111,
      "geocoding_level": null,
      "phone": "080-4251-7461",
      "license_no": "4-192",
      "license_date": "2025-08-01",
      "expire_date": "2030-09-30"
    },
    {
      "name": "すまいるB",
      "name_kana": "スマイルビー",
      "business_type": "⑦ 野菜果物販売業",
      "address": "北海道川上郡弟子屈町鈴蘭６丁目１番５号",
      "lat": 43.491195,
      "lng": 144.459896,
      "geocoding_level": null,
      "phone": "015-486-7280",
      "license_no": "",
      "license_date": null,
      "expire_date": null
    },
    {
      "name": "すまいるB",
      "name_kana": "スマイルビー",
      "business_type": "⑦ 野菜果物販売業",
      "address": "北海道川上郡弟子屈町湯の島３丁目１番４号",
      "lat": 43.489304,
      "lng": 144.453348,
      "geocoding_level": null,
      "phone": "015-486-7280",
      "license_no": "",
      "license_date": null,
      "expire_date": null
    },
    {
      "name": "豚丼と田舎そば　くまうし",
      "name_kana": "ブタドントイナカソバ　クマウシ",
      "business_type": "① 飲食店営業",
      "address": "北海道川上郡弟子屈町鈴蘭1-8-6",
      "lat": 43.49155,
      "lng": 144.456604,
      "geocoding_level": null,
      "phone": "015-482-2688",
      "license_no": "4-278",
      "license_date": "2025-09-10",
      "expire_date": "2031-09-30"
    },
    {
      "name": "豚丼と田舎そば　くまうし",
      "name_kana": "ブタドントイナカソバ　クマウシ",
      "business_type": "㉗ 冷凍食品製造業",
      "address": "北海道川上郡弟子屈町鈴蘭1-8-6",
      "lat": 43.49155,
      "lng": 144.456604,
      "geocoding_level": null,
      "phone": "015-482-2688",
      "license_no": "4-278",
      "license_date": "2025-09-10",
      "expire_date": "2030-09-30"
    },
    {
      "name": "天然酵母パン工房　Birth",
      "name_kana": "テンネンコウボパンコウボウ　バース",
      "business_type": "⑪ 菓子製造業",
      "address": "北海道川上郡弟子屈町川湯温泉6-10-30",
      "lat": 43.635968,
      "lng": 144.448585,
      "geocoding_level": null,
      "phone": "090-8579-3762",
      "license_no": "4-295",
      "license_date": "2025-09-19",
      "expire_date": "2030-09-30"
    },
    {
      "name": "炭家　石花木金",
      "name_kana": "スミヤ　セッカモクキン",
      "business_type": "③ 食肉販売業",
      "address": "北海道川上郡弟子屈町湯の島2丁目1-13",
      "lat": 43.487299,
      "lng": 144.453219,
      "geocoding_level": null,
      "phone": "015-482-5151",
      "license_no": "4-296",
      "license_date": "2025-09-19",
      "expire_date": "2031-09-30"
    },
    {
      "name": "ホテル　パークウェイ",
      "name_kana": "ホテル　パークウェイ",
      "business_type": "① 飲食店営業",
      "address": "北海道川上郡弟子屈町川湯駅前3丁目2-10",
      "lat": 43.616815,
      "lng": 144.454364,
      "geocoding_level": null,
      "phone": "0154832616",
      "license_no": "4-292",
      "license_date": "2025-09-19",
      "expire_date": "2030-09-30"
    },
    {
      "name": "のつけトドワラ",
      "name_kana": "ノツケトドワラ",
      "business_type": "① 飲食店営業",
      "address": "北海道川上郡弟子屈町中央3丁目2番19号",
      "lat": 43.485165,
      "lng": 144.462182,
      "geocoding_level": null,
      "phone": "0154821484",
      "license_no": "4-291",
      "license_date": "2025-09-19",
      "expire_date": "2030-09-30"
    },
    {
      "name": "炉ばた　まるはち",
      "name_kana": "ロバタ　マルハチ",
      "business_type": "① 飲食店営業",
      "address": "北海道川上郡弟子屈町川湯温泉1丁目5-18",
      "lat": 43.637987,
      "lng": 144.436959,
      "geocoding_level": null,
      "phone": "",
      "license_no": "4-290",
      "license_date": "2025-09-19",
      "expire_date": "2030-09-30"
    },
    {
      "name": "有)加藤物産　味どころ三三五五",
      "name_kana": "ユウゲンガイシャカトウブッサン　アジドコロサンサンゴゴ",
      "business_type": "① 飲食店営業",
      "address": "北海道川上郡弟子屈町川湯温泉1丁目4番10号",
      "lat": 43.636668,
      "lng": 144.437013,
      "geocoding_level": null,
      "phone": "015-483-3355",
      "license_no": "4-293",
      "license_date": "2025-09-19",
      "expire_date": "2030-09-30"
    },
    {
      "name": "味どころ三三五五",
      "name_kana": "アジドコロサンサンゴゴ",
      "business_type": "㉕ そうざい製造業",
      "address": "北海道川上郡弟子屈町川湯温泉1丁目4-10",
      "lat": 43.636668,
      "lng": 144.437013,
      "geocoding_level": null,
      "phone": "015-483-3355",
      "license_no": "4-462",
      "license_date": "2026-01-20",
      "expire_date": "2031-03-31"
    },
    {
      "name": "レイクサイドリゾート　チャトラン",
      "name_kana": "レイクサイドリゾート　チャトラン",
      "business_type": "① 飲食店営業",
      "address": "北海道川上郡弟子屈町屈斜路142-6",
      "lat": 43.574757,
      "lng": 144.276683,
      "geocoding_level": null,
      "phone": "015-484-2024",
      "license_no": "4-297",
      "license_date": "2025-09-19",
      "expire_date": "2030-09-30"
    },