{
  "meta": {
    "updated": 1783568789,
    "sources": [
      {
        "source": "厚生労働省 食品衛生申請等システム（オープンデータ）",
        "license": "公共データ利用規約（第1.0版, PDL1.0）"
      }
    ]
  },
  "data": [
    {
      "name": "社会福祉法人グリーンウッド",
      "name_kana": "シャカイフクシホウジングリーンウッド",
      "business_type": "㉖ 集団給食施設",
      "address": "東京都西多摩郡奥多摩町白丸２６３",
      "lat": 35.811808,
      "lng": 139.113061,
      "geocoding_level": null,
      "phone": "0428833733",
      "license_no": "",
      "license_date": null,
      "expire_date": null
    },
    {
      "name": "momo.",
      "name_kana": "モモドット",
      "business_type": "⑯ コーヒー製造・加工業（飲料の製造を除く。）",
      "address": "東京都西多摩郡奥多摩町小丹波439-1 ブルーインハウス105",
      "lat": 35.816359,
      "lng": 139.14986,
      "geocoding_level": null,
      "phone": "09083713462",
      "license_no": "",
      "license_date": null,
      "expire_date": null
    },
    {
      "name": "四季の家",
      "name_kana": "シキノイエ",
      "business_type": "⑰ 農産保存食料品製造・加工業",
      "address": "東京都西多摩郡奥多摩町白丸313",
      "lat": 35.810637,
      "lng": 139.114154,
      "geocoding_level": null,
      "phone": "0428833365",
      "license_no": "",
      "license_date": null,
      "expire_date": null
    },
    {
      "name": "株式会社山城屋",
      "name_kana": "カブシキガイシャヤマシロヤ",
      "business_type": "⑬ 乳製品製造業",
      "address": "東京都西多摩郡奥多摩町氷川717-3",
      "lat": 35.806077,
      "lng": 139.099613,
      "geocoding_level": null,
      "phone": "",
      "license_no": "５西保生食第１００４号",
      "license_date": "2024-04-15",
      "expire_date": "2031-04-30"
    },
    {
      "name": "株式会社山城屋",
      "name_kana": "カブシキガイシャヤマシロヤ",
      "business_type": "⑯ 水産製品製造業",
      "address": "東京都西多摩郡奥多摩町氷川717-3",
      "lat": 35.806077,
      "lng": 139.099613,
      "geocoding_level": null,
      "phone": "",
      "license_no": "５西保生食第１００３号",
      "license_date": "2024-04-15",
      "expire_date": "2031-04-30"
    },
    {
      "name": "株式会社山城屋",
      "name_kana": "カブシキガイシャヤマシロヤ",
      "business_type": "㉕ そうざい製造業",
      "address": "東京都西多摩郡奥多摩町氷川717-3",
      "lat": 35.806077,
      "lng": 139.099613,
      "geocoding_level": null,
      "phone": "",
      "license_no": "５西保生食第１００２号",
      "license_date": "2024-04-15",
      "expire_date": "2031-04-30"
    },
    {
      "name": "株式会社山城屋",
      "name_kana": "カブシキガイシャヤマシロヤ",
      "business_type": "㉙ 漬物製造業",
      "address": "東京都西多摩郡奥多摩町氷川717-3",
      "lat": 35.806077,
      "lng": 139.099613,
      "geocoding_level": null,
      "phone": "",
      "license_no": "５西保生食第１００１号",
      "license_date": "2024-04-15",
      "expire_date": "2031-04-30"
    },
    {
      "name": "株式会社山城屋",
      "name_kana": "カブシキガイシャヤマシロヤ",
      "business_type": "⑬ その他の食料・飲料販売業",
      "address": "東京都西多摩郡奥多摩町氷川717-3",
      "lat": 35.806077,
      "lng": 139.099613,
      "geocoding_level": null,
      "phone": "",
      "license_no": "",
      "license_date": null,
      "expire_date": null
    },
    {
      "name": "奥多摩ＡＵＢＡ",
      "name_kana": "オクタマアウバ",
      "business_type": "① 飲食店営業",
      "address": "東京都西多摩郡奥多摩町氷川197-5",
      "lat": 35.808453,
      "lng": 139.097328,
      "geocoding_level": null,
      "phone": "",
      "license_no": "6西保生食第348号",
      "license_date": "2024-07-25",
      "expire_date": "2030-07-31"
    },
    {
      "name": "ニュー駄菓子屋サンマ",
      "name_kana": "ニューダガシヤサンマ",
      "business_type": "① 飲食店営業",
      "address": "東京都西多摩郡奥多摩町氷川151-1",
      "lat": 35.808387,
      "lng": 139.098723,
      "geocoding_level": null,
      "phone": "",
      "license_no": "6西保生食第441号",
      "license_date": "2024-09-18",
      "expire_date": "2030-09-30"
    },
    {
      "name": "Alsomitra Jewelrycraft and Cafe",
      "name_kana": "アルソミトラ ジュエリークラフト アンド カフェ",
      "business_type": "① 飲食店営業",
      "address": "東京都西多摩郡奥多摩町氷川1389",
      "lat": 35.806221,
      "lng": 139.094842,
      "geocoding_level": null,
      "phone": "",
      "license_no": "6西保生食第485号",
      "license_date": "2024-09-20",
      "expire_date": "2030-09-30"
    },
    {
      "name": "株式会社FLY HIGH",
      "name_kana": "カブシキガイシャフライ  ハイ",
      "business_type": "⑨ 通信販売・訪問販売による販売業",
      "address": "東京都西多摩郡奥多摩町一円",
      "lat": 35.809502,
      "lng": 139.096059,
      "geocoding_level": null,
      "phone": "",
      "license_no": "",
      "license_date": null,
      "expire_date": null
    }
  ]
}
