{
  "meta": {
    "updated": 1783568789,
    "sources": [
      {
        "source": "厚生労働省 食品衛生申請等システム（オープンデータ）",
        "license": "公共データ利用規約（第1.0版, PDL1.0）"
      }
    ]
  },
  "data": [
    {
      "name": "白州いずみの家",
      "name_kana": "ハクシュウイズミノイエ",
      "business_type": "㉖ 集団給食施設",
      "address": "山梨県北杜市白州町白須8438",
      "lat": 35.816637,
      "lng": 138.307641,
      "geocoding_level": null,
      "phone": "0551-35-3324",
      "license_no": "",
      "license_date": null,
      "expire_date": null
    },
    {
      "name": "ダイソー　オギノ須玉店",
      "name_kana": "ダイソー　オギノスダマテン",
      "business_type": "⑬ その他の食料・飲料販売業",
      "address": "山梨県北杜市須玉町大豆生田字二ツ木　1072番",
      "lat": 35.820659,
      "lng": 139.927719,
      "geocoding_level": null,
      "phone": "",
      "license_no": "",
      "license_date": null,
      "expire_date": null
    },
    {
      "name": "プチコロンブ「カエル亭」",
      "name_kana": "プチコロンブカエルテイ",
      "business_type": "⑯ コーヒー製造・加工業（飲料の製造を除く。）",
      "address": "山梨県北杜市高根町下黒澤1985-1",
      "lat": 35.804108,
      "lng": 138.406305,
      "geocoding_level": null,
      "phone": "090-6485-6632",
      "license_no": "",
      "license_date": null,
      "expire_date": null
    },
    {
      "name": "ツルハドラッグ北杜武川店",
      "name_kana": "ツルハドラッグホクトムカワテン",
      "business_type": "⑪ 百貨店、総合スーパー",
      "address": "山梨県北杜市武川町牧原708-1",
      "lat": 35.781879,
      "lng": 138.388062,
      "geocoding_level": null,
      "phone": "0551-26-0268",
      "license_no": "",
      "license_date": null,
      "expire_date": null
    },
    {
      "name": "ツルハドラッグ北杜須玉店",
      "name_kana": "ツルハドラッグホクトスタマテン",
      "business_type": "⑪ 百貨店、総合スーパー",
      "address": "山梨県北杜市須玉町大豆生田字大免737番",
      "lat": 35.774639,
      "lng": 138.425025,
      "geocoding_level": null,
      "phone": "0551-45-6822",
      "license_no": "",
      "license_date": null,
      "expire_date": null
    },
    {
      "name": "前田",
      "name_kana": "マエダ",
      "business_type": "⑬ その他の食料・飲料販売業",
      "address": "山梨県北杜市白州町白須1630-41",
      "lat": 35.810609,
      "lng": 138.327651,
      "geocoding_level": null,
      "phone": "0551-35-2758",
      "license_no": "",
      "license_date": null,
      "expire_date": null
    },
    {
      "name": "伏見農園",
      "name_kana": "フシミノウエン",
      "business_type": "㉙ その他",
      "address": "山梨県北杜市白州町鳥原1532",
      "lat": 35.832485,
      "lng": 138.307368,
      "geocoding_level": null,
      "phone": "0551-35-3457",
      "license_no": "",
      "license_date": null,
      "expire_date": null
    },
    {
      "name": "みのる荘",
      "name_kana": "ミノルソウ",
      "business_type": "① 飲食店営業",
      "address": "山梨県北杜市高根町箕輪2270-1",
      "lat": 35.821417,
      "lng": 138.426,
      "geocoding_level": null,
      "phone": "",
      "license_no": "山梨県指令中北福第155号-180",
      "license_date": "2021-06-30",
      "expire_date": "2027-06-30"
    },
    {
      "name": "ＪＲ小淵沢駅",
      "name_kana": "ジェイアールコブチザワエキ",
      "business_type": "⑫ 自動販売機による販売業（コップ式自動販売機（自動洗浄・屋内設置）及び営業許可の対象となる自動販売機を除く）",
      "address": "山梨県北杜市小淵沢町1024",
      "lat": 35.863712,
      "lng": 138.316088,
      "geocoding_level": null,
      "phone": "",
      "license_no": "",
      "license_date": null,
      "expire_date": null
    },
    {
      "name": "自家焙煎珈琲豆の店「彩香房」",
      "name_kana": "ジカバイセンコーヒーマメノミセ サイカボウ",
      "business_type": "⑯ コーヒー製造・加工業（飲料の製造を除く。）",
      "address": "山梨県北杜市北杜市小淵沢町上笹尾3261-134",
      "lat": 35.861039,
      "lng": 138.335245,
      "geocoding_level": null,
      "phone": "0551-36-5519",
      "license_no": "",
      "license_date": null,
      "expire_date": null
    },
    {
      "name": "八ヶ岳PA(上り線)",
      "name_kana": "ヤツガタケノボリセン",
      "business_type": "③ 乳類販売業",
      "address": "山梨県北杜市長坂町大八田6817-1",
      "lat": 35.844814,
      "lng": 138.366171,
      "geocoding_level": null,
      "phone": "0551-32-3740",
      "license_no": "",
      "license_date": null,
      "expire_date": null
    },
    {
      "name": "八ヶ岳PA(上り線)",
      "name_kana": "ヤツガタケノボリセン",
      "business_type": "⑦ 野菜果物販売業",
      "address": "山梨県北杜市長坂町大八田6817-1",
      "lat": 35.844814,
      "lng": 138.366171,
      "geocoding_level": null,
      "phone": "0551-32-3740",
      "license_no": "",
      "license_date": null,
      "expire_date": null
    },
    {
      "name": "道の駅はくしゅう",
      "name_kana": "ミチノエキハクシュウ",
      "business_type": "③ 乳類販売業",
      "address": "山梨県北杜市白州町白須1308",
      "lat": 35.810295,
      "lng": 138.331288,
      "geocoding_level": null,
      "phone": "0551-20-4711",
      "license_no": "",
      "license_date": null,
      "expire_date": null
    },
    {
      "name": "道の駅はくしゅう",
      "name_kana": "ミチノエキハクシュウ",
      "business_type": "⑦ 野菜果物販売業",
      "address": "山梨県北杜市白州町白須1308",
      "lat": 35.810295,
      "lng": 138.331288,
      "geocoding_level": null,
      "phone": "0551-20-4711",
      "license_no": "",
      "license_date": null,
      "expire_date": null
    },
    {
      "name": "ケータリングセンター",
      "name_kana": "ケータリングセンター",
      "business_type": "① 飲食店営業",
      "address": "山梨県北杜市大泉町谷戸8741",
      "lat": 35.890647,
      "lng": 138.362211,
      "geocoding_level": null,
      "phone": "0551-38-2336",
      "license_no": "山梨県指令中北福第155号-207",
      "license_date": "2021-07-21",
      "expire_date": "2026-07-31"
    },
    {
      "name": "八ヶ岳PA(下り線)",
      "name_kana": "ヤツガタケクダリセン",
      "business_type": "⑪ 菓子製造業",
      "address": "山梨県北杜市長坂町大八田6811-155",
      "lat": 35.844732,
      "lng": 138.365222,
      "geocoding_level": null,
      "phone": "0551-32-3741",
      "license_no": "山梨県指令中北福第8号-537",
      "license_date": "2024-10-17",
      "expire_date": "2030-10-31"
    },
    {
      "name": "八ヶ岳PA(下り線)",
      "name_kana": "ヤツガタケクダリセン",
      "business_type": "② 食肉販売業（包装済みの食肉のみの販売）",
      "address": "山梨県北杜市長坂町大八田6811-155",
      "lat": 35.844732,
      "lng": 138.365222,
      "geocoding_level": null,
      "phone": "0551-32-3741",
      "license_no": "",
      "license_date": null,
      "expire_date": null
    },
    {
      "name": "八ヶ岳PA(下り線)",
      "name_kana": "ヤツガタケクダリセン",
      "business_type": "③ 乳類販売業",
      "address": "山梨県北杜市長坂町大八田6811-155",
      "lat": 35.844732,
      "lng": 138.365222,
      "geocoding_level": null,
      "phone": "0551-32-3741",
      "license_no": "",
      "license_date": null,
      "expire_date": null
    },
    {
      "name": "八ヶ岳PA(下り線)",
      "name_kana": "ヤツガタケクダリセン",
      "business_type": "⑦ 野菜果物販売業",
      "address": "山梨県北杜市長坂町大八田6811-155",
      "lat": 35.844732,
      "lng": 138.365222,
      "geocoding_level": null,
      "phone": "0551-32-3741",
      "license_no": "",
      "license_date": null,
      "expire_date": null
    },
    {
      "name": "そば処　三分一",
      "name_kana": "ソバドコロサンブイチ",
      "business_type": "① 飲食店営業",
      "address": "山梨県北杜市長坂町小荒間292-1",
      "lat": 35.876162,
      "lng": 138.356533,
      "geocoding_level": null,
      "phone": "0551-32-0058",
      "license_no": "山梨県指令中北福第9号-487",
      "license_date": "2025-10-23",
      "expire_date": "2031-10-31"
    },
    {
      "name": "そば処　三分一",
      "name_kana": "ソバドコロサンブイチ",
      "business_type": "㉔ 麺類製造業",
      "address": "山梨県北杜市長坂町小荒間292-1",
      "lat": 35.876162,
      "lng": 138.356533,
      "geocoding_level": null,
      "phone": "0551-32-0058",
      "license_no": "山梨県指令中北福第9号-487",
      "license_date": "2025-10-23",
      "expire_date": "2031-10-31"
    },
    {
      "name": "そば処　三分一",
      "name_kana": "ソバドコロサンブイチ",
      "business_type": "㉙ 漬物製造業",
      "address": "山梨県北杜市長坂町小荒間292-1",
      "lat": 35.876162,
      "lng": 138.356533,
      "geocoding_level": null,
      "phone": "0551-32-0058",
      "license_no": "山梨県指令中北福第8号-210",
      "license_date": "2024-06-18",
      "expire_date": "2030-10-31"
    },
    {
      "name": "三分一湧水館",
      "name_kana": "サンブイチユウスイカン",
      "business_type": "③ 乳類販売業",
      "address": "山梨県北杜市長坂町小荒間292-1",
      "lat": 35.876108,
      "lng": 138.356835,
      "geocoding_level": null,
      "phone": "0551-32-0058",
      "license_no": "",
      "license_date": null,
      "expire_date": null
    },
    {
      "name": "三分一湧水館",
      "name_kana": "サンブイチユウスイカン",
      "business_type": "⑦ 野菜果物販売業",
      "address": "山梨県北杜市長坂町小荒間292-1",
      "lat": 35.876108,
      "lng": 138.356835,
      "geocoding_level": null,
      "phone": "0551-32-0058",
      "license_no": "",
      "license_date": null,
      "expire_date": null
    },
    {
      "name": "道の駅南きよさと",
      "name_kana": "ミチノエキミナミキヨサト",
      "business_type": "③ 乳類販売業",
      "address": "山梨県北杜市高根町長沢760",
      "lat": 35.865595,
      "lng": 138.431666,
      "geocoding_level": null,
      "phone": "0551-20-7224",
      "license_no": "",
      "license_date": null,
      "expire_date": null
    },
    {
      "name": "道の駅南きよさと",
      "name_kana": "ミチノエキミナミキヨサト",
      "business_type": "⑦ 野菜果物販売業",
      "address": "山梨県北杜市高根町長沢760",
      "lat": 35.865595,
      "lng": 138.431666,
      "geocoding_level": null,
      "phone": "0551-20-7224",
      "license_no": "",
      "license_date": null,
      "expire_date": null
    },
    {
      "name": "尾白の湯",
      "name_kana": "オジラノユ",
      "business_type": "③ 乳類販売業",
      "address": "山梨県北杜市白州町白須8077-1",
      "lat": 35.801736,
      "lng": 138.315172,
      "geocoding_level": null,
      "phone": "0551-35-2800",
      "license_no": "",
      "license_date": null,
      "expire_date": null
    },
    {
      "name": "尾白の湯",
      "name_kana": "オジラノユ",
      "business_type": "⑦ 野菜果物販売業",
      "address": "山梨県北杜市白州町白須8077-1",
      "lat": 35.801736,
      "lng": 138.315172,
      "geocoding_level": null,
      "phone": "0551-35-2800",
      "license_no": "",
      "license_date": null,
      "expire_date": null
    },
    {
      "name": "八ヶ岳PA(上り線)",
      "name_kana": "ヤツガタケピーエーノボリセン",
      "business_type": "① 飲食店営業",
      "address": "山梨県北杜市長坂町大八田山梨県一円(山梨480を61)",
      "lat": 35.833104,
      "lng": 138.383849,
      "geocoding_level": null,
      "phone": "",
      "license_no": "山梨県指令中北福第155号-254",
      "license_date": "2021-07-01",
      "expire_date": "2026-07-31"
    },
    {
      "name": "八ヶ岳PA(下り線)",
      "name_kana": "ヤツガタケピーエークダリセン",
      "business_type": "① 飲食店営業",
      "address": "山梨県北杜市長坂町大八田山梨県一円(山梨480を62)",
      "lat": 35.833104,
      "lng": 138.383849,
      "geocoding_level": null,
      "phone": "",
      "license_no": "山梨県指令中北福第155号-253",
      "license_date": "2021-07-01",
      "expire_date": "2026-07-31"
    },
    {
      "name": "白州・尾白の森名水公園べるが　ソフトクリームショップ",
      "name_kana": "ハクシュウ・オジラノモリメイスイコウエンベルガ　ソフトクリームショップ",
      "business_type": "① 飲食店営業",
      "address": "山梨県北杜市白州町白須8056",
      "lat": 35.798728,
      "lng": 138.312156,
      "geocoding_level": null,
      "phone": "0551-35-4411",
      "license_no": "山梨県指令中北福第155号-325",
      "license_date": "2021-08-31",
      "expire_date": "2027-08-31"
    },
    {
      "name": "白州・尾白の森名水公園べるが",
      "name_kana": "ハクシュウ・オジラノモリメイスイコウエンベルガ",
      "business_type": "⑳ みそ又はしょうゆ製造業",
      "address": "山梨県北杜市白州町白須8056",
      "lat": 35.798728,
      "lng": 138.312156,
      "geocoding_level": null,
      "phone": "0551-35-4411",
      "license_no": "山梨県指令中北福第155号-326",
      "license_date": "2021-08-31",
      "expire_date": "2026-08-31"
    },
    {
      "name": "八ヶ岳PA(上り線)",
      "name_kana": "ヤツガタケノボリセン",
      "business_type": "⑪ 菓子製造業",
      "address": "山梨県北杜市長坂町大八田6817-1",
      "lat": 35.844814,
      "lng": 138.366171,
      "geocoding_level": null,
      "phone": "0551-32-3740",
      "license_no": "山梨県指令中北福第155号-449",
      "license_date": "2021-10-29",
      "expire_date": "2026-10-31"
    },
    {
      "name": "リフレッシュガーデン",
      "name_kana": "リフレッシュガーデン",
      "business_type": "① 飲食店営業",
      "address": "山梨県北杜市高根町長沢山梨県一円(山梨800る460)",
      "lat": 35.871337,
      "lng": 138.426273,
      "geocoding_level": null,
      "phone": "0551-20-7224",
      "license_no": "山梨県指令中北福第1号-265",
      "license_date": "2023-07-21",
      "expire_date": "2028-07-31"
    },
    {
      "name": "べるが森のレストラン",
      "name_kana": "ベルガモリノレストラン",
      "business_type": "① 飲食店営業",
      "address": "山梨県北杜市白州町白須8056",
      "lat": 35.798728,
      "lng": 138.312156,
      "geocoding_level": null,
      "phone": "0551-35-3153",
      "license_no": "山梨県指令中北福第1号-359",
      "license_date": "2023-08-31",
      "expire_date": "2028-08-31"
    },
    {
      "name": "八ヶ岳PA(上り線)",
      "name_kana": "ヤツガタケピーエーノボリセン",
      "business_type": "① 飲食店営業",
      "address": "山梨県北杜市長坂町大八田6817-1",
      "lat": 35.844814,
      "lng": 138.366171,
      "geocoding_level": null,
      "phone": "0551-32-3740",
      "license_no": "山梨県指令中北福第1号-502",
      "license_date": "2023-10-24",
      "expire_date": "2029-10-31"
    },
    {
      "name": "八ヶ岳PA(下り線)",
      "name_kana": "ヤツガタケピーエークダリセン",
      "business_type": "① 飲食店営業",
      "address": "山梨県北杜市長坂町大八田6811-155",
      "lat": 35.844732,
      "lng": 138.365222,
      "geocoding_level": null,
      "phone": "0551-32-3741",
      "license_no": "山梨県指令中北福第1号-501",
      "license_date": "2023-10-24",
      "expire_date": "2029-10-31"
    },
    {
      "name": "道の駅はくしゅう　レストラン",
      "name_kana": "ミチノエキハクシュウ　レストラン",
      "business_type": "① 飲食店営業",
      "address": "山梨県北杜市白州町白須1308 道の駅はくしゅう",
      "lat": 35.810295,
      "lng": 138.331288,
      "geocoding_level": null,
      "phone": "0551-20-4711",
      "license_no": "山梨県指令中北福第9号-353",
      "license_date": "2025-08-13",
      "expire_date": "2031-08-31"
    },
    {
      "name": "サンロード甲陽病院内店",
      "name_kana": "サンロードコウヨウビョウインナイテン",
      "business_type": "⑬ その他の食料・飲料販売業",
      "address": "山梨県北杜市長坂町大八田3954 北杜市立甲陽病院内",
      "lat": 35.831002,
      "lng": 138.384394,
      "geocoding_level": null,
      "phone": "0551-45-6636",
      "license_no": "",
      "license_date": null,
      "expire_date": null
    },
    {
      "name": "クスリのサンロード小淵沢店",
      "name_kana": "クスリノサンロードコブチザワテン",
      "business_type": "③ 乳類販売業",
      "address": "山梨県北杜市小淵沢町3181-1",
      "lat": 35.869738,
      "lng": 138.30947,
      "geocoding_level": null,
      "phone": "0551-45-8662",
      "license_no": "",
      "license_date": null,
      "expire_date": null
    },
    {
      "name": "ケータリングセンター",
      "name_kana": "ケータリングセンター",
      "business_type": "③ 食肉販売業",
      "address": "山梨県北杜市大泉町谷戸8741",
      "lat": 35.890647,
      "lng": 138.362211,
      "geocoding_level": null,
      "phone": "0551-38-2336",
      "license_no": "山梨県指令中北福第155号-207",
      "license_date": "2021-07-21",
      "expire_date": "2026-07-31"
    },
    {
      "name": "株式会社ドーベル",
      "name_kana": "カブシキガイシャドーベル",
      "business_type": "⑤ コップ式自動販売機（自動洗浄・屋内設置）",
      "address": "山梨県北杜市長坂町塚川2427-1",
      "lat": 35.797711,
      "lng": 138.394583,
      "geocoding_level": null,
      "phone": "0551-32-3699",
      "license_no": "",
      "license_date": null,
      "expire_date": null
    },
    {
      "name": "長坂ショピングセンタ-きららシテイ-",
      "name_kana": "ナガサカショッピングセンターキララシティー",
      "business_type": "⑤ コップ式自動販売機（自動洗浄・屋内設置）",
      "address": "山梨県北杜市長坂町大八田160",
      "lat": 35.833094,
      "lng": 138.390865,
      "geocoding_level": null,
      "phone": "0551-32-8111",
      "license_no": "",
      "license_date": null,
      "expire_date": null
    },
    {
      "name": "ケータリングセンター",
      "name_kana": "ケータリングセンター",
      "business_type": "④ 魚介類販売業",
      "address": "山梨県北杜市大泉町谷戸8741",
      "lat": 35.890647,
      "lng": 138.362211,
      "geocoding_level": null,
      "phone": "0551-38-2336",
      "license_no": "山梨県指令中北福第155号-207",
      "license_date": "2021-07-21",
      "expire_date": "2026-07-31"
    },
    {
      "name": "中央自動車道八ヶ岳PA下り外自販機コーナー3CM",
      "name_kana": "チュウオウジドウシャドウ　ヤツガタケ　クダリジハンキコーナー",
      "business_type": "② 調理機能を有する自動販売機（要許可）",
      "address": "山梨県北杜市長坂町大八田6811-155",
      "lat": 35.844732,
      "lng": 138.365222,
      "geocoding_level": null,
      "phone": "0551-32-3741",
      "license_no": "山梨県指令中北福第3号-13",
      "license_date": "2022-04-18",
      "expire_date": "2027-10-31"
    },
    {
      "name": "高根クラインガルテン",
      "name_kana": "タカネクラインガルデン",
      "business_type": "⑰ 農産保存食料品製造・加工業",
      "address": "山梨県北杜市高根町蔵原1655",
      "lat": 35.815839,
      "lng": 138.418336,
      "geocoding_level": null,
      "phone": "0551-20-7211",
      "license_no": "",
      "license_date": null,
      "expire_date": null
    },
    {
      "name": "ペンション　ちろりあんはっと",
      "name_kana": "ペンション　チロリアンハット",
      "business_type": "① 飲食店営業",
      "address": "山梨県北杜市大泉町西井出8240-5165",
      "lat": 35.882961,
      "lng": 138.407491,
      "geocoding_level": null,
      "phone": "0551-38-3323",
      "license_no": "山梨県指令中北福第155号-85",
      "license_date": "2021-07-12",
      "expire_date": "2027-07-31"
    },
    {
      "name": "わくわく堂",
      "name_kana": "ワクワクドウ",
      "business_type": "① 飲食店営業",
      "address": "山梨県北杜市小淵沢町10209-11",
      "lat": 35.884265,
      "lng": 138.327859,
      "geocoding_level": null,
      "phone": "",
      "license_no": "山梨県指令中北福第155号-151",
      "license_date": "2021-06-11",
      "expire_date": "2027-10-31"
    },
    {
      "name": "わくわく堂",
      "name_kana": "ワクワクドウ",
      "business_type": "㉕ そうざい製造業",
      "address": "山梨県北杜市小淵沢町10209-11",
      "lat": 35.88425,
      "lng": 138.327846,
      "geocoding_level": null,
      "phone": "090-3648-0909",
      "license_no": "山梨県指令中北福第3号-505",
      "license_date": "2022-09-26",
      "expire_date": "2028-10-31"
    },
    {
      "name": "ガスト　須玉インター店",
      "name_kana": "ガストスダマインターテン",
      "business_type": "① 飲食店営業",
      "address": "山梨県北杜市須玉町若神子1908-1",
      "lat": 35.785659,
      "lng": 138.418511,
      "geocoding_level": null,
      "phone": "0551-20-6009",
      "license_no": "山梨県指令中北福第9号-515",
      "license_date": "2025-11-20",
      "expire_date": "2032-10-31"
    },
    {
      "name": "ガスト　須玉インター店",
      "name_kana": "ガストスダマインターテン",
      "business_type": "⑬ その他の食料・飲料販売業",
      "address": "山梨県北杜市須玉町若神子1908-1",
      "lat": 35.785659,
      "lng": 138.418511,
      "geocoding_level": null,
      "phone": "0551-20-6009",
      "license_no": "",
      "license_date": null,
      "expire_date": null
    },
    {
      "name": "バーミヤン　須玉インター店",
      "name_kana": "バーミヤンスダマインターテン",
      "business_type": "① 飲食店営業",
      "address": "山梨県北杜市須玉町若神子字小林3124-1",
      "lat": 35.790205,
      "lng": 138.416288,
      "geocoding_level": null,
      "phone": "0551-20-6177",
      "license_no": "山梨県指令中北福第9号-512",
      "license_date": "2025-11-20",
      "expire_date": "2032-10-31"
    },
    {
      "name": "バーミヤン　須玉インター店",
      "name_kana": "バーミヤンスダマインターテン",
      "business_type": "⑬ その他の食料・飲料販売業",
      "address": "山梨県北杜市須玉町若神子字小林3124-1",
      "lat": 35.790205,
      "lng": 138.416288,
      "geocoding_level": null,
      "phone": "0551-20-6177",
      "license_no": "",
      "license_date": null,
      "expire_date": null
    },
    {
      "name": "NOBU SAKAGURA Cellar Door",
      "name_kana": "ノブサカグラドアー",
      "business_type": "① 飲食店営業",
      "address": "山梨県北杜市高根町箕輪1450",
      "lat": 35.826897,
      "lng": 138.42691,
      "geocoding_level": null,
      "phone": "",
      "license_no": "山梨県指令中北福第1号-538",
      "license_date": "2024-02-26",
      "expire_date": "2030-06-30"
    },
    {
      "name": "ベルデ",
      "name_kana": "ベルデ",
      "business_type": "① 飲食店営業",
      "address": "山梨県北杜市高根町村山東割2218-2",
      "lat": 35.843546,
      "lng": 138.42974,
      "geocoding_level": null,
      "phone": "0551-47-4040",
      "license_no": "山梨県指令中北福第155号-74",
      "license_date": "2021-06-21",
      "expire_date": "2026-06-30"
    },
    {
      "name": "Caramel banana",
      "name_kana": "キャラメルバナナ",
      "business_type": "⑪ 菓子製造業",
      "address": "山梨県北杜市高根町清里164-2",
      "lat": 35.89206,
      "lng": 138.474651,
      "geocoding_level": null,
      "phone": "0551-48-3308",
      "license_no": "山梨県指令中北福第155号-166",
      "license_date": "2021-06-30",
      "expire_date": "2026-06-30"
    },
    {
      "name": "ホテル　ハットウォールデン",
      "name_kana": "ホテル　ハットウォールデン",
      "business_type": "⑪ 菓子製造業",
      "address": "山梨県北杜市高根町清里3545",
      "lat": 35.921045,
      "lng": 138.438607,
      "geocoding_level": null,
      "phone": "",
      "license_no": "山梨県指令中北福第155号-167",
      "license_date": "2021-06-21",
      "expire_date": "2026-06-30"
    },
    {
      "name": "ホテル　ハットウォールデン",
      "name_kana": "ホテル　ハットウォールデン",
      "business_type": "㉕ そうざい製造業",
      "address": "山梨県北杜市高根町清里3545",
      "lat": 35.921045,
      "lng": 138.438607,
      "geocoding_level": null,
      "phone": "",
      "license_no": "山梨県指令中北福第155号-167",
      "license_date": "2021-06-21",
      "expire_date": "2026-06-30"
    },
    {
      "name": "ホテル　ハットウォールデン",
      "name_kana": "ホテル　ハットウォールデン",
      "business_type": "㉚ 密封包装食品製造業",
      "address": "山梨県北杜市高根町清里3545",
      "lat": 35.921045,
      "lng": 138.438607,
      "geocoding_level": null,
      "phone": "",
      "license_no": "山梨県指令中北福第155号-167",
      "license_date": "2021-06-21",
      "expire_date": "2026-06-30"
    },
    {
      "name": "萌木の村ロック",
      "name_kana": "モエギノムラロック",
      "business_type": "① 飲食店営業",
      "address": "山梨県北杜市高根町清里3545番地",
      "lat": 35.921176,
      "lng": 138.429169,
      "geocoding_level": null,
      "phone": "0551-20-7551",
      "license_no": "山梨県指令中北福第3号-162",
      "license_date": "2022-06-10",
      "expire_date": "2028-06-30"
    },
    {
      "name": "萌木の村ロック",
      "name_kana": "モエギノムラロック",
      "business_type": "㉑ 酒類製造業",
      "address": "山梨県北杜市高根町清里3545番地",
      "lat": 35.921176,
      "lng": 138.429169,
      "geocoding_level": null,
      "phone": "0551-20-7551",
      "license_no": "山梨県指令中北福第9号-136",
      "license_date": "2025-06-24",
      "expire_date": "2031-06-30"
    },
    {
      "name": "萌木の村ROCK",
      "name_kana": "モエギノムラロック",
      "business_type": "⑱ 調味料製造・加工業",
      "address": "山梨県北杜市高根町清里3545",
      "lat": 35.921045,
      "lng": 138.438607,
      "geocoding_level": null,
      "phone": "0551-48-2521",
      "license_no": "",
      "license_date": null,
      "expire_date": null
    },
    {
      "name": "萌木の村　森のメリーゴーランド",
      "name_kana": "モエギノムラ　モリノメリーゴーランド",
      "business_type": "① 飲食店営業",
      "address": "山梨県北杜市高根町清里3545番地",
      "lat": 35.921176,
      "lng": 138.429169,
      "geocoding_level": null,
      "phone": "080-7243-7477",
      "license_no": "山梨県指令中北福第3号-163",
      "license_date": "2022-06-06",
      "expire_date": "2027-06-30"
    },
    {
      "name": "バー「パーチ」(ホテルハットウォールデン内)",
      "name_kana": "バー　パーチ　ホテルハットウォールデンナイ",
      "business_type": "① 飲食店営業",
      "address": "山梨県北杜市高根町清里3545番地",
      "lat": 35.921045,
      "lng": 138.438607,
      "geocoding_level": null,
      "phone": "0551-48-2131",
      "license_no": "山梨県指令中北福第1号-64",
      "license_date": "2023-06-19",
      "expire_date": "2028-06-30"
    },
    {
      "name": "萌木の村エッセンガルテン",
      "name_kana": "モエギノムラエッセンガルテン",
      "business_type": "① 飲食店営業",
      "address": "山梨県北杜市高根町清里3545番地",
      "lat": 35.921045,
      "lng": 138.438607,
      "geocoding_level": null,
      "phone": "0551-20-7712",
      "license_no": "山梨県指令中北福第8号-158",
      "license_date": "2024-06-12",
      "expire_date": "2030-06-30"
    },
    {
      "name": "萌木の村フードトラック",
      "name_kana": "モエギノムラフードトラック",
      "business_type": "① 飲食店営業",
      "address": "山梨県北杜市高根町清里山梨県一円(山梨800す5366)",
      "lat": 35.917454,
      "lng": 138.434179,
      "geocoding_level": null,
      "phone": "0551-48-3522",
      "license_no": "山梨県指令中北福第8号-482",
      "license_date": "2024-09-06",
      "expire_date": "2029-09-30"
    },
    {
      "name": "ハットウォールデンレストラン　ネスト",
      "name_kana": "ハットウォールデンレストラン　ネスト",
      "business_type": "① 飲食店営業",
      "address": "山梨県北杜市高根町清里3545",
      "lat": 35.921176,
      "lng": 138.429169,
      "geocoding_level": null,
      "phone": "0551-48-2131",
      "license_no": "山梨県指令中北福第9号-121",
      "license_date": "2025-06-24",
      "expire_date": "2031-06-30"
    },
    {
      "name": "萌木の村　広場",
      "name_kana": "モエギノムラ　ヒロバ",
      "business_type": "① 飲食店営業",
      "address": "山梨県北杜市高根町清里3545 萌木の村内",
      "lat": 35.921045,
      "lng": 138.438607,
      "geocoding_level": null,
      "phone": "",
      "license_no": "山梨県指令中北福第155号-154",
      "license_date": "2021-06-21",
      "expire_date": "2026-06-30"
    },
    {
      "name": "我楽舎",
      "name_kana": "ガラクシャ",
      "business_type": "⑪ 菓子製造業",
      "address": "山梨県北杜市高根町下黒澤123",
      "lat": 35.796442,
      "lng": 138.414469,
      "geocoding_level": null,
      "phone": "0551-47-4247",
      "license_no": "山梨県指令中北福第155号-148",
      "license_date": "2021-06-21",
      "expire_date": "2026-06-30"
    },
    {
      "name": "西町食堂",
      "name_kana": "ニシマチショクドウ",
      "business_type": "① 飲食店営業",
      "address": "山梨県北杜市高根町五町田1093",
      "lat": 35.834232,
      "lng": 138.392805,
      "geocoding_level": null,
      "phone": "0551-47-3118",
      "license_no": "山梨県指令中北福第155号-82",
      "license_date": "2021-06-21",
      "expire_date": "2026-06-30"
    },
    {
      "name": "山梨県立北杜高等学校",
      "name_kana": "ヤマナシケンリツホクトコウトウガッコウ",
      "business_type": "⑫ 自動販売機による販売業（コップ式自動販売機（自動洗浄・屋内設置）及び営業許可の対象となる自動販売機を除く）",
      "address": "山梨県北杜市長坂町渋沢1007-19",
      "lat": 35.800303,
      "lng": 138.386144,
      "geocoding_level": null,
      "phone": "0551-20-4025",
      "license_no": "",
      "license_date": null,
      "expire_date": null
    },
    {
      "name": "中央電子株式会社　社員食堂",
      "name_kana": "チュウオウデンシカブシキカイシャ　シャインショクドウ",
      "business_type": "① 飲食店営業",
      "address": "山梨県北杜市明野町三之蔵字大境26-1",
      "lat": 35.742107,
      "lng": 138.449995,
      "geocoding_level": null,
      "phone": "0551-25-6225",
      "license_no": "山梨県指令中北福第8号-707",
      "license_date": "2025-02-27",
      "expire_date": "2031-12-31"
    },
    {
      "name": "AL FRESCO",
      "name_kana": "アル　フレスコ",
      "business_type": "① 飲食店営業",
      "address": "山梨県北杜市小淵沢町129番地1",
      "lat": 35.87008,
      "lng": 138.326303,
      "geocoding_level": null,
      "phone": "0551-36-5121",
      "license_no": "山梨県指令中北福第155号-184",
      "license_date": "2021-06-21",
      "expire_date": "2027-10-31"
    },
    {
      "name": "TEATRO GASTRONOMO",
      "name_kana": "テアトロ　ガストロノーモ",
      "business_type": "① 飲食店営業",
      "address": "山梨県北杜市小淵沢町129番地1",
      "lat": 35.87008,
      "lng": 138.326303,
      "geocoding_level": null,
      "phone": "0551-36-5121",
      "license_no": "山梨県指令中北福第155号-183",
      "license_date": "2021-06-21",
      "expire_date": "2027-10-31"
    },
    {
      "name": "個室ユニット型　特別養護老人ホーム　明山荘",
      "name_kana": "コシツユニットガタ　トクベツヨウゴロウジンホーム　メイザンソウ",
      "business_type": "① 飲食店営業",
      "address": "山梨県北杜市明野町上手520",
      "lat": 35.770851,
      "lng": 138.428968,
      "geocoding_level": null,
      "phone": "0551-25-4192",
      "license_no": "山梨県指令中北福第9号-674",
      "license_date": "2026-02-19",
      "expire_date": "2032-12-31"
    },
    {
      "name": "谷櫻酒造有限会社",
      "name_kana": "タニザクラシュゾウユウゲンカイシャ",
      "business_type": "㉑ 酒類製造業",
      "address": "山梨県北杜市大泉町谷戸2037",
      "lat": 35.860818,
      "lng": 138.383166,
      "geocoding_level": null,
      "phone": "0551-38-2008",
      "license_no": "山梨県指令中北福第155号-163",
      "license_date": "2021-07-26",
      "expire_date": "2026-07-31"
    },
    {
      "name": "ダイヤモンド八ヶ岳美術館ソサエティ　本厨",
      "name_kana": "ダイヤモンドヤツガタケビジュツカンソサエティホンチュウ",
      "business_type": "① 飲食店営業",
      "address": "山梨県北杜市大泉町谷戸字内山5771-84",
      "lat": 35.343599,
      "lng": 136.989013,
      "geocoding_level": null,
      "phone": "0551-38-4891",
      "license_no": "山梨県指令中北福第155号-179",
      "license_date": "2021-07-26",
      "expire_date": "2027-07-31"
    },
    {
      "name": "ダイヤモンド八ヶ岳美術館ソサエティ　喫茶",
      "name_kana": "ダイヤモンドヤツガタケビジュツカンソサエティキッサ",
      "business_type": "① 飲食店営業",
      "address": "山梨県北杜市大泉町谷戸字内山5771-84",
      "lat": 35.343599,
      "lng": 136.989013,
      "geocoding_level": null,
      "phone": "0551-38-4891",
      "license_no": "山梨県指令中北福第155号-178",
      "license_date": "2021-07-26",
      "expire_date": "2027-07-31"
    },
    {
      "name": "観音坂食堂",
      "name_kana": "カンノンザカショクドウ",
      "business_type": "① 飲食店営業",
      "address": "山梨県北杜市高根町村山東割2359-2",
      "lat": 35.844689,
      "lng": 138.433528,
      "geocoding_level": null,
      "phone": "0551-47-3098",
      "license_no": "山梨県指令中北福第155号-193",
      "license_date": "2021-06-25",
      "expire_date": "2027-06-30"
    },
    {
      "name": "そば処　桜木乃舎",
      "name_kana": "ソバドコロ　サクラギノイエ",
      "business_type": "① 飲食店営業",
      "address": "山梨県北杜市高根町下黒澤2045",
      "lat": 35.808695,
      "lng": 138.401372,
      "geocoding_level": null,
      "phone": "0551-45-8166",
      "license_no": "山梨県指令中北福第155号-162",
      "license_date": "2021-06-25",
      "expire_date": "2027-06-30"
    },
    {
      "name": "セブンイレブン長坂インター東",
      "name_kana": "セブンイレブンナガサカインターヒガシ",
      "business_type": "① 飲食店営業",
      "address": "山梨県北杜市高根町五町田1041-1",
      "lat": 35.83495,
      "lng": 138.394937,
      "geocoding_level": null,
      "phone": "0551-30-7021",
      "license_no": "山梨県指令中北福第155号-145",
      "license_date": "2021-06-25",
      "expire_date": "2026-06-30"
    },
    {
      "name": "セブンイレブン長坂インター東",
      "name_kana": "センブンイレブンナガサカインターヒガシ",
      "business_type": "⑩ コンビニエンスストア",
      "address": "山梨県北杜市高根町五町田1041-1",
      "lat": 35.83495,
      "lng": 138.394937,
      "geocoding_level": null,
      "phone": "0551-30-7021",
      "license_no": "",
      "license_date": null,
      "expire_date": null
    },
    {
      "name": "セブン-イレブン北杜村山西割店",
      "name_kana": "セブンイレブンホクトムラヤマニシワリテン",
      "business_type": "① 飲食店営業",
      "address": "山梨県北杜市高根町村山西割51-1",
      "lat": 35.837392,
      "lng": 138.409327,
      "geocoding_level": null,
      "phone": "0551-30-7011",
      "license_no": "山梨県指令中北福第9号-159",
      "license_date": "2025-06-11",
      "expire_date": "2031-06-30"
    },
    {
      "name": "セブン-イレブン北杜村山西割店",
      "name_kana": "セブンイレブンホクトムラヤマニシワリテン",
      "business_type": "⑩ コンビニエンスストア",
      "address": "山梨県北杜市高根町村山西割51-1",
      "lat": 35.837392,
      "lng": 138.409327,
      "geocoding_level": null,
      "phone": "0551-30-7011",
      "license_no": "",
      "license_date": null,
      "expire_date": null
    },
    {
      "name": "Dog in Pension BERNESE",
      "name_kana": "ドックインペンションバーニーズ",
      "business_type": "① 飲食店営業",
      "address": "山梨県北杜市高根町清里3545-3160",
      "lat": 35.890276,
      "lng": 138.437723,
      "geocoding_level": null,
      "phone": "0551-48-3925",
      "license_no": "山梨県指令中北福第155号-99",
      "license_date": "2021-06-25",
      "expire_date": "2027-06-30"
    },
    {
      "name": "ペンション　モンシェリー",
      "name_kana": "ペンション　モンシェリー",
      "business_type": "① 飲食店営業",
      "address": "山梨県北杜市高根町清里3545-3060",
      "lat": 35.890979,
      "lng": 138.435909,
      "geocoding_level": null,
      "phone": "0551-48-3122",
      "license_no": "山梨県指令中北福第155号-100",
      "license_date": "2021-06-25",
      "expire_date": "2026-06-30"
    },
    {
      "name": "ペットリゾート清里",
      "name_kana": "ペットリゾートキヨサト",
      "business_type": "① 飲食店営業",
      "address": "山梨県北杜市高根町清里3545-411",
      "lat": 35.918358,
      "lng": 138.437879,
      "geocoding_level": null,
      "phone": "0551-48-4802",
      "license_no": "山梨県指令中北福第155号-98",
      "license_date": "2021-06-25",
      "expire_date": "2027-06-30"
    },
    {
      "name": "焼肉ハウス　かわせみ亭",
      "name_kana": "ヤキニクハウス　カワセミテイ",
      "business_type": "① 飲食店営業",
      "address": "山梨県北杜市高根町清里3545-1437",
      "lat": 35.918419,
      "lng": 138.439868,
      "geocoding_level": null,
      "phone": "0551-48-3002",
      "license_no": "山梨県指令中北福第155号-96",
      "license_date": "2021-06-25",
      "expire_date": "2026-06-30"
    },
    {
      "name": "ペンション　上昇気流",
      "name_kana": "ペンション　ジョウショウキリュウ",
      "business_type": "① 飲食店営業",
      "address": "山梨県北杜市高根町清里3545-3223",
      "lat": 35.911577,
      "lng": 138.447069,
      "geocoding_level": null,
      "phone": "0551-48-3032",
      "license_no": "山梨県指令中北福第155号-52",
      "license_date": "2021-06-25",
      "expire_date": "2026-06-30"
    },
    {
      "name": "アルチザンパレドオール　ショコラティエ",
      "name_kana": "アルチザンパレドオール　ショコラティエ",
      "business_type": "① 飲食店営業",
      "address": "山梨県北杜市高根町清里3545-931",
      "lat": 35.896097,
      "lng": 138.437592,
      "geocoding_level": null,
      "phone": "0551-48-5381",
      "license_no": "山梨県指令中北福第9号-122",
      "license_date": "2025-06-12",
      "expire_date": "2031-06-30"
    },
    {
      "name": "アルチザンパレドオール　ショコラティエ",
      "name_kana": "アルチザンパレドオール　ショコラティエ",
      "business_type": "⑪ 菓子製造業",
      "address": "山梨県北杜市高根町清里3545-931",
      "lat": 35.896097,
      "lng": 138.437592,
      "geocoding_level": null,
      "phone": "0551-48-5381",
      "license_no": "山梨県指令中北福第155号-149",
      "license_date": "2021-06-25",
      "expire_date": "2027-06-30"
    },
    {
      "name": "うなぎ割烹　きみ川",
      "name_kana": "ウナギカッポウ　キミカワ",
      "business_type": "① 飲食店営業",
      "address": "山梨県北杜市高根町村山北割3089-2",
      "lat": 35.842602,
      "lng": 138.413774,
      "geocoding_level": null,
      "phone": "",
      "license_no": "山梨県指令中北福第155号-157",
      "license_date": "2021-06-30",
      "expire_date": "2026-06-30"
    },
    {
      "name": "高根クラインガルテン2階",
      "name_kana": "タカネクラインガルテンニカイ",
      "business_type": "① 飲食店営業",
      "address": "山梨県北杜市高根町蔵原1655番地",
      "lat": 35.815839,
      "lng": 138.418336,
      "geocoding_level": null,
      "phone": "0551-20-7211",
      "license_no": "山梨県指令中北福第155号-143",
      "license_date": "2021-06-30",
      "expire_date": "2027-06-30"
    },
    {
      "name": "高根クラインガルテン2階",
      "name_kana": "タカネクラインガルテンニカイ",
      "business_type": "⑪ 菓子製造業",
      "address": "山梨県北杜市高根町蔵原1655番地",
      "lat": 35.815839,
      "lng": 138.418336,
      "geocoding_level": null,
      "phone": "0551-20-7211",
      "license_no": "山梨県指令中北福第1号-115",
      "license_date": "2023-06-19",
      "expire_date": "2029-06-30"
    },
    {
      "name": "高根クラインガルテン",
      "name_kana": "タカネクラインガルテン",
      "business_type": "① 飲食店営業",
      "address": "山梨県北杜市高根町蔵原1655",
      "lat": 35.815839,
      "lng": 138.418336,
      "geocoding_level": null,
      "phone": "0551-20-7211",
      "license_no": "山梨県指令中北福第1号-114",
      "license_date": "2023-06-19",
      "expire_date": "2029-06-30"
    },
    {
      "name": "フェアリーテイルズ",
      "name_kana": "フェアリーテイルズ",
      "business_type": "① 飲食店営業",
      "address": "山梨県北杜市高根町清里3545 萌木の村",
      "lat": 35.921176,
      "lng": 138.429169,
      "geocoding_level": null,
      "phone": "",
      "license_no": "山梨県指令中北福第155号-136",
      "license_date": "2021-06-30",
      "expire_date": "2026-06-30"
    },
    {
      "name": "道の駅南きよさと　珈琲・ソフトクリームカフェ",
      "name_kana": "ミチノエキミナミキヨサト　コーヒー・ソフトクリームカフェ",
      "business_type": "① 飲食店営業",
      "address": "山梨県北杜市高根町長沢760",
      "lat": 35.865595,
      "lng": 138.431666,
      "geocoding_level": null,
      "phone": "",
      "license_no": "山梨県指令中北福第155号-139",
      "license_date": "2021-06-30",
      "expire_date": "2027-06-30"
    },
    {
      "name": "TEAM SHERPA",
      "name_kana": "チーム　シェルパ",
      "business_type": "① 飲食店営業",
      "address": "山梨県北杜市高根町上黒澤1123",
      "lat": 35.822775,
      "lng": 138.399384,
      "geocoding_level": null,
      "phone": "090-2598-2234",
      "license_no": "山梨県指令中北福第155号-186",
      "license_date": "2021-06-29",
      "expire_date": "2026-06-30"
    },
    {
      "name": "ペンション　ホワイトクローバー",
      "name_kana": "ペンション　ホワイトクローバー",
      "business_type": "① 飲食店営業",
      "address": "山梨県北杜市高根町浅川744-2",
      "lat": 35.883273,
      "lng": 138.450132,
      "geocoding_level": null,
      "phone": "0551-48-3317",
      "license_no": "山梨県指令中北福第155号-44",
      "license_date": "2021-06-29",
      "expire_date": "2026-06-30"
    },
    {
      "name": "L'ATELIER de BEAU PAYSAGE",
      "name_kana": "ラトリエ　ド　ボーペイサージュ",
      "business_type": "㉑ 酒類製造業",
      "address": "山梨県北杜市高根町蔵原1334-5",
      "lat": 32.913144,
      "lng": 131.082235,
      "geocoding_level": null,
      "phone": "0551-47-5676",
      "license_no": "山梨県指令中北福第155号-109",
      "license_date": "2021-06-29",
      "expire_date": "2027-06-30"
    },
    {
      "name": "星の里",
      "name_kana": "ホシノサト",
      "business_type": "① 飲食店営業",
      "address": "山梨県北杜市長坂町小荒間1095-7",
      "lat": 35.873845,
      "lng": 138.349636,
      "geocoding_level": null,
      "phone": "0551-32-1075",
      "license_no": "山梨県指令中北福第8号-563",
      "license_date": "2024-10-31",
      "expire_date": "2030-10-31"
    },
    {
      "name": "北杜市立甲陽病院",
      "name_kana": "ホクトシリツコウヨウビョウイン",
      "business_type": "① 飲食店営業",
      "address": "山梨県北杜市長坂町大八田3954",
      "lat": 35.831002,
      "lng": 138.384394,
      "geocoding_level": null,
      "phone": "0551-32-6478",
      "license_no": "山梨県指令中北福第8号-565",
      "license_date": "2024-10-31",
      "expire_date": "2030-10-31"
    },
    {
      "name": "多機能型通所支援施設　パル実郷",
      "name_kana": "タキノウガタツウショシエンシセツ　パルミサト",
      "business_type": "① 飲食店営業",
      "address": "山梨県北杜市高根町箕輪2270-1",
      "lat": 35.821417,
      "lng": 138.426,
      "geocoding_level": null,
      "phone": "0551-46-2152",
      "license_no": "山梨県指令中北福第9号-231",
      "license_date": "2025-06-30",
      "expire_date": "2031-06-30"
    },
    {
      "name": "峡北シルバーケアホーム",
      "name_kana": "キョウホクシルバーケアホーム",
      "business_type": "① 飲食店営業",
      "address": "山梨県北杜市長坂町渋沢907",
      "lat": 35.812931,
      "lng": 138.387293,
      "geocoding_level": null,
      "phone": "0551-32-7026",
      "license_no": "山梨県指令中北福第9号-464",
      "license_date": "2025-10-14",
      "expire_date": "2031-10-31"
    },
    {
      "name": "ナイスデイ・カフェ",
      "name_kana": "ナイスデイ・カフェ",
      "business_type": "① 飲食店営業",
      "address": "山梨県北杜市大泉町西井出8240-358",
      "lat": 35.897106,
      "lng": 138.411729,
      "geocoding_level": null,
      "phone": "",
      "license_no": "山梨県指令中北福第155号-177",
      "license_date": "2021-07-31",
      "expire_date": "2027-07-31"
    },
    {
      "name": "フォレストガーデン",
      "name_kana": "フォレストガーデン",
      "business_type": "① 飲食店営業",
      "address": "山梨県北杜市大泉町谷戸字並木上8625",
      "lat": 35.903651,
      "lng": 138.368883,
      "geocoding_level": null,
      "phone": "0551-38-2336",
      "license_no": "山梨県指令中北福第155号-206",
      "license_date": "2021-07-21",
      "expire_date": "2026-07-31"
    },
    {
      "name": "八ヶ岳わんわんパラダイス　レストラン　「ラ・テラス」",
      "name_kana": "ヤツガタケワンワンパラダイス　レストラン　ラ・テラス",
      "business_type": "① 飲食店営業",
      "address": "山梨県北杜市長坂町小荒間1792",
      "lat": 35.889751,
      "lng": 138.352022,
      "geocoding_level": null,
      "phone": "0551-32-1155",
      "license_no": "山梨県指令中北福第155号-438",
      "license_date": "2021-10-13",
      "expire_date": "2027-10-31"
    },
    {
      "name": "AMBIENT八ヶ岳コテージ内売店",
      "name_kana": "アンビエントヤツガタケコテージナイバイテン",
      "business_type": "③ 乳類販売業",
      "address": "山梨県北杜市大泉町谷戸8741",
      "lat": 35.890647,
      "lng": 138.362211,
      "geocoding_level": null,
      "phone": "0551-38-2336",
      "license_no": "",
      "license_date": null,
      "expire_date": null
    },
    {
      "name": "AMBIENT八ヶ岳コテージ",
      "name_kana": "アンビエントヤツガタケコテージ",
      "business_type": "⑫ 自動販売機による販売業（コップ式自動販売機（自動洗浄・屋内設置）及び営業許可の対象となる自動販売機を除く）",
      "address": "山梨県北杜市大泉町谷戸字並木上8741",
      "lat": 35.903651,
      "lng": 138.368883,
      "geocoding_level": null,
      "phone": "0551-38-2336",
      "license_no": "",
      "license_date": null,
      "expire_date": null
    },
    {
      "name": "昼のふくろう",
      "name_kana": "ヒルノフウロウ",
      "business_type": "① 飲食店営業",
      "address": "山梨県北杜市大泉町谷戸8688-2",
      "lat": 35.881722,
      "lng": 138.36524,
      "geocoding_level": null,
      "phone": "",
      "license_no": "山梨県指令中北福第155号-70",
      "license_date": "2021-07-12",
      "expire_date": "2026-07-31"
    },
    {
      "name": "オクトベルク",
      "name_kana": "オクトベルク",
      "business_type": "① 飲食店営業",
      "address": "山梨県北杜市大泉町西井出8240-7373",
      "lat": 35.904739,
      "lng": 138.406402,
      "geocoding_level": null,
      "phone": "0551-38-2817",
      "license_no": "山梨県指令中北福第155号-122",
      "license_date": "2021-07-12",
      "expire_date": "2027-07-31"
    },
    {
      "name": "ペンション　かくれんぼ",
      "name_kana": "ペンション　カクレンボ",
      "business_type": "① 飲食店営業",
      "address": "山梨県北杜市高根町清里3533",
      "lat": 35.884166,
      "lng": 138.442143,
      "geocoding_level": null,
      "phone": "0551-48-3020",
      "license_no": "山梨県指令中北福第155号-161",
      "license_date": "2021-06-25",
      "expire_date": "2026-06-30"
    },
    {
      "name": "株式会社石山　山梨工場",
      "name_kana": "カブシキガイシャイシヤマ　ヤマナシコウジョウ",
      "business_type": "㉗ 器具、容器包装の製造・加工業（合成樹脂が使用された器具又は容器包装の製造、加工に限る。）",
      "address": "山梨県北杜市武川町牧原1951-1",
      "lat": 35.782484,
      "lng": 138.393158,
      "geocoding_level": null,
      "phone": "025-256-3301",
      "license_no": "",
      "license_date": null,
      "expire_date": null
    },
    {
      "name": "株式会社宇宙環境保全センター",
      "name_kana": "カブシキガイシャウチュウカンキョウホゼンセンター",
      "business_type": "㉔ その他の食料品製造・加工業",
      "address": "山梨県北杜市高根町清里3545-5896",
      "lat": 35.886494,
      "lng": 138.435831,
      "geocoding_level": null,
      "phone": "0551-48-5300",
      "license_no": "",
      "license_date": null,
      "expire_date": null
    },
    {
      "name": "日の",
      "name_kana": "ヒノ",
      "business_type": "① 飲食店営業",
      "address": "山梨県北杜市小淵沢町上笹尾山梨県一円（山梨800す4248）",
      "lat": 35.857273,
      "lng": 138.333979,
      "geocoding_level": null,
      "phone": "",
      "license_no": "山梨県指令中北福第155号-214",
      "license_date": "2021-06-21",
      "expire_date": "2026-06-30"
    },
    {
      "name": "焼肉　花梨",
      "name_kana": "ヤキニク　カリン",
      "business_type": "① 飲食店営業",
      "address": "山梨県北杜市小淵沢町6137",
      "lat": 35.865039,
      "lng": 138.304337,
      "geocoding_level": null,
      "phone": "",
      "license_no": "山梨県指令中北福第155号-201",
      "license_date": "2021-06-21",
      "expire_date": "2027-10-31"
    },
    {
      "name": "かりんの実",
      "name_kana": "カリンノミ",
      "business_type": "⑪ 菓子製造業",
      "address": "山梨県北杜市小淵沢町6138-1",
      "lat": 35.863777,
      "lng": 138.3041,
      "geocoding_level": null,
      "phone": "",
      "license_no": "山梨県指令中北福第155号-203",
      "license_date": "2021-06-21",
      "expire_date": "2027-10-31"
    },
    {
      "name": "sundaysfood",
      "name_kana": "サンデイズフード",
      "business_type": "① 飲食店営業",
      "address": "山梨県北杜市高根町五町田1227-1",
      "lat": 35.836101,
      "lng": 138.396323,
      "geocoding_level": null,
      "phone": "",
      "license_no": "山梨県指令中北福第155号-223",
      "license_date": "2021-06-28",
      "expire_date": "2027-06-30"
    },
    {
      "name": "ホテルデュシェルブルー",
      "name_kana": "ホテルデュシェルブルー",
      "business_type": "① 飲食店営業",
      "address": "山梨県北杜市大泉町西井出8240番地4628",
      "lat": 35.895573,
      "lng": 138.415084,
      "geocoding_level": null,
      "phone": "0551-38-3208",
      "license_no": "山梨県指令中北福第155号-135",
      "license_date": "2021-06-23",
      "expire_date": "2028-07-31"
    },
    {
      "name": "ぶらん",
      "name_kana": "ブラン",
      "business_type": "① 飲食店営業",
      "address": "山梨県北杜市大泉町谷戸210",
      "lat": 35.849992,
      "lng": 138.385261,
      "geocoding_level": null,
      "phone": "0551-35-9111",
      "license_no": "山梨県指令中北福第155号-173",
      "license_date": "2021-06-21",
      "expire_date": "2027-07-31"
    },
    {
      "name": "いち",
      "name_kana": "イチ",
      "business_type": "① 飲食店営業",
      "address": "山梨県北杜市高根町清里3545-2878",
      "lat": 35.915971,
      "lng": 138.434363,
      "geocoding_level": null,
      "phone": "",
      "license_no": "山梨県指令中北福第155号-197",
      "license_date": "2021-06-22",
      "expire_date": "2027-06-30"
    },
    {
      "name": "ザ・ビッグ北杜須玉店",
      "name_kana": "ザ・ビッグホクトスタマテン",
      "business_type": "⑪ 百貨店、総合スーパー",
      "address": "山梨県北杜市須玉町若神子2255",
      "lat": 35.794392,
      "lng": 138.423291,
      "geocoding_level": null,
      "phone": "",
      "license_no": "",
      "license_date": null,
      "expire_date": null
    },
    {
      "name": "ザ・ビッグ北杜須玉店",
      "name_kana": "ザ・ビックホクトスダマテン",
      "business_type": "③ 食肉販売業",
      "address": "山梨県北杜市須玉町若神子2255",
      "lat": 35.794392,
      "lng": 138.423291,
      "geocoding_level": null,
      "phone": "0551-30-4166",
      "license_no": "山梨県指令中北福第1号-531",
      "license_date": "2023-11-27",
      "expire_date": "2030-10-31"
    },
    {
      "name": "ザ・ビッグ北杜須玉店",
      "name_kana": "ザ・ビックホクトスダマテン",
      "business_type": "④ 魚介類販売業",
      "address": "山梨県北杜市須玉町若神子2255",
      "lat": 35.794392,
      "lng": 138.423291,
      "geocoding_level": null,
      "phone": "0551-30-4166",
      "license_no": "山梨県指令中北福第1号-530",
      "license_date": "2023-11-27",
      "expire_date": "2030-10-31"
    },
    {
      "name": "ザ・ビッグ北杜須玉店",
      "name_kana": "ザ・ビックホクトスダマテン",
      "business_type": "① 飲食店営業",
      "address": "山梨県北杜市須玉町若神子2255",
      "lat": 35.794392,
      "lng": 138.423291,
      "geocoding_level": null,
      "phone": "0551-30-4166",
      "license_no": "山梨県指令中北福第1号-529",
      "license_date": "2023-11-27",
      "expire_date": "2030-10-31"
    },
    {
      "name": "ザ・ビッグ北杜須玉店",
      "name_kana": "ザ・ビックホクトスダマテン",
      "business_type": "① 飲食店営業",
      "address": "山梨県北杜市須玉町若神子2255",
      "lat": 35.794392,
      "lng": 138.423291,
      "geocoding_level": null,
      "phone": "0551-30-4166",
      "license_no": "山梨県指令中北福第1号-532",
      "license_date": "2023-11-27",
      "expire_date": "2030-10-31"
    },
    {
      "name": "sundaysfood",
      "name_kana": "サンデイズフード",
      "business_type": "① 飲食店営業",
      "address": "山梨県北杜市高根町五町田1227-1",
      "lat": 35.836038,
      "lng": 138.395741,
      "geocoding_level": null,
      "phone": "0551-88-9011",
      "license_no": "山梨県指令中北福第8号-774",
      "license_date": "2025-03-10",
      "expire_date": "2031-06-30"
    },
    {
      "name": "デイリーヤマザキ北杜須玉インター店",
      "name_kana": "デイリーヤマザキホクトスダマインターテン",
      "business_type": "③ 乳類販売業",
      "address": "山梨県北杜市須玉町若神子1910-1",
      "lat": 35.785905,
      "lng": 138.418804,
      "geocoding_level": null,
      "phone": "0551-42-5225",
      "license_no": "",
      "license_date": null,
      "expire_date": null
    },
    {
      "name": "デイリーヤマザキ北杜長坂店",
      "name_kana": "デイリーヤマザキホクトナガサカテン",
      "business_type": "① 飲食店営業",
      "address": "山梨県北杜市長坂町長坂上条2313-10",
      "lat": 35.831147,
      "lng": 138.372209,
      "geocoding_level": null,
      "phone": "0551-32-2115",
      "license_no": "山梨県指令中北福第1号-168",
      "license_date": "2023-06-30",
      "expire_date": "2029-10-31"
    },
    {
      "name": "デイリーヤマザキ北杜長坂店",
      "name_kana": "デイリーヤマザキホクトナガサカテン",
      "business_type": "⑪ 菓子製造業",
      "address": "山梨県北杜市長坂町長坂上条2313-10",
      "lat": 35.831147,
      "lng": 138.372209,
      "geocoding_level": null,
      "phone": "0551-32-2115",
      "license_no": "山梨県指令中北福第1号-168",
      "license_date": "2023-06-30",
      "expire_date": "2029-10-31"
    },
    {
      "name": "デイリーヤマザキ北杜長坂店",
      "name_kana": "デイリーヤマザキホクトナガサカテン",
      "business_type": "② 食肉販売業（包装済みの食肉のみの販売）",
      "address": "山梨県北杜市長坂町長坂上条2313-10",
      "lat": 35.831147,
      "lng": 138.372209,
      "geocoding_level": null,
      "phone": "0551-32-2115",
      "license_no": "",
      "license_date": null,
      "expire_date": null
    },
    {
      "name": "デイリーヤマザキ北杜長坂店",
      "name_kana": "デイリーヤマザキホクトナガサカテン",
      "business_type": "③ 乳類販売業",
      "address": "山梨県北杜市長坂町長坂上条2313-10",
      "lat": 35.831147,
      "lng": 138.372209,
      "geocoding_level": null,
      "phone": "0551-32-2115",
      "license_no": "",
      "license_date": null,
      "expire_date": null
    },
    {
      "name": "こぶちざわ道の駅内　マナマハロ",
      "name_kana": "コブチザワミチノエキナイ　マナマハロ",
      "business_type": "① 飲食店営業",
      "address": "山梨県北杜市小淵沢町2968-1",
      "lat": 35.87888,
      "lng": 138.316791,
      "geocoding_level": null,
      "phone": "",
      "license_no": "山梨県指令中北福第155号-230",
      "license_date": "2021-07-07",
      "expire_date": "2026-10-31"
    },
    {
      "name": "リッツイン清里",
      "name_kana": "リッツインキヨサト",
      "business_type": "① 飲食店営業",
      "address": "山梨県北杜市高根町清里3545-926",
      "lat": 35.898041,
      "lng": 138.437158,
      "geocoding_level": null,
      "phone": "",
      "license_no": "山梨県指令中北福第155号-228",
      "license_date": "2021-06-30",
      "expire_date": "2027-06-30"
    },
    {
      "name": "sundaysfood",
      "name_kana": "サンデイズフード",
      "business_type": "⑪ 菓子製造業",
      "address": "山梨県北杜市高根町五町田1227-1",
      "lat": 35.836038,
      "lng": 138.395741,
      "geocoding_level": null,
      "phone": "0551-88-9011",
      "license_no": "山梨県指令中北福第8号-774",
      "license_date": "2025-03-10",
      "expire_date": "2031-06-30"
    },
    {
      "name": "ソンちゃんショップ",
      "name_kana": "ソンチャンショップ",
      "business_type": "① 魚介類販売業（包装済みの魚介類のみの販売）",
      "address": "山梨県北杜市高根町清里3555番地7",
      "lat": 35.885031,
      "lng": 138.439323,
      "geocoding_level": null,
      "phone": "0551-45-6246",
      "license_no": "",
      "license_date": null,
      "expire_date": null
    },
    {
      "name": "ソンちゃんショップ",
      "name_kana": "ソンチャンショップ",
      "business_type": "② 食肉販売業（包装済みの食肉のみの販売）",
      "address": "山梨県北杜市高根町清里3555番地7",
      "lat": 35.885031,
      "lng": 138.439323,
      "geocoding_level": null,
      "phone": "0551-45-6246",
      "license_no": "",
      "license_date": null,
      "expire_date": null
    },
    {
      "name": "ソンちゃんショップ",
      "name_kana": "ソンチャンショップ",
      "business_type": "⑦ 野菜果物販売業",
      "address": "山梨県北杜市高根町清里3555番地7",
      "lat": 35.885031,
      "lng": 138.439323,
      "geocoding_level": null,
      "phone": "0551-45-6246",
      "license_no": "",
      "license_date": null,
      "expire_date": null
    },
    {
      "name": "ソンちゃんショップ",
      "name_kana": "ソンチャンショップ",
      "business_type": "⑨ 通信販売・訪問販売による販売業",
      "address": "山梨県北杜市高根町清里3555番地7",
      "lat": 35.885031,
      "lng": 138.439323,
      "geocoding_level": null,
      "phone": "0551-45-6246",
      "license_no": "",
      "license_date": null,
      "expire_date": null
    },
    {
      "name": "ソンちゃんショップ",
      "name_kana": "ソンチャンショップ",
      "business_type": "⑬ その他の食料・飲料販売業",
      "address": "山梨県北杜市高根町清里3555番地7",
      "lat": 35.885031,
      "lng": 138.439323,
      "geocoding_level": null,
      "phone": "0551-45-6246",
      "license_no": "",
      "license_date": null,
      "expire_date": null
    },
    {
      "name": "ソンちゃんショップ",
      "name_kana": "ソンチャンショップ",
      "business_type": "㉙ その他",
      "address": "山梨県北杜市高根町清里3555番地7",
      "lat": 35.885031,
      "lng": 138.439323,
      "geocoding_level": null,
      "phone": "0551-45-6246",
      "license_no": "",
      "license_date": null,
      "expire_date": null
    },
    {
      "name": "イズモホール長坂",
      "name_kana": "イズモホールナガサカ",
      "business_type": "① 飲食店営業",
      "address": "山梨県北杜市長坂町長坂上条1657-1",
      "lat": 35.821759,
      "lng": 138.37607,
      "geocoding_level": null,
      "phone": "",
      "license_no": "山梨県指令中北福第155号-210",
      "license_date": "2021-06-28",
      "expire_date": "2027-10-31"
    },
    {
      "name": "イズモフェネラルホール",
      "name_kana": "イズモフェネラルホール",
      "business_type": "① 飲食店営業",
      "address": "山梨県北杜市須玉町若神子4010",
      "lat": 35.789834,
      "lng": 138.418286,
      "geocoding_level": null,
      "phone": "",
      "license_no": "山梨県指令中北福第155号-211",
      "license_date": "2021-06-28",
      "expire_date": "2027-10-31"
    },
    {
      "name": "株式会社　出雲",
      "name_kana": "カブシキガイシャ　イズモ",
      "business_type": "㉕ そうざい製造業",
      "address": "山梨県北杜市須玉町若神子4010",
      "lat": 35.789834,
      "lng": 138.418286,
      "geocoding_level": null,
      "phone": "0551-42-4000",
      "license_no": "山梨県指令中北福第8号-86",
      "license_date": "2024-05-27",
      "expire_date": "2030-10-31"
    },
    {
      "name": "株式会社　出雲",
      "name_kana": "カブシキガイシャ　イズモ",
      "business_type": "㉗ 冷凍食品製造業",
      "address": "山梨県北杜市須玉町若神子4010",
      "lat": 35.789834,
      "lng": 138.418286,
      "geocoding_level": null,
      "phone": "0551-42-4000",
      "license_no": "山梨県指令中北福第8号-86",
      "license_date": "2024-05-27",
      "expire_date": "2030-10-31"
    },
    {
      "name": "国際研修交流センター　清泉寮　新館レストラン",
      "name_kana": "コクサイケンシュウコウリュウセンターセイセンリョウシンカンレストラン",
      "business_type": "① 飲食店営業",
      "address": "山梨県北杜市大泉町西井出石堂8240-1",
      "lat": 35.872744,
      "lng": 138.407194,
      "geocoding_level": null,
      "phone": "0551-48-2111",
      "license_no": "山梨県指令中北福第155号-243",
      "license_date": "2021-07-26",
      "expire_date": "2027-07-31"
    },
    {
      "name": "清泉寮ジャージーハット",
      "name_kana": "セイセンリョウジャージーハット",
      "business_type": "③ 乳類販売業",
      "address": "山梨県北杜市高根町清里3545",
      "lat": 35.921045,
      "lng": 138.438607,
      "geocoding_level": null,
      "phone": "0551-48-4441",
      "license_no": "",
      "license_date": null,
      "expire_date": null
    },
    {
      "name": "清泉寮ファームショップ",
      "name_kana": "セイセンリョウファームショップ",
      "business_type": "③ 乳類販売業",
      "address": "山梨県北杜市高根町清里3545",
      "lat": 35.921045,
      "lng": 138.438607,
      "geocoding_level": null,
      "phone": "0551-48-4888",
      "license_no": "",
      "license_date": null,
      "expire_date": null
    },
    {
      "name": "清泉寮自然学校",
      "name_kana": "セイセンリョウシゼンガッコウ",
      "business_type": "③ 乳類販売業",
      "address": "山梨県北杜市高根町清里3545",
      "lat": 35.921176,
      "lng": 138.429169,
      "geocoding_level": null,
      "phone": "0551-20-7701",
      "license_no": "",
      "license_date": null,
      "expire_date": null
    },
    {
      "name": "公益財団法人キープ協会　清泉寮　新館売店",
      "name_kana": "コウエキザイダンホウジンキープキョウカイセイセンリョウシンカンバイテン",
      "business_type": "③ 乳類販売業",
      "address": "山梨県北杜市大泉町西井出石堂8240-1",
      "lat": 35.872744,
      "lng": 138.407194,
      "geocoding_level": null,
      "phone": "0551-48-2111",
      "license_no": "",
      "license_date": null,
      "expire_date": null
    },
    {
      "name": "清泉寮ファームショップ",
      "name_kana": "セイセンリョウファームショップ",
      "business_type": "① 飲食店営業",
      "address": "山梨県北杜市高根町清里3545",
      "lat": 35.921045,
      "lng": 138.438607,
      "geocoding_level": null,
      "phone": "0551-48-4888",
      "license_no": "山梨県指令中北福第3号-46",
      "license_date": "2022-06-16",
      "expire_date": "2028-06-30"
    },
    {
      "name": "ポール・ラッシュ記念館",
      "name_kana": "ポール・ラッシュキネンカン",
      "business_type": "① 飲食店営業",
      "address": "山梨県北杜市大泉町西井出石堂8240-1",
      "lat": 35.872744,
      "lng": 138.407194,
      "geocoding_level": null,
      "phone": "0551-48-5330",
      "license_no": "山梨県指令中北福第3号-282",
      "license_date": "2022-07-29",
      "expire_date": "2028-07-31"
    },
    {
      "name": "国際研修交流センター　清泉寮　新館レストラン",
      "name_kana": "コクサイケンシュウコウリュウセンターセイセンリョウシンカンレストラン",
      "business_type": "⑪ 菓子製造業",
      "address": "山梨県北杜市大泉町西井出石堂8240-1",
      "lat": 35.920494,
      "lng": 138.4088,
      "geocoding_level": null,
      "phone": "0551-48-2111",
      "license_no": "山梨県指令中北福第1号-227",
      "license_date": "2023-07-31",
      "expire_date": "2029-07-31"
    },
    {
      "name": "清泉寮ジャージーハット",
      "name_kana": "セイセンリョウジャージーハット",
      "business_type": "① 飲食店営業",
      "address": "山梨県北杜市高根町清里3545",
      "lat": 35.921176,
      "lng": 138.429169,
      "geocoding_level": null,
      "phone": "0551-48-4441",
      "license_no": "山梨県指令中北福第8号-91",
      "license_date": "2024-06-12",
      "expire_date": "2030-06-30"
    },
    {
      "name": "清泉寮ジャージーハット",
      "name_kana": "セイセンリョウジャージーハット",
      "business_type": "⑪ 菓子製造業",
      "address": "山梨県北杜市高根町清里3545",
      "lat": 35.921176,
      "lng": 138.429169,
      "geocoding_level": null,
      "phone": "0551-48-4441",
      "license_no": "山梨県指令中北福第9号-117",
      "license_date": "2025-06-26",
      "expire_date": "2031-06-30"
    },
    {
      "name": "清泉寮ジャージーハット",
      "name_kana": "セイセンリョウジャージーハット",
      "business_type": "⑬ 乳製品製造業",
      "address": "山梨県北杜市高根町清里3545",
      "lat": 35.921176,
      "lng": 138.429169,
      "geocoding_level": null,
      "phone": "0551-48-4441",
      "license_no": "山梨県指令中北福第9号-117",
      "license_date": "2025-06-26",
      "expire_date": "2031-06-30"
    },
    {
      "name": "清泉寮ジャージーハット",
      "name_kana": "セイセンリョウジャージーハット",
      "business_type": "㉚ 密封包装食品製造業",
      "address": "山梨県北杜市高根町清里3545",
      "lat": 35.921176,
      "lng": 138.429169,
      "geocoding_level": null,
      "phone": "0551-48-4441",
      "license_no": "山梨県指令中北福第9号-117",
      "license_date": "2025-06-26",
      "expire_date": "2031-06-30"
    },
    {
      "name": "清泉寮自然学校",
      "name_kana": "セイセンリョウシゼンガッコウ",
      "business_type": "① 飲食店営業",
      "address": "山梨県北杜市高根町清里3545",
      "lat": 35.921176,
      "lng": 138.429169,
      "geocoding_level": null,
      "phone": "0551-20-7701",
      "license_no": "山梨県指令中北福第8号-159",
      "license_date": "2024-06-18",
      "expire_date": "2030-06-30"
    },
    {
      "name": "(公財)キープ協会　清泉寮　本館レストラン",
      "name_kana": "コウザイキープキョウカイ　セイセンリョウ　ホンカンレストラン",
      "business_type": "① 飲食店営業",
      "address": "山梨県北杜市大泉町西井出石堂8240-1",
      "lat": 35.872744,
      "lng": 138.407194,
      "geocoding_level": null,
      "phone": "0551-48-2111",
      "license_no": "山梨県指令中北福第8号-188",
      "license_date": "2024-06-26",
      "expire_date": "2030-06-30"
    },
    {
      "name": "コジシタ八ヶ岳",
      "name_kana": "オジシタヤツガタケ",
      "business_type": "① 飲食店営業",
      "address": "山梨県北杜市大泉町西井出8353-1",
      "lat": 35.865911,
      "lng": 138.399267,
      "geocoding_level": null,
      "phone": "0551-38-3070",
      "license_no": "山梨県指令中北福第155号-239",
      "license_date": "2021-07-26",
      "expire_date": "2026-07-31"
    },
    {
      "name": "ローソン山梨高根町店",
      "name_kana": "ローソンヤマナシタカネチョウテン",
      "business_type": "① 飲食店営業",
      "address": "山梨県北杜市高根町村山東割189-1",
      "lat": 35.836826,
      "lng": 138.410711,
      "geocoding_level": null,
      "phone": "0551-47-6001",
      "license_no": "山梨県指令中北福第155号-221",
      "license_date": "2021-06-30",
      "expire_date": "2027-06-30"
    },
    {
      "name": "ごりらのパン屋さん",
      "name_kana": "ゴリラノパンヤサン",
      "business_type": "① 飲食店営業",
      "address": "山梨県北杜市高根町東井出4986-160",
      "lat": 35.874068,
      "lng": 138.416775,
      "geocoding_level": null,
      "phone": "0551-47-2217",
      "license_no": "山梨県指令中北福第155号-247",
      "license_date": "2021-06-30",
      "expire_date": "2026-06-30"
    },
    {
      "name": "ごりらのパン屋さん",
      "name_kana": "ゴリラノパンヤサン",
      "business_type": "⑪ 菓子製造業",
      "address": "山梨県北杜市高根町東井出4986-160",
      "lat": 35.874068,
      "lng": 138.416775,
      "geocoding_level": null,
      "phone": "0551-47-2217",
      "license_no": "山梨県指令中北福第155号-247",
      "license_date": "2021-06-30",
      "expire_date": "2026-06-30"
    },
    {
      "name": "ル・シャ・デ・ボワ",
      "name_kana": "ルシャデボワ",
      "business_type": "⑪ 菓子製造業",
      "address": "山梨県北杜市高根町清里3545",
      "lat": 35.921045,
      "lng": 138.438607,
      "geocoding_level": null,
      "phone": "0551-48-3075",
      "license_no": "山梨県指令中北福第155号-257",
      "license_date": "2021-07-12",
      "expire_date": "2027-06-30"
    },
    {
      "name": "スナック　LADY-M",
      "name_kana": "スナックレディーエム",
      "business_type": "① 飲食店営業",
      "address": "山梨県北杜市小淵沢町3181-1 2F",
      "lat": 35.869738,
      "lng": 138.30947,
      "geocoding_level": null,
      "phone": "",
      "license_no": "山梨県指令中北福第155号-256",
      "license_date": "2021-07-09",
      "expire_date": "2026-10-31"
    },
    {
      "name": "をの屋",
      "name_kana": "ヲノヤ",
      "business_type": "① 飲食店営業",
      "address": "山梨県北杜市高根町箕輪2572-1",
      "lat": 35.815612,
      "lng": 138.429726,
      "geocoding_level": null,
      "phone": "090-4416-5973",
      "license_no": "山梨県指令中北福第155号-244",
      "license_date": "2021-07-12",
      "expire_date": "2028-06-30"
    },
    {
      "name": "ファーム　リアン",
      "name_kana": "ファーム　リアン",
      "business_type": "⑰ 農産保存食料品製造・加工業",
      "address": "山梨県北杜市北杜市長坂町大井ケ森1348-2",
      "lat": 35.855604,
      "lng": 138.349625,
      "geocoding_level": null,
      "phone": "",
      "license_no": "",
      "license_date": null,
      "expire_date": null
    },
    {
      "name": "ファーム　リアン",
      "name_kana": "ファーム　リアン",
      "business_type": "⑦ 野菜果物販売業",
      "address": "山梨県北杜市北杜市長坂町大井ケ森1348-2",
      "lat": 35.855604,
      "lng": 138.349625,
      "geocoding_level": null,
      "phone": "",
      "license_no": "",
      "license_date": null,
      "expire_date": null
    },
    {
      "name": "ファーム　リアン",
      "name_kana": "ファーム　リアン",
      "business_type": "⑨ 通信販売・訪問販売による販売業",
      "address": "山梨県北杜市北杜市長坂町大井ケ森1348-2",
      "lat": 35.855604,
      "lng": 138.349625,
      "geocoding_level": null,
      "phone": "",
      "license_no": "",
      "license_date": null,
      "expire_date": null
    },
    {
      "name": "北の杜FARM　白州みつ芋BASE",
      "name_kana": "キタノモリファーム　ハクシュウミツイモベース",
      "business_type": "⑪ 菓子製造業",
      "address": "山梨県北杜市白州町白須1344",
      "lat": 35.81094,
      "lng": 138.332822,
      "geocoding_level": null,
      "phone": "0551-37-5185",
      "license_no": "山梨県指令中北福第3号-720",
      "license_date": "2022-12-28",
      "expire_date": "2029-08-31"
    },
    {
      "name": "ギャラリー良工房　カフェルルド",
      "name_kana": "ギャラリーリョウコウボウ　カフェルルド",
      "business_type": "① 飲食店営業",
      "address": "山梨県北杜市長坂町白井沢2484-11",
      "lat": 35.853387,
      "lng": 138.359194,
      "geocoding_level": null,
      "phone": "0551-32-7155",
      "license_no": "山梨県指令中北福第155号-264",
      "license_date": "2021-07-26",
      "expire_date": "2026-10-31"
    },
    {
      "name": "八ヶ岳ミート",
      "name_kana": "ヤツガタケミート",
      "business_type": "⑨ 食肉処理業",
      "address": "山梨県北杜市長坂町長坂下条1395-2",
      "lat": 35.810399,
      "lng": 138.381549,
      "geocoding_level": null,
      "phone": "0551-32-2983",
      "license_no": "山梨県指令中北福第155号-265",
      "license_date": "2021-07-26",
      "expire_date": "2027-10-31"
    },
    {
      "name": "八ヶ岳ミート",
      "name_kana": "ヤツガタケミート",
      "business_type": "㉕ そうざい製造業",
      "address": "山梨県北杜市長坂町長坂下条1395-2",
      "lat": 35.810399,
      "lng": 138.381549,
      "geocoding_level": null,
      "phone": "0551-32-2983",
      "license_no": "山梨県指令中北福第155号-312",
      "license_date": "2021-07-26",
      "expire_date": "2027-10-31"
    },
    {
      "name": "My meat",
      "name_kana": "マイ　ミート",
      "business_type": "⑨ 食肉処理業",
      "address": "山梨県北杜市長坂町大八田780",
      "lat": 35.836713,
      "lng": 138.389474,
      "geocoding_level": null,
      "phone": "0551-32-2983",
      "license_no": "山梨県指令中北福第8号-650",
      "license_date": "2025-02-13",
      "expire_date": "2031-10-31"
    },
    {
      "name": "八ヶ岳デリカ",
      "name_kana": "ヤツガタケデリカ",
      "business_type": "③ 食肉販売業",
      "address": "山梨県北杜市高根町箕輪483-1",
      "lat": 35.835719,
      "lng": 138.43143,
      "geocoding_level": null,
      "phone": "0551-47-2050",
      "license_no": "山梨県指令中北福第9号-13",
      "license_date": "2025-04-10",
      "expire_date": "2031-06-30"
    },
    {
      "name": "八ヶ岳デリカ",
      "name_kana": "ヤツガタケデリカ",
      "business_type": "⑮ 食肉製品製造業",
      "address": "山梨県北杜市高根町箕輪483-1",
      "lat": 35.835719,
      "lng": 138.43143,
      "geocoding_level": null,
      "phone": "0551-47-2050",
      "license_no": "山梨県指令中北福第9号-13",
      "license_date": "2025-04-10",
      "expire_date": "2031-06-30"
    },
    {
      "name": "自然屋",
      "name_kana": "シゼンヤ",
      "business_type": "① 飲食店営業",
      "address": "山梨県北杜市大泉町谷戸5471",
      "lat": 35.877529,
      "lng": 138.385057,
      "geocoding_level": null,
      "phone": "",
      "license_no": "山梨県指令中北福第155号-276",
      "license_date": "2021-07-31",
      "expire_date": "2027-07-31"
    },
    {
      "name": "SAIZ",
      "name_kana": "サイズ",
      "business_type": "① 飲食店営業",
      "address": "山梨県北杜市大泉町西井出8240-1840",
      "lat": 35.871279,
      "lng": 138.404959,
      "geocoding_level": null,
      "phone": "0551-45-6496",
      "license_no": "山梨県指令中北福第155号-273",
      "license_date": "2021-07-12",
      "expire_date": "2027-07-31"
    },
    {
      "name": "森の茶屋",
      "name_kana": "モリノチャヤ",
      "business_type": "① 飲食店営業",
      "address": "山梨県北杜市高根町清里3545-1",
      "lat": 35.929915,
      "lng": 138.443849,
      "geocoding_level": null,
      "phone": "090-1853-0318",
      "license_no": "山梨県指令中北福第155号-271",
      "license_date": "2021-07-13",
      "expire_date": "2028-06-30"
    },
    {
      "name": "フェリチタ研究所",
      "name_kana": "フェリチタケンキュウジョ",
      "business_type": "① 飲食店営業",
      "address": "山梨県北杜市大泉町西井出1099-1",
      "lat": 35.845267,
      "lng": 138.388935,
      "geocoding_level": null,
      "phone": "",
      "license_no": "山梨県指令中北福第155号-293",
      "license_date": "2021-08-06",
      "expire_date": "2027-07-31"
    },
    {
      "name": "フェリチタ研究所",
      "name_kana": "フェリチタケンキュウジョ",
      "business_type": "㉙ 漬物製造業",
      "address": "山梨県北杜市大泉町西井出1099-1",
      "lat": 35.845267,
      "lng": 138.388935,
      "geocoding_level": null,
      "phone": "",
      "license_no": "山梨県指令中北福第155号-293",
      "license_date": "2021-08-06",
      "expire_date": "2027-07-31"
    },
    {
      "name": "株式会社アグレス　北杜加工所",
      "name_kana": "カブシキガイシャアグレスホクトカコウジョ",
      "business_type": "㉔ その他の食料品製造・加工業",
      "address": "山梨県北杜市明野町下神取791",
      "lat": 35.781824,
      "lng": 138.433924,
      "geocoding_level": null,
      "phone": "",
      "license_no": "",
      "license_date": null,
      "expire_date": null
    },
    {
      "name": "おいしい市場",
      "name_kana": "オイシイイチバ",
      "business_type": "⑪ 菓子製造業",
      "address": "山梨県北杜市須玉町若神子2323",
      "lat": 35.795928,
      "lng": 138.423582,
      "geocoding_level": null,
      "phone": "0551-42-1177",
      "license_no": "山梨県指令中北福第8号-354",
      "license_date": "2024-07-17",
      "expire_date": "2030-10-31"
    },
    {
      "name": "おいしい市場",
      "name_kana": "オイシイイチバ",
      "business_type": "㉕ そうざい製造業",
      "address": "山梨県北杜市須玉町若神子2323",
      "lat": 35.795928,
      "lng": 138.423582,
      "geocoding_level": null,
      "phone": "0551-42-1177",
      "license_no": "山梨県指令中北福第155号-644",
      "license_date": "2022-02-08",
      "expire_date": "2028-10-31"
    },
    {
      "name": "武川町農畜産物処理加工施設",
      "name_kana": "ムカワチョウノウチクサンブツショリカコウシセツ",
      "business_type": "⑳ みそ又はしょうゆ製造業",
      "address": "山梨県北杜市武川町山高3567-211",
      "lat": 35.777146,
      "lng": 138.343938,
      "geocoding_level": null,
      "phone": "0551-26-3999",
      "license_no": "山梨県指令中北福第9号-368",
      "license_date": "2025-08-15",
      "expire_date": "2031-08-31"
    },
    {
      "name": "武川町農畜産物処理加工施設",
      "name_kana": "ムカワチョウノウチクサンブツショリカコウシセツ",
      "business_type": "㉕ そうざい製造業",
      "address": "山梨県北杜市武川町山高3567-211",
      "lat": 35.777146,
      "lng": 138.343938,
      "geocoding_level": null,
      "phone": "0551-26-3999",
      "license_no": "山梨県指令中北福第9号-380",
      "license_date": "2025-08-15",
      "expire_date": "2031-08-31"
    },
    {
      "name": "武川町農畜産物処理加工施設",
      "name_kana": "ムカワチョウノウチクサンブツショリカコウシセツ",
      "business_type": "㉙ 漬物製造業",
      "address": "山梨県北杜市武川町山高3567-211",
      "lat": 35.777146,
      "lng": 138.343938,
      "geocoding_level": null,
      "phone": "0551-26-3999",
      "license_no": "山梨県指令中北福第8号-89",
      "license_date": "2024-05-27",
      "expire_date": "2030-08-31"
    },
    {
      "name": "武川町農産物直売センター",
      "name_kana": "ムカワチョウノウサンブツチョクバイセンター",
      "business_type": "① 飲食店営業",
      "address": "山梨県北杜市武川町牧原682-2",
      "lat": 35.781518,
      "lng": 138.389754,
      "geocoding_level": null,
      "phone": "0551-26-3074",
      "license_no": "山梨県指令中北福第9号-366",
      "license_date": "2025-08-15",
      "expire_date": "2031-08-31"
    },
    {
      "name": "武川町農産物直売センター",
      "name_kana": "ムカワチョウノウサンブツチョクバイセンター",
      "business_type": "㉓ 納豆製造業",
      "address": "山梨県北杜市武川町牧原682-2",
      "lat": 35.781518,
      "lng": 138.389754,
      "geocoding_level": null,
      "phone": "0551-26-3074",
      "license_no": "山梨県指令中北福第9号-366",
      "license_date": "2025-08-15",
      "expire_date": "2031-08-31"
    },
    {
      "name": "武川町農産物直売センター",
      "name_kana": "ムカワチョウノウサンブツチョクバイセンター",
      "business_type": "㉕ そうざい製造業",
      "address": "山梨県北杜市武川町牧原682-2",
      "lat": 35.781518,
      "lng": 138.389754,
      "geocoding_level": null,
      "phone": "0551-26-3074",
      "license_no": "山梨県指令中北福第9号-379",
      "license_date": "2025-08-15",
      "expire_date": "2031-08-31"
    },
    {
      "name": "森の宿　アイラ清里",
      "name_kana": "モリノヤド　アイラキヨサト",
      "business_type": "① 飲食店営業",
      "address": "山梨県北杜市高根町清里の森1-3-3",
      "lat": 35.917454,
      "lng": 138.433763,
      "geocoding_level": null,
      "phone": "0551-48-3199",
      "license_no": "山梨県指令中北福第155号-289",
      "license_date": "2021-08-06",
      "expire_date": "2028-06-30"
    },
    {
      "name": "DECO BOTANICAL",
      "name_kana": "デコボタニカル",
      "business_type": "① 飲食店営業",
      "address": "山梨県北杜市武川町柳澤3022-9",
      "lat": 35.7807,
      "lng": 138.34048,
      "geocoding_level": null,
      "phone": "0551-45-9795",
      "license_no": "山梨県指令中北福第155号-298",
      "license_date": "2021-08-31",
      "expire_date": "2026-08-31"
    },
    {
      "name": "株式会社八ヶ岳モールマネージメント",
      "name_kana": "カブシキカイシャヤツガタケモールマネージメント",
      "business_type": "① 飲食店営業",
      "address": "山梨県北杜市小淵沢町4000",
      "lat": 35.88612,
      "lng": 138.307997,
      "geocoding_level": null,
      "phone": "0551-20-5454",
      "license_no": "山梨県指令中北福第155号-291",
      "license_date": "2021-07-26",
      "expire_date": "2026-10-31"
    },
    {
      "name": "ファームヤード篠尾",
      "name_kana": "ファームヤードシノオ",
      "business_type": "⑬ 乳製品製造業",
      "address": "山梨県北杜市小淵沢町上笹尾3270-14",
      "lat": 35.856954,
      "lng": 138.335848,
      "geocoding_level": null,
      "phone": "080-5062-1683",
      "license_no": "山梨県指令中北福第155号-297",
      "license_date": "2021-07-26",
      "expire_date": "2027-10-31"
    },
    {
      "name": "ベジモア・ガーデン",
      "name_kana": "ベジモア・ガーデン",
      "business_type": "① 飲食店営業",
      "address": "山梨県北杜市小淵沢町上笹尾3270-14",
      "lat": 35.856954,
      "lng": 138.335848,
      "geocoding_level": null,
      "phone": "",
      "license_no": "山梨県指令中北福第8号-416",
      "license_date": "2024-09-30",
      "expire_date": "2030-10-31"
    },
    {
      "name": "白州フォスターヴィレッジ",
      "name_kana": "ハクシュウフォスターヴィレッジ",
      "business_type": "① 飲食店営業",
      "address": "山梨県北杜市白州町大坊1193-1",
      "lat": 35.767179,
      "lng": 138.312713,
      "geocoding_level": null,
      "phone": "",
      "license_no": "山梨県指令中北福第155号-299",
      "license_date": "2021-08-20",
      "expire_date": "2027-08-31"
    },
    {
      "name": "nicomi831",
      "name_kana": "ニコミヤサイ",
      "business_type": "① 飲食店営業",
      "address": "山梨県北杜市大泉町西井出2501-1",
      "lat": 35.861647,
      "lng": 138.391079,
      "geocoding_level": null,
      "phone": "",
      "license_no": "山梨県指令中北福第155号-303",
      "license_date": "2021-07-31",
      "expire_date": "2026-07-31"
    },
    {
      "name": "nicomi831",
      "name_kana": "ニコミヤサイ",
      "business_type": "㉕ そうざい製造業",
      "address": "山梨県北杜市大泉町西井出2501-1",
      "lat": 35.861647,
      "lng": 138.391079,
      "geocoding_level": null,
      "phone": "",
      "license_no": "山梨県指令中北福第155号-344",
      "license_date": "2021-07-30",
      "expire_date": "2026-07-31"
    },
    {
      "name": "café Antibés",
      "name_kana": "カフェ　アンティーブ",
      "business_type": "① 飲食店営業",
      "address": "山梨県北杜市大泉町西井出8240-4018",
      "lat": 35.888202,
      "lng": 138.406325,
      "geocoding_level": null,
      "phone": "",
      "license_no": "山梨県指令中北福第155号-302",
      "license_date": "2021-07-31",
      "expire_date": "2027-07-31"
    },
    {
      "name": "八ヶ岳スモーク",
      "name_kana": "ヤツガタケスモーク",
      "business_type": "① 飲食店営業",
      "address": "山梨県北杜市明野町浅尾5664",
      "lat": 35.779901,
      "lng": 138.461559,
      "geocoding_level": null,
      "phone": "080-1300-5598",
      "license_no": "山梨県指令中北福第9号-337",
      "license_date": "2025-07-18",
      "expire_date": "2030-12-31"
    },
    {
      "name": "八ヶ岳スモーク",
      "name_kana": "ヤツガタケスモーク",
      "business_type": "① 飲食店営業",
      "address": "山梨県北杜市武川町黒澤1361-1",
      "lat": 35.779794,
      "lng": 138.368599,
      "geocoding_level": null,
      "phone": "",
      "license_no": "山梨県指令中北福第9号-711",
      "license_date": "2026-03-19",
      "expire_date": "2031-08-31"
    },
    {
      "name": "セブンイレブン北杜武川店",
      "name_kana": "セブンイレブンホクトムカワテン",
      "business_type": "① 飲食店営業",
      "address": "山梨県北杜市武川町牧原688-1",
      "lat": 35.781579,
      "lng": 138.389715,
      "geocoding_level": null,
      "phone": "0551-45-7725",
      "license_no": "山梨県指令中北福第155号-316",
      "license_date": "2021-08-31",
      "expire_date": "2026-08-31"
    },
    {
      "name": "YS高根かどや",
      "name_kana": "ヤマザキショップタカネカドヤ",
      "business_type": "⑩ コンビニエンスストア",
      "address": "山梨県北杜市高根町村山東割1513",
      "lat": 35.836465,
      "lng": 138.41896,
      "geocoding_level": null,
      "phone": "",
      "license_no": "",
      "license_date": null,
      "expire_date": null
    },
    {
      "name": "食の工房　いずみ",
      "name_kana": "ショクノコウボウ　イズミ",
      "business_type": "① 飲食店営業",
      "address": "山梨県北杜市大泉町西井出8240-2200",
      "lat": 35.892359,
      "lng": 138.411082,
      "geocoding_level": null,
      "phone": "",
      "license_no": "山梨県指令中北福第155号-323",
      "license_date": "2021-07-31",
      "expire_date": "2027-07-31"
    },
    {
      "name": "食の工房　いずみ",
      "name_kana": "ショクノコウボウ　イズミ",
      "business_type": "㉕ そうざい製造業",
      "address": "山梨県北杜市大泉町西井出8240-2200",
      "lat": 35.892359,
      "lng": 138.411082,
      "geocoding_level": null,
      "phone": "",
      "license_no": "山梨県指令中北福第9号-324",
      "license_date": "2025-07-30",
      "expire_date": "2031-07-31"
    },
    {
      "name": "里山ごちそう本舗",
      "name_kana": "サトヤマゴチソウホンポ",
      "business_type": "⑪ 菓子製造業",
      "address": "山梨県北杜市白州町鳥原650-4",
      "lat": 35.822955,
      "lng": 138.274196,
      "geocoding_level": null,
      "phone": "0551-45-9263",
      "license_no": "山梨県指令中北福第155号-331",
      "license_date": "2021-08-31",
      "expire_date": "2026-08-31"
    },
    {
      "name": "里山ごちそう本舗",
      "name_kana": "サトヤマゴチソウホンポ",
      "business_type": "㉙ 漬物製造業",
      "address": "山梨県北杜市白州町鳥原650-4",
      "lat": 35.822955,
      "lng": 138.274196,
      "geocoding_level": null,
      "phone": "0551-45-9263",
      "license_no": "山梨県指令中北福第1号-792",
      "license_date": "2024-03-29",
      "expire_date": "2030-08-31"
    },
    {
      "name": "里山ごちそう本舗",
      "name_kana": "サトヤマゴチソウホンポ",
      "business_type": "⑧ 米穀類販売業",
      "address": "山梨県北杜市白州町鳥原650-4",
      "lat": 35.833564,
      "lng": 138.295136,
      "geocoding_level": null,
      "phone": "0551-45-9263",
      "license_no": "",
      "license_date": null,
      "expire_date": null
    },
    {
      "name": "里山ごちそう本舗",
      "name_kana": "サトヤマゴチソウホンポ",
      "business_type": "⑳ 精穀・製粉業",
      "address": "山梨県北杜市白州町鳥原650-4",
      "lat": 35.833564,
      "lng": 138.295136,
      "geocoding_level": null,
      "phone": "0551-45-9263",
      "license_no": "",
      "license_date": null,
      "expire_date": null
    },
    {
      "name": "横手味噌",
      "name_kana": "ヨコテミソ",
      "business_type": "㉙ 漬物製造業",
      "address": "山梨県北杜市白州町横手2417",
      "lat": 35.796097,
      "lng": 138.317217,
      "geocoding_level": null,
      "phone": "0551-35-3140",
      "license_no": "山梨県指令中北福第155号-333",
      "license_date": "2021-09-01",
      "expire_date": "2026-08-31"
    },
    {
      "name": "横手味噌",
      "name_kana": "ヨコテミソ",
      "business_type": "㉕ そうざい製造業",
      "address": "山梨県北杜市白州町横手2417",
      "lat": 35.796097,
      "lng": 138.317217,
      "geocoding_level": null,
      "phone": "0551-35-3140",
      "license_no": "山梨県指令中北福第155号-334",
      "license_date": "2021-08-31",
      "expire_date": "2026-08-31"
    },
    {
      "name": "ファミリーマート長坂駅前店",
      "name_kana": "ファミリーマートナガサカエキマエテン",
      "business_type": "① 飲食店営業",
      "address": "山梨県北杜市長坂町長坂上条2493-4",
      "lat": 35.828124,
      "lng": 138.36936,
      "geocoding_level": null,
      "phone": "0551-32-0070",
      "license_no": "山梨県指令中北福第8号-497",
      "license_date": "2024-10-17",
      "expire_date": "2030-10-31"
    },
    {
      "name": "ファミリーマート長坂駅前店",
      "name_kana": "ファミリーマートナガサカエキマエテン",
      "business_type": "⑩ コンビニエンスストア",
      "address": "山梨県北杜市長坂町長坂上条2493-4",
      "lat": 35.828112,
      "lng": 138.36937,
      "geocoding_level": null,
      "phone": "0551-32-0070",
      "license_no": "",
      "license_date": null,
      "expire_date": null
    },
    {
      "name": "清里のマリヤ",
      "name_kana": "キヨサトノマリヤ",
      "business_type": "① 飲食店営業",
      "address": "山梨県北杜市高根町清里3545-1 清里の森　センター施設内",
      "lat": 35.929915,
      "lng": 138.443849,
      "geocoding_level": null,
      "phone": "",
      "license_no": "山梨県指令中北福第155号-338",
      "license_date": "2021-08-11",
      "expire_date": "2028-06-30"
    },
    {
      "name": "清里のマリヤ",
      "name_kana": "キヨサトノマリヤ",
      "business_type": "⑬ その他の食料・飲料販売業",
      "address": "山梨県北杜市高根町清里3545－1 清里の森　センター施設内",
      "lat": 35.924541,
      "lng": 138.433788,
      "geocoding_level": null,
      "phone": "",
      "license_no": "",
      "license_date": null,
      "expire_date": null
    },
    {
      "name": "清里のマリヤ",
      "name_kana": "キヨサトノマリヤ",
      "business_type": "⑪ 菓子製造業",
      "address": "山梨県北杜市高根町清里3545-1 清里の森センター施設内",
      "lat": 35.926512,
      "lng": 138.442141,
      "geocoding_level": null,
      "phone": "0551-33-9339",
      "license_no": "山梨県指令中北福第3号-704",
      "license_date": "2023-02-22",
      "expire_date": "2029-06-30"
    },
    {
      "name": "八ヶ岳乳業株式会社　小淵沢工場",
      "name_kana": "ヤツガタケカブシキカイシャ　コブチザワコウジョウ",
      "business_type": "⑬ 乳製品製造業",
      "address": "山梨県北杜市小淵沢町6897",
      "lat": 35.860883,
      "lng": 138.309022,
      "geocoding_level": null,
      "phone": "0551-36-2241",
      "license_no": "山梨県指令中北福第155号-345",
      "license_date": "2021-09-24",
      "expire_date": "2026-10-31"
    },
    {
      "name": "有限会社　小野商店",
      "name_kana": "ユウゲンカイシャオノショウテン",
      "business_type": "① 飲食店営業",
      "address": "山梨県北杜市武川町三吹2157-1",
      "lat": 35.784926,
      "lng": 138.378821,
      "geocoding_level": null,
      "phone": "0551-26-2020",
      "license_no": "山梨県指令中北福第155号-340",
      "license_date": "2021-08-31",
      "expire_date": "2027-08-31"
    },
    {
      "name": "有限会社　小野商店",
      "name_kana": "ユウゲンカイシャオノショウテン",
      "business_type": "④ 魚介類販売業",
      "address": "山梨県北杜市武川町三吹2157-1",
      "lat": 35.784926,
      "lng": 138.378821,
      "geocoding_level": null,
      "phone": "0551-26-2020",
      "license_no": "山梨県指令中北福第155号-340",
      "license_date": "2021-08-31",
      "expire_date": "2027-08-31"
    },
    {
      "name": "有限会社　小野商店",
      "name_kana": "ユウゲンカイシャオノショウテン",
      "business_type": "⑪ 百貨店、総合スーパー",
      "address": "山梨県北杜市武川町三吹2157-1",
      "lat": 35.784926,
      "lng": 138.378821,
      "geocoding_level": null,
      "phone": "0551-26-2020",
      "license_no": "",
      "license_date": null,
      "expire_date": null
    },
    {
      "name": "甲斐駒の恵み",
      "name_kana": "カイコマノメグミ",
      "business_type": "⑳ みそ又はしょうゆ製造業",
      "address": "山梨県北杜市白州町鳥原2637",
      "lat": 35.82894,
      "lng": 138.298066,
      "geocoding_level": null,
      "phone": "",
      "license_no": "山梨県指令中北福第155号-277",
      "license_date": "2021-08-06",
      "expire_date": "2027-08-31"
    },
    {
      "name": "甲斐駒の恵み",
      "name_kana": "カイコマノメグミ",
      "business_type": "⑧ 米穀類販売業",
      "address": "山梨県北杜市白州町鳥原２６３７",
      "lat": 35.82894,
      "lng": 138.298066,
      "geocoding_level": null,
      "phone": "",
      "license_no": "",
      "license_date": null,
      "expire_date": null
    },
    {
      "name": "甲斐駒の恵み",
      "name_kana": "カイコマノメグミ",
      "business_type": "⑦ 野菜果物販売業",
      "address": "山梨県北杜市白州町鳥原2637",
      "lat": 35.82894,
      "lng": 138.298066,
      "geocoding_level": null,
      "phone": "",
      "license_no": "",
      "license_date": null,
      "expire_date": null
    },
    {
      "name": "八ヶ岳キムチ工房",
      "name_kana": "ヤツガタケキムチコウボウ",
      "business_type": "㉙ 漬物製造業",
      "address": "山梨県北杜市長坂町大八田4294-15",
      "lat": 35.825433,
      "lng": 138.380557,
      "geocoding_level": null,
      "phone": "",
      "license_no": "山梨県指令中北福第155号-278",
      "license_date": "2021-08-06",
      "expire_date": "2027-10-31"
    },
    {
      "name": "むかわの湯",
      "name_kana": "ムカワノユ",
      "business_type": "① 飲食店営業",
      "address": "山梨県北杜市武川町牧原1322",
      "lat": 35.783588,
      "lng": 138.378665,
      "geocoding_level": null,
      "phone": "0551-20-3113",
      "license_no": "山梨県指令中北福第155号-346",
      "license_date": "2021-08-31",
      "expire_date": "2026-08-31"
    },
    {
      "name": "株式会社アルソア慧央グループ",
      "name_kana": "カブシキガイシャアルソアケイオウグループ",
      "business_type": "⑨ 通信販売・訪問販売による販売業",
      "address": "山梨県北杜市小淵沢町2961",
      "lat": 35.877699,
      "lng": 138.315372,
      "geocoding_level": null,
      "phone": "",
      "license_no": "",
      "license_date": null,
      "expire_date": null
    },
    {
      "name": "北杜市立小淵沢学校給食センター",
      "name_kana": "ホクトシリツコブチザワガッコウキュウショクセンター",
      "business_type": "㉖ 集団給食施設",
      "address": "山梨県北杜市小淵沢町7741",
      "lat": 35.85733,
      "lng": 138.317236,
      "geocoding_level": null,
      "phone": "",
      "license_no": "",
      "license_date": null,
      "expire_date": null
    },
    {
      "name": "北杜市立北杜北学校給食センター",
      "name_kana": "ホクトシリツホクトキタガッコウキュウショクセンター",
      "business_type": "㉖ 集団給食施設",
      "address": "山梨県北杜市長坂町長坂上条1608",
      "lat": 35.82445,
      "lng": 138.375196,
      "geocoding_level": null,
      "phone": "",
      "license_no": "",
      "license_date": null,
      "expire_date": null
    },
    {
      "name": "北杜市立北杜南学校給食センター",
      "name_kana": "ホクトシリツホクトミナミガッコウキュウショクセンター",
      "business_type": "㉖ 集団給食施設",
      "address": "山梨県北杜市須玉町大蔵834-1",
      "lat": 35.781458,
      "lng": 138.42366,
      "geocoding_level": null,
      "phone": "",
      "license_no": "",
      "license_date": null,
      "expire_date": null
    },
    {
      "name": "北杜市立泉中学校学校給食調理場",
      "name_kana": "ホクトシリツイズミチュウガッコウガッコウキュウショクチョウリバ",
      "business_type": "㉖ 集団給食施設",
      "address": "山梨県北杜市大泉町谷戸2087",
      "lat": 35.859541,
      "lng": 138.381646,
      "geocoding_level": null,
      "phone": "",
      "license_no": "",
      "license_date": null,
      "expire_date": null
    },
    {
      "name": "合同会社八ヶ岳南麓ファーム　自然栽培　野菜とお米",
      "name_kana": "ゴウドウカイシャヤツガタケナンロクファーム　シゼンサイバイ　ヤサイトオコメ",
      "business_type": "① 飲食店営業",
      "address": "山梨県北杜市大泉町西井出2159-1",
      "lat": 35.862533,
      "lng": 138.397129,
      "geocoding_level": null,
      "phone": "",
      "license_no": "山梨県指令中北福第155号-339",
      "license_date": "2021-07-30",
      "expire_date": "2027-07-31"
    },
    {
      "name": "合同会社八ヶ岳南麓ファーム　自然栽培　野菜とお米",
      "name_kana": "ゴウドウガイシャヤツガタケナンロクファーム　　シゼンサイバイ　ヤサイトオコメ",
      "business_type": "⑳ みそ又はしょうゆ製造業",
      "address": "山梨県北杜市大泉町西井出2159-1",
      "lat": 35.862554,
      "lng": 138.396979,
      "geocoding_level": null,
      "phone": "080-3080-3017",
      "license_no": "山梨県指令中北福第3号-405",
      "license_date": "2022-07-29",
      "expire_date": "2028-07-31"
    },
    {
      "name": "花白州",
      "name_kana": "ハナハクシュウ",
      "business_type": "① 飲食店営業",
      "address": "山梨県北杜市白州町白須3268",
      "lat": 35.811226,
      "lng": 138.320475,
      "geocoding_level": null,
      "phone": "0551-20-4500",
      "license_no": "山梨県指令中北福第9号-358",
      "license_date": "2025-08-14",
      "expire_date": "2031-08-31"
    },
    {
      "name": "花白州",
      "name_kana": "ハナハクシュウ",
      "business_type": "㉚ 密封包装食品製造業",
      "address": "山梨県北杜市白州町白須3268",
      "lat": 35.811226,
      "lng": 138.320475,
      "geocoding_level": null,
      "phone": "0551-20-4500",
      "license_no": "山梨県指令中北福第9号-359",
      "license_date": "2025-08-13",
      "expire_date": "2031-08-31"
    },
    {
      "name": "花白州",
      "name_kana": "ハナハクシュウ",
      "business_type": "⑰ 農産保存食料品製造・加工業",
      "address": "山梨県北杜市白州町白須3268",
      "lat": 35.811221,
      "lng": 138.320487,
      "geocoding_level": null,
      "phone": "",
      "license_no": "",
      "license_date": null,
      "expire_date": null
    },
    {
      "name": "ユイ・ナーセリー",
      "name_kana": "ユイ・ナーセリー",
      "business_type": "㉔ その他の食料品製造・加工業",
      "address": "山梨県北杜市小淵沢町松向1038-1",
      "lat": 35.840089,
      "lng": 138.341457,
      "geocoding_level": null,
      "phone": "",
      "license_no": "",
      "license_date": null,
      "expire_date": null
    },
    {
      "name": "セレオホール北杜",
      "name_kana": "セレオホールホクト",
      "business_type": "① 飲食店営業",
      "address": "山梨県北杜市高根町箕輪新町1771-2",
      "lat": 35.836565,
      "lng": 138.429104,
      "geocoding_level": null,
      "phone": "0551-45-9611",
      "license_no": "山梨県指令中北福第155号-348",
      "license_date": "2021-08-06",
      "expire_date": "2028-06-30"
    },
    {
      "name": "山梨県立北杜高等学校",
      "name_kana": "ヤマナシケンリツホクトコウトウガッコウ",
      "business_type": "⑫ アイスクリーム類製造業",
      "address": "山梨県北杜市長坂町渋沢1007-19",
      "lat": 35.800303,
      "lng": 138.386144,
      "geocoding_level": null,
      "phone": "0551-20-4025",
      "license_no": "山梨県指令中北福第1号-490",
      "license_date": "2023-10-19",
      "expire_date": "2029-10-31"
    },
    {
      "name": "山梨県立北杜高等学校",
      "name_kana": "ヤマナシケンリツホクトコウトウガッコウ",
      "business_type": "⑳ みそ又はしょうゆ製造業",
      "address": "山梨県北杜市長坂町渋沢1007-19",
      "lat": 35.800303,
      "lng": 138.386144,
      "geocoding_level": null,
      "phone": "0551-20-4025",
      "license_no": "山梨県指令中北福第1号-490",
      "license_date": "2023-10-19",
      "expire_date": "2029-10-31"
    },
    {
      "name": "山梨県立北杜高等学校",
      "name_kana": "ヤマナシケンリツホクトコウトウガッコウ",
      "business_type": "㉚ 密封包装食品製造業",
      "address": "山梨県北杜市長坂町渋沢1007-19",
      "lat": 35.800303,
      "lng": 138.386144,
      "geocoding_level": null,
      "phone": "0551-20-4025",
      "license_no": "山梨県指令中北福第8号-489",
      "license_date": "2024-09-24",
      "expire_date": "2030-10-31"
    },
    {
      "name": "専門学校　山梨県立農業大学校",
      "name_kana": "センモンガッコウ　ヤマナシケンリツノウギョウダイガッコウ",
      "business_type": "⑰ 農産保存食料品製造・加工業",
      "address": "山梨県北杜市長坂町長坂上条3251",
      "lat": 35.822752,
      "lng": 138.364194,
      "geocoding_level": null,
      "phone": "0551-32-2269",
      "license_no": "",
      "license_date": null,
      "expire_date": null
    },
    {
      "name": "ベーカークラスティ",
      "name_kana": "ベーカークラスティ",
      "business_type": "⑪ 菓子製造業",
      "address": "山梨県北杜市小淵沢町2510-4",
      "lat": 35.871225,
      "lng": 138.312886,
      "geocoding_level": null,
      "phone": "0551-36-6424",
      "license_no": "山梨県指令中北福第155号-353",
      "license_date": "2021-09-30",
      "expire_date": "2027-10-31"
    },
    {
      "name": "ベーカークラスティ",
      "name_kana": "ベーカークラスティ",
      "business_type": "③ 乳類販売業",
      "address": "山梨県北杜市小淵沢町2510-4",
      "lat": 35.871225,
      "lng": 138.312886,
      "geocoding_level": null,
      "phone": "0551-36-6424",
      "license_no": "",
      "license_date": null,
      "expire_date": null
    },
    {
      "name": "ゼルコバ",
      "name_kana": "ゼルコバ",
      "business_type": "⑪ 菓子製造業",
      "address": "山梨県北杜市白州町白須258-1",
      "lat": 35.809502,
      "lng": 138.333988,
      "geocoding_level": null,
      "phone": "0551-45-8124",
      "license_no": "山梨県指令中北福第155号-362",
      "license_date": "2021-09-01",
      "expire_date": "2026-08-31"
    },
    {
      "name": "ゼルコバ",
      "name_kana": "ゼルコバ",
      "business_type": "⑬ その他の食料・飲料販売業",
      "address": "山梨県北杜市白州町白須258-1",
      "lat": 35.809502,
      "lng": 138.333988,
      "geocoding_level": null,
      "phone": "",
      "license_no": "",
      "license_date": null,
      "expire_date": null
    },
    {
      "name": "ハレterrace リゾナーレ",
      "name_kana": "ハレテラスリゾナーレ",
      "business_type": "① 飲食店営業",
      "address": "山梨県北杜市小淵沢町129-1",
      "lat": 35.86968,
      "lng": 138.32695,
      "geocoding_level": null,
      "phone": "",
      "license_no": "山梨県指令中北福第155号-354",
      "license_date": "2021-08-13",
      "expire_date": "2027-10-31"
    },
    {
      "name": "ダイニングカフェ　Ｄｅｒｒａ",
      "name_kana": "ダイニングカフェデラ",
      "business_type": "① 飲食店営業",
      "address": "山梨県北杜市大泉町西井出8240-4910",
      "lat": 35.904739,
      "lng": 138.406402,
      "geocoding_level": null,
      "phone": "0551-35-9000",
      "license_no": "山梨県指令中北福第155号-364",
      "license_date": "2021-09-15",
      "expire_date": "2027-07-31"
    },
    {
      "name": "株式会社トップホテルズマネイジメント白州工場",
      "name_kana": "カブシキカイシャトップホテルズマネイジメントハクシュウコウジョウ",
      "business_type": "⑭ 清涼飲料水製造業",
      "address": "山梨県北杜市白州町台ケ原338-1",
      "lat": 35.803912,
      "lng": 138.341457,
      "geocoding_level": null,
      "phone": "090-5401-0939",
      "license_no": "山梨県指令中北福第9号-606",
      "license_date": "2025-12-26",
      "expire_date": "2032-08-31"
    },
    {
      "name": "株式会社トップホテルズマネイジメント白州工場",
      "name_kana": "カブシキカイシャトップホテルズマネイジメントハクシュウコウジョウ",
      "business_type": "㉗ 器具、容器包装の製造・加工業（合成樹脂が使用された器具又は容器包装の製造、加工に限る。）",
      "address": "山梨県北杜市白州町台ケ原338-1",
      "lat": 35.803912,
      "lng": 138.341457,
      "geocoding_level": null,
      "phone": "090-5401-0939",
      "license_no": "",
      "license_date": null,
      "expire_date": null
    },
    {
      "name": "珈琲　野点庵",
      "name_kana": "コーヒー　ノダテアン",
      "business_type": "① 飲食店営業",
      "address": "山梨県北杜市長坂町小荒間山梨県一円(諏訪480え2078)",
      "lat": 35.898539,
      "lng": 138.351428,
      "geocoding_level": null,
      "phone": "090-8729-9556",
      "license_no": "山梨県指令中北福第8号-664",
      "license_date": "2024-12-27",
      "expire_date": "2029-12-31"
    },
    {
      "name": "イーゲルハウスジャム工房",
      "name_kana": "イーゲルハウスジャムコウボウ",
      "business_type": "⑰ 農産保存食料品製造・加工業",
      "address": "山梨県北杜市白州町白須3165",
      "lat": 35.807553,
      "lng": 138.316614,
      "geocoding_level": null,
      "phone": "",
      "license_no": "",
      "license_date": null,
      "expire_date": null
    },
    {
      "name": "Igelfarm",
      "name_kana": "イーゲルファーム",
      "business_type": "⑪ 菓子製造業",
      "address": "山梨県北杜市白州町白須3165",
      "lat": 35.807528,
      "lng": 138.316545,
      "geocoding_level": null,
      "phone": "0551-35-4021",
      "license_no": "山梨県指令中北福第8号-624",
      "license_date": "2024-12-24",
      "expire_date": "2030-08-31"
    },
    {
      "name": "Igelfarm",
      "name_kana": "イーゲルファーム",
      "business_type": "㉚ 密封包装食品製造業",
      "address": "山梨県北杜市白州町白須3165",
      "lat": 35.807528,
      "lng": 138.316545,
      "geocoding_level": null,
      "phone": "0551-35-4021",
      "license_no": "山梨県指令中北福第8号-624",
      "license_date": "2024-12-24",
      "expire_date": "2030-08-31"
    },
    {
      "name": "コミュニティカフェたんぽぽ食堂",
      "name_kana": "コミュニティカフェタンポポショクドウ",
      "business_type": "① 飲食店営業",
      "address": "山梨県北杜市長坂町大八田3913",
      "lat": 35.832061,
      "lng": 138.384852,
      "geocoding_level": null,
      "phone": "0551-45-6890",
      "license_no": "山梨県指令中北福第1号-473",
      "license_date": "2023-10-24",
      "expire_date": "2029-10-31"
    },
    {
      "name": "コミュニティカフェたんぽぽ食堂",
      "name_kana": "コミュニティカフェタンポポショクドウ",
      "business_type": "㉕ そうざい製造業",
      "address": "山梨県北杜市長坂町大八田3913",
      "lat": 35.832061,
      "lng": 138.384852,
      "geocoding_level": null,
      "phone": "0551-45-6890",
      "license_no": "山梨県指令中北福第9号-484",
      "license_date": "2025-10-20",
      "expire_date": "2031-10-31"
    },
    {
      "name": "コミュニティカフェたんぽぽ食堂",
      "name_kana": "コミュニティカフェタンポポショクドウ",
      "business_type": "㉚ 密封包装食品製造業",
      "address": "山梨県北杜市長坂町大八田3913",
      "lat": 35.832061,
      "lng": 138.384852,
      "geocoding_level": null,
      "phone": "0551-45-6890",
      "license_no": "山梨県指令中北福第1号-665",
      "license_date": "2024-01-12",
      "expire_date": "2030-10-31"
    },
    {
      "name": "コミュニティカフェたんぽぽ食堂",
      "name_kana": "コミュニティカフェタンポポショクドウ",
      "business_type": "㉔ その他の食料品製造・加工業",
      "address": "山梨県北杜市長坂町大八田3913",
      "lat": 35.832061,
      "lng": 138.384852,
      "geocoding_level": null,
      "phone": "",
      "license_no": "",
      "license_date": null,
      "expire_date": null
    },
    {
      "name": "桔梗屋東治郎小淵沢店",
      "name_kana": "キキョウヤトウジロウコブチザワテン",
      "business_type": "① 飲食店営業",
      "address": "山梨県北杜市小淵沢町2977-1",
      "lat": 35.889212,
      "lng": 138.324011,
      "geocoding_level": null,
      "phone": "0551-45-9333",
      "license_no": "山梨県指令中北福第155号-542",
      "license_date": "2021-12-17",
      "expire_date": "2028-10-31"
    },
    {
      "name": "桔梗屋東治郎小淵沢店",
      "name_kana": "キキョウヤトウジロウコブチザワテン",
      "business_type": "⑪ 菓子製造業",
      "address": "山梨県北杜市小淵沢町2977-1",
      "lat": 35.889212,
      "lng": 138.324011,
      "geocoding_level": null,
      "phone": "0551-45-9333",
      "license_no": "山梨県指令中北福第155号-542",
      "license_date": "2021-12-17",
      "expire_date": "2028-10-31"
    },
    {
      "name": "Domaine Enchante",
      "name_kana": "ドメーヌ　アンシャンテ",
      "business_type": "㉑ 酒類製造業",
      "address": "山梨県北杜市小淵沢町8035-1",
      "lat": 35.889212,
      "lng": 138.324011,
      "geocoding_level": null,
      "phone": "",
      "license_no": "山梨県指令中北福第8号-360",
      "license_date": "2024-07-29",
      "expire_date": "2030-10-31"
    },
    {
      "name": "清里2023722",
      "name_kana": "キヨサトニーゼロニーサンナナニーニー",
      "business_type": "① 飲食店営業",
      "address": "山梨県北杜市高根町清里3545-1 ena清里合宿所内",
      "lat": 35.926542,
      "lng": 138.442132,
      "geocoding_level": null,
      "phone": "",
      "license_no": "山梨県指令中北福第1号-292",
      "license_date": "2023-07-21",
      "expire_date": "2030-06-30"
    },
    {
      "name": "エロイーズカフェ八ヶ岳店",
      "name_kana": "エロイーズカフェヤツガタケテン",
      "business_type": "① 飲食店営業",
      "address": "山梨県北杜市長坂町大八田1555-1",
      "lat": 35.838985,
      "lng": 138.390378,
      "geocoding_level": null,
      "phone": "080-1345-5661",
      "license_no": "山梨県指令中北福第155号-368",
      "license_date": "2021-09-22",
      "expire_date": "2027-10-31"
    },
    {
      "name": "Garden Shed R",
      "name_kana": "ガーデンシェードアール",
      "business_type": "① 飲食店営業",
      "address": "山梨県北杜市小淵沢町上笹尾3332-452",
      "lat": 35.880209,
      "lng": 138.337125,
      "geocoding_level": null,
      "phone": "0551-37-6684",
      "license_no": "山梨県指令中北福第155号-370",
      "license_date": "2021-09-24",
      "expire_date": "2027-10-31"
    },
    {
      "name": "カントリーロッヂ森の四季",
      "name_kana": "カントリーロッヂモリノシキ",
      "business_type": "① 飲食店営業",
      "address": "山梨県北杜市小淵沢町5416-9",
      "lat": 35.86216,
      "lng": 138.291,
      "geocoding_level": null,
      "phone": "0551-36-4313",
      "license_no": "山梨県指令中北福第155号-369",
      "license_date": "2021-09-30",
      "expire_date": "2026-10-31"
    },
    {
      "name": "ラウンジ　シルク",
      "name_kana": "ラウンジ　シルク",
      "business_type": "① 飲食店営業",
      "address": "山梨県北杜市小淵沢町1029-4",
      "lat": 35.863243,
      "lng": 138.317567,
      "geocoding_level": null,
      "phone": "0551-36-5664",
      "license_no": "山梨県指令中北福第155号-377",
      "license_date": "2021-09-06",
      "expire_date": "2026-10-31"
    },
    {
      "name": "海",
      "name_kana": "カイ",
      "business_type": "① 飲食店営業",
      "address": "山梨県北杜市小淵沢町1020-4",
      "lat": 35.86313,
      "lng": 138.317071,
      "geocoding_level": null,
      "phone": "0551-36-3117",
      "license_no": "山梨県指令中北福第155号-376",
      "license_date": "2021-09-06",
      "expire_date": "2026-10-31"
    },
    {
      "name": "八ヶ岳ミキLABO",
      "name_kana": "ヤツガタケミキラボ",
      "business_type": "㉕ そうざい製造業",
      "address": "山梨県北杜市大泉町西井出6338-1",
      "lat": 35.877266,
      "lng": 138.396046,
      "geocoding_level": null,
      "phone": "0551-45-9311",
      "license_no": "山梨県指令中北福第155号-374",
      "license_date": "2021-09-22",
      "expire_date": "2026-07-31"
    },
    {
      "name": "ハレルヤ",
      "name_kana": "ハレルヤ",
      "business_type": "① 飲食店営業",
      "address": "山梨県北杜市大泉町西井出5606",
      "lat": 35.875376,
      "lng": 138.392941,
      "geocoding_level": null,
      "phone": "",
      "license_no": "山梨県指令中北福第1号-24",
      "license_date": "2023-04-28",
      "expire_date": "2028-07-31"
    },
    {
      "name": "ハレルヤ",
      "name_kana": "ハレルヤ",
      "business_type": "⑪ 菓子製造業",
      "address": "山梨県北杜市大泉町西井出5606",
      "lat": 35.875376,
      "lng": 138.392941,
      "geocoding_level": null,
      "phone": "",
      "license_no": "山梨県指令中北福第1号-613",
      "license_date": "2023-12-25",
      "expire_date": "2029-07-31"
    },
    {
      "name": "八ヶ岳ミキLABO",
      "name_kana": "ヤツガタケミキラボ",
      "business_type": "㉕ そうざい製造業",
      "address": "山梨県北杜市大泉町西井出5606",
      "lat": 35.875376,
      "lng": 138.392941,
      "geocoding_level": null,
      "phone": "0551-45-9311",
      "license_no": "山梨県指令中北福第9号-686",
      "license_date": "2026-02-12",
      "expire_date": "2031-07-31"
    },
    {
      "name": "ツルハドラッグ北杜武川店",
      "name_kana": "ツルハドラッグホクトムカワテン",
      "business_type": "⑬ その他の食料・飲料販売業",
      "address": "山梨県北杜市武川町牧原708－1",
      "lat": 35.781879,
      "lng": 138.388062,
      "geocoding_level": null,
      "phone": "0551-26-0268",
      "license_no": "",
      "license_date": null,
      "expire_date": null
    },
    {
      "name": "dots Coffee Roasters",
      "name_kana": "ドッツコーヒーロースターズ",
      "business_type": "⑯ コーヒー製造・加工業（飲料の製造を除く。）",
      "address": "山梨県北杜市長坂町小荒間50-17",
      "lat": 35.898539,
      "lng": 138.351428,
      "geocoding_level": null,
      "phone": "0551-45-9385",
      "license_no": "",
      "license_date": null,
      "expire_date": null
    },
    {
      "name": "dots　Coffee　Roasters",
      "name_kana": "ドッツコーヒーロースターズ",
      "business_type": "① 飲食店営業",
      "address": "山梨県北杜市長坂町小荒間50-17",
      "lat": 35.869703,
      "lng": 138.367048,
      "geocoding_level": null,
      "phone": "0551-45-9385",
      "license_no": "山梨県指令中北福第3号-714",
      "license_date": "2022-12-19",
      "expire_date": "2029-10-31"
    },
    {
      "name": "HOW塩川病院店",
      "name_kana": "ハウシオカワビョウインテン",
      "business_type": "⑩ コンビニエンスストア",
      "address": "山梨県北杜市須玉町藤田773",
      "lat": 35.777783,
      "lng": 138.427073,
      "geocoding_level": null,
      "phone": "0551-42-5667",
      "license_no": "",
      "license_date": null,
      "expire_date": null
    },
    {
      "name": "BRILLARE",
      "name_kana": "ブリラーレ",
      "business_type": "① 飲食店営業",
      "address": "山梨県北杜市小淵沢町129-1",
      "lat": 35.87008,
      "lng": 138.326303,
      "geocoding_level": null,
      "phone": "",
      "license_no": "山梨県指令中北福第155号-392",
      "license_date": "2021-09-24",
      "expire_date": "2027-10-31"
    },