{
  "meta": {
    "updated": 1783568789,
    "sources": [
      {
        "source": "厚生労働省 食品衛生申請等システム（オープンデータ）",
        "license": "公共データ利用規約（第1.0版, PDL1.0）"
      }
    ]
  },
  "data": [
    {
      "name": "株式会社九州屋　東武栃木店",
      "name_kana": "カブシキガイシャキュウシュウヤ　トウブトチギテン",
      "business_type": "⑦ 野菜果物販売業",
      "address": "栃木県栃木市万町9-25 東武宇都宮百貨店栃木市役所　１F",
      "lat": 36.382431,
      "lng": 139.734067,
      "geocoding_level": null,
      "phone": "0282-21-8506",
      "license_no": "",
      "license_date": null,
      "expire_date": null
    },
    {
      "name": "北野エース　東武栃木市役所店",
      "name_kana": "キタノエース　トウブトチギシヤクショテン",
      "business_type": "⑬ その他の食料・飲料販売業",
      "address": "栃木県栃木市万町9-25 東武宇都宮百貨店栃木店１F",
      "lat": 36.382622,
      "lng": 139.734114,
      "geocoding_level": null,
      "phone": "028-221-8525",
      "license_no": "",
      "license_date": null,
      "expire_date": null
    },
    {
      "name": "株式会社明治フード",
      "name_kana": "カブシキガイシャ　メイジフード",
      "business_type": "㉙ その他",
      "address": "栃木県栃木市大平町西水代2115",
      "lat": 36.307285,
      "lng": 139.712835,
      "geocoding_level": null,
      "phone": "",
      "license_no": "",
      "license_date": null,
      "expire_date": null
    },
    {
      "name": "障がい福祉サービス事業所Honu",
      "name_kana": "ショウガイフクシサービスジギョウショホヌ",
      "business_type": "㉖ 集団給食施設",
      "address": "栃木県栃木市都賀町家中２２９３－３",
      "lat": 36.436726,
      "lng": 139.757541,
      "geocoding_level": null,
      "phone": "０２８２５１３５５７",
      "license_no": "",
      "license_date": null,
      "expire_date": null
    },
    {
      "name": "もめん弥壱番館",
      "name_kana": "モメンヤイチバンカン",
      "business_type": "⑬ その他の食料・飲料販売業",
      "address": "栃木県栃木市西方町真名子1215",
      "lat": 36.473083,
      "lng": 139.699034,
      "geocoding_level": null,
      "phone": "0282-92-0635",
      "license_no": "",
      "license_date": null,
      "expire_date": null
    },
    {
      "name": "もめん弥インター店",
      "name_kana": "モメンヤインターテン",
      "business_type": "⑬ その他の食料・飲料販売業",
      "address": "栃木県栃木市新井町1002-1",
      "lat": 36.402074,
      "lng": 139.712977,
      "geocoding_level": null,
      "phone": "",
      "license_no": "",
      "license_date": null,
      "expire_date": null
    },
    {
      "name": "Gelato LüLü",
      "name_kana": "ジェラートルル",
      "business_type": "⑬ その他の食料・飲料販売業",
      "address": "栃木県栃木市新井町1002-1",
      "lat": 36.402074,
      "lng": 139.712977,
      "geocoding_level": null,
      "phone": "0282-23-5858",
      "license_no": "",
      "license_date": null,
      "expire_date": null
    },
    {
      "name": "株式会社もめん弥",
      "name_kana": "モメンヤ",
      "business_type": "⑪ 菓子製造業",
      "address": "栃木県栃木市西方町真名子1215",
      "lat": 36.473083,
      "lng": 139.699034,
      "geocoding_level": null,
      "phone": "0282-91-1211",
      "license_no": "栃木県指令南保第30040117号",
      "license_date": "2022-05-31",
      "expire_date": "2028-05-31"
    },
    {
      "name": "ダイソー　ヨークタウン栃木大平町店",
      "name_kana": "ダイソー　ヨークタウントリギオオヒラマチテン",
      "business_type": "⑬ その他の食料・飲料販売業",
      "address": "栃木県栃木市大平町下皆川２１５番地２",
      "lat": 36.34737,
      "lng": 139.702852,
      "geocoding_level": null,
      "phone": "",
      "license_no": "",
      "license_date": null,
      "expire_date": null
    },
    {
      "name": "ダイソー　とりせん栃木店",
      "name_kana": "ダイソー　トリセントチギテン",
      "business_type": "⑬ その他の食料・飲料販売業",
      "address": "栃木県栃木市箱森町１２－１５",
      "lat": 36.38685,
      "lng": 139.719109,
      "geocoding_level": null,
      "phone": "",
      "license_no": "",
      "license_date": null,
      "expire_date": null
    },
    {
      "name": "ダイソー　ヨークタウン栃木平柳店",
      "name_kana": "ダイソー　ヨークタウントチギヒラヤナギテン",
      "business_type": "⑬ その他の食料・飲料販売業",
      "address": "栃木県栃木市平柳町２丁目２６番２０号",
      "lat": 36.393737,
      "lng": 139.75235,
      "geocoding_level": null,
      "phone": "",
      "license_no": "",
      "license_date": null,
      "expire_date": null
    },
    {
      "name": "ダイソー　栃木大平町西野田店",
      "name_kana": "ダイソー　トチギオオヒラマチニシノダテン",
      "business_type": "⑬ その他の食料・飲料販売業",
      "address": "栃木県栃木市大平町西野田１５７番地",
      "lat": 36.328012,
      "lng": 139.714035,
      "geocoding_level": null,
      "phone": "",
      "license_no": "",
      "license_date": null,
      "expire_date": null
    },
    {
      "name": "株式会社Ｍｉｚｋａｎ　栃木工場",
      "name_kana": "ミツカントチギコウジョウ",
      "business_type": "㉚ 密封包装食品製造業",
      "address": "栃木県栃木市大塚町2436",
      "lat": 36.415068,
      "lng": 139.756941,
      "geocoding_level": null,
      "phone": "0282-27-3113",
      "license_no": "30039980",
      "license_date": "2022-03-28",
      "expire_date": "2029-03-31"
    },
    {
      "name": "ミツカン栃木工場",
      "name_kana": "ミツカントチギコウジョウ",
      "business_type": "⑱ 調味料製造・加工業",
      "address": "栃木県栃木市大塚町2436",
      "lat": 36.415068,
      "lng": 139.756941,
      "geocoding_level": null,
      "phone": "0282-27-3113",
      "license_no": "",
      "license_date": null,
      "expire_date": null
    },
    {
      "name": "サントリー梓の森食堂",
      "name_kana": "サントリーアズサノモリショクドウ",
      "business_type": "⑫ 自動販売機による販売業（コップ式自動販売機（自動洗浄・屋内設置）及び営業許可の対象となる自動販売機を除く）",
      "address": "栃木県栃木市仲方町20",
      "lat": 36.421918,
      "lng": 139.699105,
      "geocoding_level": null,
      "phone": "",
      "license_no": "",
      "license_date": null,
      "expire_date": null
    },
    {
      "name": "ダイナム栃木岩舟店",
      "name_kana": "ダイナムトチギイワフネテン",
      "business_type": "⑤ コップ式自動販売機（自動洗浄・屋内設置）",
      "address": "栃木県栃木市岩舟町静戸字いすず467番地4",
      "lat": 36.302665,
      "lng": 139.696242,
      "geocoding_level": null,
      "phone": "070-1455-8790",
      "license_no": "",
      "license_date": null,
      "expire_date": null
    },
    {
      "name": "ヨークベニマル栃木平柳店",
      "name_kana": "ヨークベニマルトチギヒラヤナギテン",
      "business_type": "⑪ 百貨店、総合スーパー",
      "address": "栃木県栃木市平柳町二丁目26番21号",
      "lat": 36.394256,
      "lng": 139.751813,
      "geocoding_level": null,
      "phone": "0282-29-3200",
      "license_no": "",
      "license_date": null,
      "expire_date": null
    },
    {
      "name": "ヨークベニマル大平町店",
      "name_kana": "ヨークベニマルオオヒラマチテン",
      "business_type": "⑪ 百貨店、総合スーパー",
      "address": "栃木県栃木市大平町下皆川2100番地1",
      "lat": 36.347888,
      "lng": 139.703517,
      "geocoding_level": null,
      "phone": "0282-45-1371",
      "license_no": "",
      "license_date": null,
      "expire_date": null
    },
    {
      "name": "ヨークベニマル栃木祝町店",
      "name_kana": "ヨークベニマルトチギイワイチョウテン",
      "business_type": "⑪ 百貨店、総合スーパー",
      "address": "栃木県栃木市祝町6番28号",
      "lat": 36.3799,
      "lng": 139.727283,
      "geocoding_level": null,
      "phone": "0282-20-1821",
      "license_no": "",
      "license_date": null,
      "expire_date": null
    },
    {
      "name": "ヨークベニマル栃木祝町店",
      "name_kana": "ヨークベニマルトチギイワイチョウテン",
      "business_type": "① 飲食店営業",
      "address": "栃木県栃木市祝町6-28",
      "lat": 36.3799,
      "lng": 139.727283,
      "geocoding_level": null,
      "phone": "0282-20-1821",
      "license_no": "栃木県指令南保第30040513号",
      "license_date": "2022-10-31",
      "expire_date": "2028-10-31"
    },
    {
      "name": "ヨークベニマル栃木祝町店",
      "name_kana": "ヨークベニマルトチギイワイチョウテン",
      "business_type": "③ 食肉販売業",
      "address": "栃木県栃木市祝町6-28",
      "lat": 36.3799,
      "lng": 139.727283,
      "geocoding_level": null,
      "phone": "0282-20-1821",
      "license_no": "栃木県指令南保第30040514号",
      "license_date": "2022-10-31",
      "expire_date": "2028-10-31"
    },
    {
      "name": "ヨークベニマル栃木祝町店",
      "name_kana": "ヨークベニマルトチギイワイチョウテン",
      "business_type": "④ 魚介類販売業",
      "address": "栃木県栃木市祝町6-28",
      "lat": 36.3799,
      "lng": 139.727283,
      "geocoding_level": null,
      "phone": "0282-20-1821",
      "license_no": "栃木県指令南保第30040515号",
      "license_date": "2022-10-31",
      "expire_date": "2028-10-31"
    },
    {
      "name": "ヨークベニマル栃木祝町店",
      "name_kana": "ヨークベニマルトチギイワイチョウテン",
      "business_type": "⑪ 菓子製造業",
      "address": "栃木県栃木市祝町6-28",
      "lat": 36.3799,
      "lng": 139.727283,
      "geocoding_level": null,
      "phone": "0282-20-1821",
      "license_no": "栃木県指令南保第30040516号",
      "license_date": "2022-10-31",
      "expire_date": "2028-10-31"
    },
    {
      "name": "スターバックスコーヒー栃木倭町店",
      "name_kana": "スターバックスコーヒートチギヤマトチョウテン",
      "business_type": "⑬ その他の食料・飲料販売業",
      "address": "栃木県栃木市倭町7-1",
      "lat": 36.378412,
      "lng": 139.733186,
      "geocoding_level": null,
      "phone": "0282-20-5511",
      "license_no": "",
      "license_date": null,
      "expire_date": null
    },
    {
      "name": "スターバックスコーヒー栃木箱森店",
      "name_kana": "スターバックスコーヒートチギハコノモリテン",
      "business_type": "① 飲食店営業",
      "address": "栃木県栃木市箱森町38-5",
      "lat": 36.392311,
      "lng": 139.724435,
      "geocoding_level": null,
      "phone": "0282-25-8286",
      "license_no": "30042222",
      "license_date": "2024-08-22",
      "expire_date": "2030-10-31"
    },
    {
      "name": "スターバックスコーヒー栃木箱森店",
      "name_kana": "スターバックスコーヒートチギハコノモリテン",
      "business_type": "⑬ その他の食料・飲料販売業",
      "address": "栃木県栃木市箱森町38-5",
      "lat": 36.392311,
      "lng": 139.724435,
      "geocoding_level": null,
      "phone": "0282-25-8286",
      "license_no": "",
      "license_date": null,
      "expire_date": null
    },
    {
      "name": "ツルハドラッグ西方店",
      "name_kana": "ツルハドラッグニシカタテン",
      "business_type": "⑪ 百貨店、総合スーパー",
      "address": "栃木県栃木市西方町本城44番1",
      "lat": 36.467648,
      "lng": 139.742982,
      "geocoding_level": null,
      "phone": "0282-21-7667",
      "license_no": "",
      "license_date": null,
      "expire_date": null
    },
    {
      "name": "ツルハドラッグ新栃木店",
      "name_kana": "ツルハドラッグシントチギテン",
      "business_type": "⑪ 百貨店、総合スーパー",
      "address": "栃木県栃木市平柳町1丁目27番3号",
      "lat": 36.392471,
      "lng": 139.736933,
      "geocoding_level": null,
      "phone": "",
      "license_no": "",
      "license_date": null,
      "expire_date": null
    },
    {
      "name": "かっぱ寿司　栃木店",
      "name_kana": "カッパズシ　トチギテン",
      "business_type": "⑬ その他の食料・飲料販売業",
      "address": "栃木県栃木市薗部町1丁目21-25",
      "lat": 36.383689,
      "lng": 139.716609,
      "geocoding_level": null,
      "phone": "0282-20-1665",
      "license_no": "",
      "license_date": null,
      "expire_date": null
    },
    {
      "name": "サンドラッグ平柳店",
      "name_kana": "サンドラッグヒラヤナギテン",
      "business_type": "⑪ 百貨店、総合スーパー",
      "address": "栃木県栃木市平柳町２－２６－２０",
      "lat": 36.393696,
      "lng": 139.752283,
      "geocoding_level": null,
      "phone": "0282-29-6511",
      "license_no": "",
      "license_date": null,
      "expire_date": null
    },
    {
      "name": "株式会社アキトフーズ",
      "name_kana": "カブシキガイシャアキトフーズ",
      "business_type": "② 食肉販売業（包装済みの食肉のみの販売）",
      "address": "栃木県栃木市新井町775",
      "lat": 36.400769,
      "lng": 139.706314,
      "geocoding_level": null,
      "phone": "0282286300",
      "license_no": "",
      "license_date": null,
      "expire_date": null
    },
    {
      "name": "サンドラッグ大平町店",
      "name_kana": "サンドラッグオオヒラマチテン",
      "business_type": "⑪ 百貨店、総合スーパー",
      "address": "栃木県栃木市大平町下皆川２１００番地１",
      "lat": 36.347888,
      "lng": 139.703517,
      "geocoding_level": null,
      "phone": "0282-45-2531",
      "license_no": "",
      "license_date": null,
      "expire_date": null
    },
    {
      "name": "グラントマト　大平店",
      "name_kana": "グラントマト　オオヒラテン",
      "business_type": "② 食肉販売業（包装済みの食肉のみの販売）",
      "address": "栃木県栃木市大平町新1540-30",
      "lat": 36.332711,
      "lng": 139.710085,
      "geocoding_level": null,
      "phone": "0282-25-5368",
      "license_no": "",
      "license_date": null,
      "expire_date": null
    },
    {
      "name": "グラントマト　大平店",
      "name_kana": "グラントマト　オオヒラテン",
      "business_type": "⑪ 百貨店、総合スーパー",
      "address": "栃木県栃木市大平町新1540-30",
      "lat": 36.332711,
      "lng": 139.710085,
      "geocoding_level": null,
      "phone": "0282-25-5368",
      "license_no": "",
      "license_date": null,
      "expire_date": null
    },
    {
      "name": "グラントマト　大平店",
      "name_kana": "グラントマト　オオヒラテン",
      "business_type": "㉔ その他の食料品製造・加工業",
      "address": "栃木県栃木市大平町新1540-30",
      "lat": 36.332711,
      "lng": 139.710085,
      "geocoding_level": null,
      "phone": "0282-25-5368",
      "license_no": "",
      "license_date": null,
      "expire_date": null
    },
    {
      "name": "とりせん蔵の街店",
      "name_kana": "トリセンクラノマチテン",
      "business_type": "⑫ 自動販売機による販売業（コップ式自動販売機（自動洗浄・屋内設置）及び営業許可の対象となる自動販売機を除く）",
      "address": "栃木県栃木市富士見町5-30",
      "lat": 36.37784,
      "lng": 139.72662,
      "geocoding_level": null,
      "phone": "0282-25-6430",
      "license_no": "",
      "license_date": null,
      "expire_date": null
    },
    {
      "name": "とりせん大平店",
      "name_kana": "トリセンオオヒラテン",
      "business_type": "⑫ 自動販売機による販売業（コップ式自動販売機（自動洗浄・屋内設置）及び営業許可の対象となる自動販売機を除く）",
      "address": "栃木県栃木市大平町西水代1837-1",
      "lat": 36.318412,
      "lng": 139.712997,
      "geocoding_level": null,
      "phone": "0282-44-0731",
      "license_no": "",
      "license_date": null,
      "expire_date": null
    },
    {
      "name": "とりせん栃木店",
      "name_kana": "トリセントチギテン",
      "business_type": "⑫ 自動販売機による販売業（コップ式自動販売機（自動洗浄・屋内設置）及び営業許可の対象となる自動販売機を除く）",
      "address": "栃木県栃木市箱森町12-15",
      "lat": 36.38685,
      "lng": 139.719109,
      "geocoding_level": null,
      "phone": "0282-24-3301",
      "license_no": "",
      "license_date": null,
      "expire_date": null
    },
    {
      "name": "薬王堂　栃木都賀店",
      "name_kana": "ヤクオウドウ　トチギツガテン",
      "business_type": "① 魚介類販売業（包装済みの魚介類のみの販売）",
      "address": "栃木県栃木市都賀町家中字三ツ塚1870番1",
      "lat": 36.442452,
      "lng": 139.761886,
      "geocoding_level": null,
      "phone": "0282-25-6762",
      "license_no": "",
      "license_date": null,
      "expire_date": null
    },
    {
      "name": "薬王堂　栃木都賀店",
      "name_kana": "ヤクオウドウ　トチギツガテン",
      "business_type": "② 食肉販売業（包装済みの食肉のみの販売）",
      "address": "栃木県栃木市都賀町家中字三ツ塚1870番1",
      "lat": 36.442452,
      "lng": 139.761886,
      "geocoding_level": null,
      "phone": "0282-25-6762",
      "license_no": "",
      "license_date": null,
      "expire_date": null
    },
    {
      "name": "薬王堂　栃木都賀店",
      "name_kana": "ヤクオウドウ　トチギツガテン",
      "business_type": "③ 乳類販売業",
      "address": "栃木県栃木市都賀町家中字三ツ塚1870番1",
      "lat": 36.442452,
      "lng": 139.761886,
      "geocoding_level": null,
      "phone": "0282-25-6762",
      "license_no": "",
      "license_date": null,
      "expire_date": null
    },
    {
      "name": "スギドラッグ  栃木岩舟店",
      "name_kana": "スギドラッグ  トチギイワフネテン",
      "business_type": "⑪ 百貨店、総合スーパー",
      "address": "栃木県栃木市岩舟町静879番地3",
      "lat": 36.31864,
      "lng": 139.654272,
      "geocoding_level": null,
      "phone": "0282-21-8761",
      "license_no": "",
      "license_date": null,
      "expire_date": null
    },
    {
      "name": "あさひヶ丘カントリークラブ",
      "name_kana": "アサヒガオカカントリークラブ",
      "business_type": "⑬ その他の食料・飲料販売業",
      "address": "栃木県栃木市小野口町１３５１",
      "lat": 36.384712,
      "lng": 139.657724,
      "geocoding_level": null,
      "phone": "0282-23-7181",
      "license_no": "",
      "license_date": null,
      "expire_date": null
    },
    {
      "name": "ボヌール　日立支店",
      "name_kana": "ボヌール　ヒタチシテン",
      "business_type": "⑫ 自動販売機による販売業（コップ式自動販売機（自動洗浄・屋内設置）及び営業許可の対象となる自動販売機を除く）",
      "address": "栃木県栃木市大平町富田　800 番地",
      "lat": 36.338458,
      "lng": 139.705297,
      "geocoding_level": null,
      "phone": "0282439484",
      "license_no": "",
      "license_date": null,
      "expire_date": null
    },
    {
      "name": "ふるさとホーム　栃木藤岡",
      "name_kana": "フルサトホーム　トチギフジオカ",
      "business_type": "① 飲食店営業",
      "address": "栃木県栃木市藤岡町藤岡4287-1",
      "lat": 36.252158,
      "lng": 139.64266,
      "geocoding_level": null,
      "phone": "0282612110",
      "license_no": "30039590",
      "license_date": "2021-12-01",
      "expire_date": "2027-11-30"
    },
    {
      "name": "ファミリーマート栃木尻内町店",
      "name_kana": "ファミリーマートトチギシリウチチョウテン",
      "business_type": "⑩ コンビニエンスストア",
      "address": "栃木県栃木市尻内町１５５",
      "lat": 36.431149,
      "lng": 139.677547,
      "geocoding_level": null,
      "phone": "0282-30-1311",
      "license_no": "",
      "license_date": null,
      "expire_date": null
    },
    {
      "name": "株式会社アイ・シイ・エス",
      "name_kana": "カブシキカイシャアイ・シイ・エス",
      "business_type": "⑤ コップ式自動販売機（自動洗浄・屋内設置）",
      "address": "栃木県栃木市西方町本郷623",
      "lat": 36.452896,
      "lng": 139.738298,
      "geocoding_level": null,
      "phone": "",
      "license_no": "",
      "license_date": null,
      "expire_date": null
    },
    {
      "name": "（株）藤屋　栃木工場",
      "name_kana": "フジヤトチギコウジョウ",
      "business_type": "⑤ コップ式自動販売機（自動洗浄・屋内設置）",
      "address": "栃木県栃木市大平町伯仲２９５８−７",
      "lat": 36.301046,
      "lng": 139.71212,
      "geocoding_level": null,
      "phone": "0282-43-3100",
      "license_no": "",
      "license_date": null,
      "expire_date": null
    },
    {
      "name": "栃木ノースヒルズゴルフクラブ",
      "name_kana": "トチギノースヒルズゴルフクラブ",
      "business_type": "⑤ コップ式自動販売機（自動洗浄・屋内設置）",
      "address": "栃木県栃木市尻内町９８４－１",
      "lat": 36.419201,
      "lng": 139.666016,
      "geocoding_level": null,
      "phone": "0282-31-1010",
      "license_no": "",
      "license_date": null,
      "expire_date": null
    },
    {
      "name": "高田車体（株）",
      "name_kana": "タカダシャタイ",
      "business_type": "② 調理機能を有する自動販売機（要許可）",
      "address": "栃木県栃木市岩舟町曲ケ島１９５９－１",
      "lat": 36.301636,
      "lng": 139.688425,
      "geocoding_level": null,
      "phone": "",
      "license_no": "３００４０１７０",
      "license_date": "2022-06-02",
      "expire_date": "2028-10-31"
    },
    {
      "name": "たいらや栃木都賀店",
      "name_kana": "タイラヤトチギツガテン",
      "business_type": "⑤ コップ式自動販売機（自動洗浄・屋内設置）",
      "address": "栃木県栃木市都賀町平川字大原６６１－１",
      "lat": 37.418655,
      "lng": 140.382385,
      "geocoding_level": null,
      "phone": "",
      "license_no": "",
      "license_date": null,
      "expire_date": null
    },
    {
      "name": "（株）日立物流（日立製作所内）",
      "name_kana": "ヒタチブツリュウヒタチセイサクジョナイ",
      "business_type": "② 調理機能を有する自動販売機（要許可）",
      "address": "栃木県栃木市大平町富田８００",
      "lat": 36.338458,
      "lng": 139.705297,
      "geocoding_level": null,
      "phone": "",
      "license_no": "30040246",
      "license_date": "2022-06-17",
      "expire_date": "2028-08-31"
    },
    {
      "name": "ライブピアデポ栃木岩舟店",
      "name_kana": "ライブピアデポトチギイワフネミセ",
      "business_type": "⑤ コップ式自動販売機（自動洗浄・屋内設置）",
      "address": "栃木県栃木市岩舟町静2173-1",
      "lat": 36.313735,
      "lng": 139.658481,
      "geocoding_level": null,
      "phone": "0282-51-9320",
      "license_no": "",
      "license_date": null,
      "expire_date": null
    },
    {
      "name": "岩下食品　株式会社",
      "name_kana": "イワシタショクヒンカブシキガイシャ",
      "business_type": "⑤ コップ式自動販売機（自動洗浄・屋内設置）",
      "address": "栃木県栃木市沼和田町２３－５",
      "lat": 36.367583,
      "lng": 139.734028,
      "geocoding_level": null,
      "phone": "0282-22-3124",
      "license_no": "",
      "license_date": null,
      "expire_date": null
    },
    {
      "name": "株式会社ベネック関東支店第二事業所",
      "name_kana": "カブシキガイシャベネック",
      "business_type": "⑤ コップ式自動販売機（自動洗浄・屋内設置）",
      "address": "栃木県栃木市藤岡町都賀１３８９－１",
      "lat": 36.281901,
      "lng": 139.615765,
      "geocoding_level": null,
      "phone": "0283-24-8100",
      "license_no": "",
      "license_date": null,
      "expire_date": null
    },
    {
      "name": "エスアイアイクリスタルエントランスカップ",
      "name_kana": "エスアイアイクリスタルエントランスカップ",
      "business_type": "⑤ コップ式自動販売機（自動洗浄・屋内設置）",
      "address": "栃木県栃木市平井町１５−１１１０",
      "lat": 36.378793,
      "lng": 139.706998,
      "geocoding_level": null,
      "phone": "",
      "license_no": "",
      "license_date": null,
      "expire_date": null
    },
    {
      "name": "ドン・キホーテ栃木平柳店",
      "name_kana": "ドン・キホーテトチギヒラヤナギテン",
      "business_type": "⑪ 百貨店、総合スーパー",
      "address": "栃木県栃木市平柳町2丁目26-26",
      "lat": 36.39482,
      "lng": 139.752431,
      "geocoding_level": null,
      "phone": "0282-29-5111",
      "license_no": "",
      "license_date": null,
      "expire_date": null
    },
    {
      "name": "国学院大学栃木高等学校二杉寮",
      "name_kana": "コクガクインダイガクトチギコウトウガッコウフタスギリョウ",
      "business_type": "① 飲食店営業",
      "address": "栃木県栃木市片柳町５丁目１１ー９",
      "lat": 36.370993,
      "lng": 139.712698,
      "geocoding_level": null,
      "phone": "",
      "license_no": "栃木県指令南保第30039153号",
      "license_date": "2021-06-08",
      "expire_date": "2026-06-30"
    },
    {
      "name": "株式会社DNPテクノパック　宇都宮工場",
      "name_kana": "ディーエヌピーテクノパック　ウツノミヤコウジョウ",
      "business_type": "㉗ 器具、容器包装の製造・加工業（合成樹脂が使用された器具又は容器包装の製造、加工に限る。）",
      "address": "栃木県栃木市西方町本城1062-20",
      "lat": 36.482941,
      "lng": 139.726165,
      "geocoding_level": null,
      "phone": "",
      "license_no": "",
      "license_date": null,
      "expire_date": null
    },
    {
      "name": "豚キチ　combo mo:mo",
      "name_kana": "トンキチ　コンボ　モモ",
      "business_type": "① 飲食店営業",
      "address": "栃木県栃木市境町２１－２５ 一松ビル１階",
      "lat": 36.373126,
      "lng": 139.730159,
      "geocoding_level": null,
      "phone": "0282-28-7666",
      "license_no": "栃木県指令南保第30039151号",
      "license_date": "2021-06-08",
      "expire_date": "2027-06-30"
    },
    {
      "name": "ウエルシア栃木藤岡店",
      "name_kana": "ウエルシアトチギフジオカテン",
      "business_type": "⑪ 百貨店、総合スーパー",
      "address": "栃木県栃木市藤岡町藤岡1198-1",
      "lat": 36.259957,
      "lng": 139.650709,
      "geocoding_level": null,
      "phone": "0282-61-1128",
      "license_no": "",
      "license_date": null,
      "expire_date": null
    },
    {
      "name": "稲安食道",
      "name_kana": "イナヤスショクドウ",
      "business_type": "⑪ 菓子製造業",
      "address": "栃木県栃木市西方町金崎733-1",
      "lat": 36.468719,
      "lng": 139.750134,
      "geocoding_level": null,
      "phone": "0282922019",
      "license_no": "栃木県指令南保第30039196号",
      "license_date": "2021-06-22",
      "expire_date": "2026-11-30"
    },
    {
      "name": "ハチワレにゃんこのLilyさん",
      "name_kana": "ハチワレニャンコノリリーサン",
      "business_type": "⑰ 農産保存食料品製造・加工業",
      "address": "栃木県栃木市西方町金崎806-18",
      "lat": 36.463298,
      "lng": 139.754566,
      "geocoding_level": null,
      "phone": "0282-92-2678",
      "license_no": "",
      "license_date": null,
      "expire_date": null
    },
    {
      "name": "若色初枝",
      "name_kana": "ワカイロハツエ",
      "business_type": "⑳ 精穀・製粉業",
      "address": "栃木県栃木市今泉町1-19-18",
      "lat": 36.385825,
      "lng": 139.751212,
      "geocoding_level": null,
      "phone": "0282-27-9783",
      "license_no": "",
      "license_date": null,
      "expire_date": null
    },
    {
      "name": "竹澤英明",
      "name_kana": "タケザワヒデアキ",
      "business_type": "⑰ 農産保存食料品製造・加工業",
      "address": "栃木県栃木市藤岡町富吉1515-6",
      "lat": 36.290244,
      "lng": 139.69369,
      "geocoding_level": null,
      "phone": "0282-67-3306",
      "license_no": "",
      "license_date": null,
      "expire_date": null
    },
    {
      "name": "中野美紀子",
      "name_kana": "ナカノミキコ",
      "business_type": "⑦ 野菜果物販売業",
      "address": "栃木県栃木市西方町真名子2468",
      "lat": 36.469607,
      "lng": 139.66986,
      "geocoding_level": null,
      "phone": "0282-92-7513",
      "license_no": "",
      "license_date": null,
      "expire_date": null
    },
    {
      "name": "中野美紀子",
      "name_kana": "ナカノミキコ",
      "business_type": "⑳ 精穀・製粉業",
      "address": "栃木県栃木市西方町真名子2468",
      "lat": 36.469607,
      "lng": 139.66986,
      "geocoding_level": null,
      "phone": "0282-92-7513",
      "license_no": "",
      "license_date": null,
      "expire_date": null
    },
    {
      "name": "渡邊文夫",
      "name_kana": "ワタナベフミオ",
      "business_type": "⑰ 農産保存食料品製造・加工業",
      "address": "栃木県栃木市岩舟町静1862-1",
      "lat": 36.309803,
      "lng": 139.6596,
      "geocoding_level": null,
      "phone": "0282-55-5354",
      "license_no": "",
      "license_date": null,
      "expire_date": null
    },
    {
      "name": "渡邊文夫",
      "name_kana": "ワタナベフミオ",
      "business_type": "⑳ 精穀・製粉業",
      "address": "栃木県栃木市岩舟町静1862-1",
      "lat": 36.309803,
      "lng": 139.6596,
      "geocoding_level": null,
      "phone": "0282-55-5354",
      "license_no": "",
      "license_date": null,
      "expire_date": null
    },
    {
      "name": "栃木市認定西方なかよしこども園",
      "name_kana": "トチギシニンテイニシカタナカヨシコドモエン",
      "business_type": "① 飲食店営業",
      "address": "栃木県栃木市西方町本郷５１６－２",
      "lat": 36.449958,
      "lng": 139.737787,
      "geocoding_level": null,
      "phone": "0282-92-2900",
      "license_no": "30040953",
      "license_date": "2023-03-20",
      "expire_date": "2029-05-31"
    },
    {
      "name": "栃木市都賀よつば保育園",
      "name_kana": "トチギシツガヨツバホイクエン",
      "business_type": "① 飲食店営業",
      "address": "栃木県栃木市都賀町原宿２２６３－１",
      "lat": 36.432202,
      "lng": 139.738772,
      "geocoding_level": null,
      "phone": "0282-29-1234",
      "license_no": "30040954",
      "license_date": "2023-03-20",
      "expire_date": "2029-05-31"
    },
    {
      "name": "栃木市立はこのもり保育園給食室",
      "name_kana": "トチギシリツハコノモリホイクエンキュウショクシツ",
      "business_type": "① 飲食店営業",
      "address": "栃木県栃木市箱森町36-31",
      "lat": 36.393015,
      "lng": 139.727209,
      "geocoding_level": null,
      "phone": "0282-23-4827",
      "license_no": "30041824",
      "license_date": "2024-03-26",
      "expire_date": "2030-06-30"
    },
    {
      "name": "栃木市立くらのまち保育園給食室",
      "name_kana": "トチギシリツクラノマチホイクエンキュウショクシツ",
      "business_type": "① 飲食店営業",
      "address": "栃木県栃木市入舟町6-1",
      "lat": 36.380974,
      "lng": 139.731214,
      "geocoding_level": null,
      "phone": "0282-20-5151",
      "license_no": "30041825",
      "license_date": "2024-03-26",
      "expire_date": "2030-06-30"
    },
    {
      "name": "栃木市立おおつか保育園給食室",
      "name_kana": "トチギシリツオオツカホイクエンキュウショクシツ",
      "business_type": "① 飲食店営業",
      "address": "栃木県栃木市大塚町640-1",
      "lat": 36.403798,
      "lng": 139.767344,
      "geocoding_level": null,
      "phone": "0282-27-5343",
      "license_no": "30041826",
      "license_date": "2024-03-26",
      "expire_date": "2030-03-31"
    },
    {
      "name": "セブンイレブン栃木都賀合戦場店",
      "name_kana": "セブンイレブントチギツガカッセンバテン",
      "business_type": "⑩ コンビニエンスストア",
      "address": "栃木県栃木市都賀町合戦場732-1",
      "lat": 36.405199,
      "lng": 139.742054,
      "geocoding_level": null,
      "phone": "",
      "license_no": "",
      "license_date": null,
      "expire_date": null
    },
    {
      "name": "セブンイレブン栃木都賀合戦場店",
      "name_kana": "セブンイレブントチギツガカッセンバテン",
      "business_type": "① 飲食店営業",
      "address": "栃木県栃木市都賀町合戦場732－1",
      "lat": 36.405199,
      "lng": 139.742054,
      "geocoding_level": null,
      "phone": "",
      "license_no": "栃木県指令南保第30039192号",
      "license_date": "2021-06-21",
      "expire_date": "2027-06-30"
    },
    {
      "name": "株式会社サカエ工業",
      "name_kana": "カブシキガイシャ　サカエコウギョウ",
      "business_type": "㉗ 器具、容器包装の製造・加工業（合成樹脂が使用された器具又は容器包装の製造、加工に限る。）",
      "address": "栃木県栃木市大平町西野田614",
      "lat": 36.334391,
      "lng": 139.717635,
      "geocoding_level": null,
      "phone": "0282-43-3501",
      "license_no": "",
      "license_date": null,
      "expire_date": null
    },
    {
      "name": "ハローコーヒー",
      "name_kana": "ハローコーヒー",
      "business_type": "⑯ コーヒー製造・加工業（飲料の製造を除く。）",
      "address": "栃木県栃木市川原田町1414-11",
      "lat": 36.412164,
      "lng": 139.732199,
      "geocoding_level": null,
      "phone": "0282-51-2339",
      "license_no": "",
      "license_date": null,
      "expire_date": null
    },
    {
      "name": "寺内多美子",
      "name_kana": "テラウチタミコ",
      "business_type": "⑰ 農産保存食料品製造・加工業",
      "address": "栃木県栃木市大皆川町327",
      "lat": 36.391162,
      "lng": 139.701226,
      "geocoding_level": null,
      "phone": "0282-22-2607",
      "license_no": "",
      "license_date": null,
      "expire_date": null
    },
    {
      "name": "ファームミルティーユ",
      "name_kana": "ファームミルティーユ",
      "business_type": "⑰ 農産保存食料品製造・加工業",
      "address": "栃木県栃木市大平町富田2583",
      "lat": 36.339097,
      "lng": 139.696242,
      "geocoding_level": null,
      "phone": "090-1840-4382",
      "license_no": "",
      "license_date": null,
      "expire_date": null
    },
    {
      "name": "石川タカ",
      "name_kana": "イシカワタカ",
      "business_type": "⑰ 農産保存食料品製造・加工業",
      "address": "栃木県栃木市藤岡町蛭沼1423",
      "lat": 36.2834,
      "lng": 139.706554,
      "geocoding_level": null,
      "phone": "0282-67-2372",
      "license_no": "",
      "license_date": null,
      "expire_date": null
    },
    {
      "name": "山野井農園",
      "name_kana": "ヤマノイノウエン",
      "business_type": "⑧ 米穀類販売業",
      "address": "栃木県栃木市木野地町669",
      "lat": 36.416703,
      "lng": 139.723472,
      "geocoding_level": null,
      "phone": "0282-24-7986",
      "license_no": "",
      "license_date": null,
      "expire_date": null
    },
    {
      "name": "山野井農園",
      "name_kana": "ヤマノイノウエン",
      "business_type": "⑳ 精穀・製粉業",
      "address": "栃木県栃木市木野地町669",
      "lat": 36.416703,
      "lng": 139.723472,
      "geocoding_level": null,
      "phone": "0282-24-7986",
      "license_no": "",
      "license_date": null,
      "expire_date": null
    },
    {
      "name": "川清商店",
      "name_kana": "カワセショウテン",
      "business_type": "⑰ 農産保存食料品製造・加工業",
      "address": "栃木県栃木市岩舟町静3927-3",
      "lat": 36.305742,
      "lng": 139.656269,
      "geocoding_level": null,
      "phone": "0282-55-1538",
      "license_no": "",
      "license_date": null,
      "expire_date": null
    },
    {
      "name": "石川長治",
      "name_kana": "イシカワチョウジ",
      "business_type": "⑰ 農産保存食料品製造・加工業",
      "address": "栃木県栃木市大平町西山田2747-4",
      "lat": 36.337108,
      "lng": 139.672056,
      "geocoding_level": null,
      "phone": "0282-43-4443",
      "license_no": "",
      "license_date": null,
      "expire_date": null
    },
    {
      "name": "居楽屋　千年の宴",
      "name_kana": "イラクヤ　センネンノウタゲ",
      "business_type": "⑬ その他の食料・飲料販売業",
      "address": "栃木県栃木市沼和田町１－３５ 栃木駅構内　１階",
      "lat": 36.371858,
      "lng": 139.731435,
      "geocoding_level": null,
      "phone": "0282-25-3488",
      "license_no": "",
      "license_date": null,
      "expire_date": null
    },
    {
      "name": "魚民",
      "name_kana": "ウオタミ",
      "business_type": "⑬ その他の食料・飲料販売業",
      "address": "栃木県栃木市沼和田町１－１ ＪＲ栃木駅構内　１階",
      "lat": 36.371595,
      "lng": 139.731194,
      "geocoding_level": null,
      "phone": "0282-20-2088",
      "license_no": "",
      "license_date": null,
      "expire_date": null
    },
    {
      "name": "魚民",
      "name_kana": "ウオタミ",
      "business_type": "① 飲食店営業",
      "address": "栃木県栃木市沼和田町1番1号 JR栃木駅構内　1階",
      "lat": 36.371595,
      "lng": 139.731194,
      "geocoding_level": null,
      "phone": "0282-20-2088",
      "license_no": "栃木県指令南保第30040493号",
      "license_date": "2022-10-31",
      "expire_date": "2028-10-31"
    },
    {
      "name": "むすんでひらいて薗部店",
      "name_kana": "ムスンンデヒライテソノベテン",
      "business_type": "㉕ そうざい製造業",
      "address": "栃木県栃木市薗部町3丁目５番２号",
      "lat": 36.378624,
      "lng": 139.714992,
      "geocoding_level": null,
      "phone": "0282-25-5118",
      "license_no": "栃木県指令南保第30039325号",
      "license_date": "2021-09-16",
      "expire_date": "2027-10-31"
    },
    {
      "name": "かましん栃木平柳店",
      "name_kana": "カマシントチギヒラヤナギテン",
      "business_type": "③ 食肉販売業",
      "address": "栃木県栃木市平柳町１－４１－７",
      "lat": 36.396746,
      "lng": 139.738177,
      "geocoding_level": null,
      "phone": "0282-20-7771",
      "license_no": "栃木県指令南保第30039341号",
      "license_date": "2021-09-30",
      "expire_date": "2027-09-30"
    },
    {
      "name": "かましん栃木平柳店",
      "name_kana": "カマシントチギヒラヤナギテン",
      "business_type": "④ 魚介類販売業",
      "address": "栃木県栃木市平柳町１－４１－７",
      "lat": 36.396746,
      "lng": 139.738177,
      "geocoding_level": null,
      "phone": "0282-20-7771",
      "license_no": "栃木県指令南保第30039342号",
      "license_date": "2021-09-30",
      "expire_date": "2027-09-30"
    },
    {
      "name": "かましん栃木平柳店",
      "name_kana": "カマシントチギヒラヤナギテン",
      "business_type": "⑪ 菓子製造業",
      "address": "栃木県栃木市平柳町１－４１－７",
      "lat": 36.396746,
      "lng": 139.738177,
      "geocoding_level": null,
      "phone": "0282-20-7771",
      "license_no": "栃木県指令南保第30039343号",
      "license_date": "2021-09-30",
      "expire_date": "2027-09-30"
    },
    {
      "name": "かましん栃木平柳店",
      "name_kana": "カマシントチギヒラヤナギテン",
      "business_type": "㉕ そうざい製造業",
      "address": "栃木県栃木市平柳町１－４１－７",
      "lat": 36.396746,
      "lng": 139.738177,
      "geocoding_level": null,
      "phone": "0282-20-7771",
      "license_no": "栃木県指令南保第30039344号",
      "license_date": "2021-09-30",
      "expire_date": "2027-09-30"
    },
    {
      "name": "マルシェいわふね",
      "name_kana": "マルシェイワフネ",
      "business_type": "⑰ 農産保存食料品製造・加工業",
      "address": "栃木県栃木市岩舟町下津原1585",
      "lat": 36.309323,
      "lng": 139.634091,
      "geocoding_level": null,
      "phone": "0282-28-6200",
      "license_no": "",
      "license_date": null,
      "expire_date": null
    },
    {
      "name": "有限会社　川清商店",
      "name_kana": "ユウゲンガイシャ　カワセショウテン",
      "business_type": "⑰ 農産保存食料品製造・加工業",
      "address": "栃木県栃木市岩舟町静3927-3",
      "lat": 36.305742,
      "lng": 139.656269,
      "geocoding_level": null,
      "phone": "0282-55-1538",
      "license_no": "",
      "license_date": null,
      "expire_date": null
    },
    {
      "name": "しゃぶ葉 栃木昭和町店",
      "name_kana": "シャブヨウトチギショウワマチテン",
      "business_type": "① 飲食店営業",
      "address": "栃木県栃木市昭和町６－７",
      "lat": 36.391035,
      "lng": 139.7366,
      "geocoding_level": null,
      "phone": "0282-20-3118",
      "license_no": "30041235",
      "license_date": "2023-07-01",
      "expire_date": "2029-06-30"
    },
    {
      "name": "しゃぶ葉 栃木昭和町店",
      "name_kana": "シャブヨウトチギショウワマチテン",
      "business_type": "⑬ その他の食料・飲料販売業",
      "address": "栃木県栃木市昭和町６－７",
      "lat": 36.391035,
      "lng": 139.7366,
      "geocoding_level": null,
      "phone": "0282-20-3118",
      "license_no": "",
      "license_date": null,
      "expire_date": null
    },
    {
      "name": "ガスト 栃木大平店",
      "name_kana": "ガストトチギオオヒラテン",
      "business_type": "⑬ その他の食料・飲料販売業",
      "address": "栃木県栃木市大平町西水代１８４６－１",
      "lat": 36.319461,
      "lng": 139.712159,
      "geocoding_level": null,
      "phone": "0282-45-1064",
      "license_no": "",
      "license_date": null,
      "expire_date": null
    },
    {
      "name": "ガスト 栃木店",
      "name_kana": "ガストトチギテン",
      "business_type": "⑬ その他の食料・飲料販売業",
      "address": "栃木県栃木市箱森町３７－２９",
      "lat": 36.393815,
      "lng": 139.724674,
      "geocoding_level": null,
      "phone": "0282-20-1069",
      "license_no": "",
      "license_date": null,
      "expire_date": null
    },
    {
      "name": "ガスト栃木大平店",
      "name_kana": "ガストトチギオオヒラテン",
      "business_type": "① 飲食店営業",
      "address": "栃木県栃木市大平町西水代１８４６－１",
      "lat": 36.319461,
      "lng": 139.712159,
      "geocoding_level": null,
      "phone": "0282-45-1064",
      "license_no": "30039782",
      "license_date": "2022-03-01",
      "expire_date": "2028-02-29"
    },
    {
      "name": "有限会社ミート松本",
      "name_kana": "ミートマツモト",
      "business_type": "③ 食肉販売業",
      "address": "栃木県栃木市本町１－１８",
      "lat": 36.375028,
      "lng": 139.740144,
      "geocoding_level": null,
      "phone": "0282-22-5041",
      "license_no": "栃木県指令南保第30039166号",
      "license_date": "2021-06-14",
      "expire_date": "2027-06-30"
    },
    {
      "name": "株式会社日本栄養給食協会　ひのきの杜共生",
      "name_kana": "カブシキガイシャニホンエイヨウキュウショクキョウカイ　ヒノキノモリキョウセイ",
      "business_type": "① 飲食店営業",
      "address": "栃木県栃木市岩舟町曲ケ島806-1",
      "lat": 36.302953,
      "lng": 139.674189,
      "geocoding_level": null,
      "phone": "",
      "license_no": "30039944",
      "license_date": "2022-03-22",
      "expire_date": "2028-04-30"
    },
    {
      "name": "大平中央保育園",
      "name_kana": "オオヒラチュウオウホイクエン",
      "business_type": "㉖ 集団給食施設",
      "address": "栃木県栃木市大平町西野田20-7",
      "lat": 36.335367,
      "lng": 139.713835,
      "geocoding_level": null,
      "phone": "0282-43-7708",
      "license_no": "",
      "license_date": null,
      "expire_date": null
    },
    {
      "name": "ファミリーマートベツイ栃木東",
      "name_kana": "ファミリーマートベツイトチギヒガシ",
      "business_type": "⑩ コンビニエンスストア",
      "address": "栃木県栃木市大光寺町５２４－１",
      "lat": 36.391133,
      "lng": 139.78966,
      "geocoding_level": null,
      "phone": "",
      "license_no": "",
      "license_date": null,
      "expire_date": null
    },
    {
      "name": "エヴァンタイユゴルフクラブ",
      "name_kana": "エヴァンタイユゴルフクラブ",
      "business_type": "⑬ その他の食料・飲料販売業",
      "address": "栃木県栃木市小野口町１２３７－１",
      "lat": 36.366959,
      "lng": 139.666227,
      "geocoding_level": null,
      "phone": "0282-25-1001",
      "license_no": "",
      "license_date": null,
      "expire_date": null
    },
    {
      "name": "有限会社大平食品",
      "name_kana": "オオヒラショクヒン",
      "business_type": "㉙ 漬物製造業",
      "address": "栃木県栃木市大平町榎本６３５番地",
      "lat": 36.322198,
      "lng": 139.729519,
      "geocoding_level": null,
      "phone": "",
      "license_no": "栃木県指令南保第30039197号",
      "license_date": "2021-06-22",
      "expire_date": "2027-08-31"
    },
    {
      "name": "栃木グランドホテル株式会社",
      "name_kana": "トチギグランドホテルカブシキガイシャ",
      "business_type": "① 飲食店営業",
      "address": "栃木県栃木市万町６－１１",
      "lat": 36.381745,
      "lng": 139.734746,
      "geocoding_level": null,
      "phone": "0282-22-1236",
      "license_no": "30040838",
      "license_date": "2023-02-28",
      "expire_date": "2029-02-28"
    },
    {
      "name": "ドラッグセイムス城内店",
      "name_kana": "ドラッグセイムス　ジョウナイテン",
      "business_type": "⑬ その他の食料・飲料販売業",
      "address": "栃木県栃木市城内町2-20-20",
      "lat": 36.370771,
      "lng": 139.749294,
      "geocoding_level": null,
      "phone": "0282-20-7655",
      "license_no": "",
      "license_date": null,
      "expire_date": null
    },
    {
      "name": "コエド市場",
      "name_kana": "コエドイチバ",
      "business_type": "① 魚介類販売業（包装済みの魚介類のみの販売）",
      "address": "栃木県栃木市倭町１３－２",
      "lat": 36.379812,
      "lng": 139.734187,
      "geocoding_level": null,
      "phone": "0282-25-7411",
      "license_no": "",
      "license_date": null,
      "expire_date": null
    },
    {
      "name": "コエド市場",
      "name_kana": "コエドイチバ",
      "business_type": "② 食肉販売業（包装済みの食肉のみの販売）",
      "address": "栃木県栃木市倭町１３－２",
      "lat": 36.379812,
      "lng": 139.734187,
      "geocoding_level": null,
      "phone": "0282-25-7411",
      "license_no": "",
      "license_date": null,
      "expire_date": null
    },
    {
      "name": "コエド市場",
      "name_kana": "コエドイチバ",
      "business_type": "③ 乳類販売業",
      "address": "栃木県栃木市倭町１３－２",
      "lat": 36.379812,
      "lng": 139.734187,
      "geocoding_level": null,
      "phone": "0282-25-7411",
      "license_no": "",
      "license_date": null,
      "expire_date": null
    },
    {
      "name": "コエド市場",
      "name_kana": "コエドイチバ",
      "business_type": "⑦ 野菜果物販売業",
      "address": "栃木県栃木市倭町１３－２",
      "lat": 36.379812,
      "lng": 139.734187,
      "geocoding_level": null,
      "phone": "0282-25-7411",
      "license_no": "",
      "license_date": null,
      "expire_date": null
    },
    {
      "name": "コエド市場",
      "name_kana": "コエドイチバ",
      "business_type": "⑧ 米穀類販売業",
      "address": "栃木県栃木市倭町１３－２",
      "lat": 36.379812,
      "lng": 139.734187,
      "geocoding_level": null,
      "phone": "0282-25-7411",
      "license_no": "",
      "license_date": null,
      "expire_date": null
    },
    {
      "name": "コエド市場",
      "name_kana": "コエドイチバ",
      "business_type": "⑬ その他の食料・飲料販売業",
      "address": "栃木県栃木市倭町１３－２",
      "lat": 36.379812,
      "lng": 139.734187,
      "geocoding_level": null,
      "phone": "0282-25-7411",
      "license_no": "",
      "license_date": null,
      "expire_date": null
    },
    {
      "name": "有限会社岩出養蜂所",
      "name_kana": "イワデヨウホウオジョ",
      "business_type": "⑰ 農産保存食料品製造・加工業",
      "address": "栃木県栃木市小野口町１５６番２",
      "lat": 36.391656,
      "lng": 139.674916,
      "geocoding_level": null,
      "phone": "0282-22-4130",
      "license_no": "",
      "license_date": null,
      "expire_date": null
    },
    {
      "name": "PHO　HA",
      "name_kana": "フォーハー",
      "business_type": "⑬ その他の食料・飲料販売業",
      "address": "栃木県栃木市境町１１－１１ 平和ビル２F南",
      "lat": 36.3737,
      "lng": 139.729937,
      "geocoding_level": null,
      "phone": "",
      "license_no": "",
      "license_date": null,
      "expire_date": null
    },
    {
      "name": "中華そば　栃木阿波家",
      "name_kana": "チュウカソバトチギアワヤ",
      "business_type": "① 飲食店営業",
      "address": "栃木県栃木市尻内町２８４－１",
      "lat": 36.433958,
      "lng": 139.678794,
      "geocoding_level": null,
      "phone": "080-4455-3723",
      "license_no": "栃木県指令南保第30039224号",
      "license_date": "2021-06-28",
      "expire_date": "2027-11-30"
    },
    {
      "name": "HAKO-SAN",
      "name_kana": "ハコサン",
      "business_type": "① 飲食店営業",
      "address": "栃木県栃木市大森町455-5",
      "lat": 36.413734,
      "lng": 139.700114,
      "geocoding_level": null,
      "phone": "",
      "license_no": "栃木県指令南保第30039253号",
      "license_date": "2021-07-08",
      "expire_date": "2027-11-30"
    },
    {
      "name": "HAKO-SAN",
      "name_kana": "ハコサン",
      "business_type": "⑪ 菓子製造業",
      "address": "栃木県栃木市大森町455-5",
      "lat": 36.413734,
      "lng": 139.700114,
      "geocoding_level": null,
      "phone": "",
      "license_no": "栃木県指令南保第30039246号",
      "license_date": "2021-07-08",
      "expire_date": "2027-11-30"
    },
    {
      "name": "明治栃木宅配センター",
      "name_kana": "メイジトチギタクハイセンター",
      "business_type": "③ 乳類販売業",
      "address": "栃木県栃木市平柳町3-55-9",
      "lat": 36.395105,
      "lng": 139.745663,
      "geocoding_level": null,
      "phone": "0282-27-7020",
      "license_no": "",
      "license_date": null,
      "expire_date": null
    },
    {
      "name": "明治栃木宅配センター",
      "name_kana": "メイジトチギタクハイセンター",
      "business_type": "⑬ その他の食料・飲料販売業",
      "address": "栃木県栃木市平柳町3-55-9",
      "lat": 36.395105,
      "lng": 139.745663,
      "geocoding_level": null,
      "phone": "0282-27-7020",
      "license_no": "",
      "license_date": null,
      "expire_date": null
    },
    {
      "name": "マクドナルド５０号岩舟店",
      "name_kana": "マクドナルドゴジュウゴウイワフネテン",
      "business_type": "① 飲食店営業",
      "address": "栃木県栃木市岩舟町静２３６１－２",
      "lat": 36.3149,
      "lng": 139.66456,
      "geocoding_level": null,
      "phone": "0282-54-1092",
      "license_no": "30040978",
      "license_date": "2023-04-28",
      "expire_date": "2029-04-30"
    },
    {
      "name": "マクドナルド　環状線栃木店",
      "name_kana": "マクドナルドカンジョウセントチギテン",
      "business_type": "① 飲食店営業",
      "address": "栃木県栃木市平柳町２丁目２４－１５",
      "lat": 36.39391,
      "lng": 139.749377,
      "geocoding_level": null,
      "phone": "0282-27-9195",
      "license_no": "栃木県指令南保第30039339号",
      "license_date": "2021-09-30",
      "expire_date": "2027-09-30"
    },
    {
      "name": "マクドナルド　栃木バイパス店",
      "name_kana": "マクドナルドトチギバイパステン",
      "business_type": "① 飲食店営業",
      "address": "栃木県栃木市薗部町２丁目６－３４",
      "lat": 36.37435,
      "lng": 139.715351,
      "geocoding_level": null,
      "phone": "0282-25-0769",
      "license_no": "３００３９４３７",
      "license_date": "2021-11-01",
      "expire_date": "2027-10-31"
    },
    {
      "name": "牛たん炭焼　利久",
      "name_kana": "ギュウタンスミヤキリキュウ",
      "business_type": "① 飲食店営業",
      "address": "栃木県栃木市神田町6-6",
      "lat": 36.381332,
      "lng": 139.743462,
      "geocoding_level": null,
      "phone": "",
      "license_no": "栃木県指令南保第30039477号",
      "license_date": "2021-10-07",
      "expire_date": "2026-11-30"
    },
    {
      "name": "フードマーケットオータニ西方店",
      "name_kana": "フードマーケットオータニニシカタテン",
      "business_type": "⑪ 百貨店、総合スーパー",
      "address": "栃木県栃木市西方町金井352",
      "lat": 36.450581,
      "lng": 139.755778,
      "geocoding_level": null,
      "phone": "0282-91-1061",
      "license_no": "",
      "license_date": null,
      "expire_date": null
    },
    {
      "name": "フードマーケットオータニ西方店",
      "name_kana": "フードマーケットオータニニシカタテン",
      "business_type": "① 飲食店営業",
      "address": "栃木県栃木市西方町金井352",
      "lat": 36.450581,
      "lng": 139.755778,
      "geocoding_level": null,
      "phone": "0282-91-1061",
      "license_no": "30039532",
      "license_date": "2021-12-01",
      "expire_date": "2027-11-30"
    },
    {
      "name": "フードマーケットオータニ西方店",
      "name_kana": "フードマーケットオータニニシカタテン",
      "business_type": "③ 食肉販売業",
      "address": "栃木県栃木市西方町金井352",
      "lat": 36.450581,
      "lng": 139.755778,
      "geocoding_level": null,
      "phone": "0282-91-1061",
      "license_no": "30039533",
      "license_date": "2021-12-01",
      "expire_date": "2027-11-30"
    },
    {
      "name": "フードマーケットオータニ西方店",
      "name_kana": "フードマーケットオータニニシカタテン",
      "business_type": "④ 魚介類販売業",
      "address": "栃木県栃木市西方町金井352",
      "lat": 36.450581,
      "lng": 139.755778,
      "geocoding_level": null,
      "phone": "0282-91-1061",
      "license_no": "30039534",
      "license_date": "2021-12-01",
      "expire_date": "2027-11-30"
    },
    {
      "name": "株式会社とりせん藤岡店",
      "name_kana": "カブシキカイシャトリセンフジオカテン",
      "business_type": "⑪ 百貨店、総合スーパー",
      "address": "栃木県栃木市藤岡町藤岡1029",
      "lat": 36.26195,
      "lng": 139.650709,
      "geocoding_level": null,
      "phone": "0282-62-2181",
      "license_no": "",
      "license_date": null,
      "expire_date": null
    },
    {
      "name": "株式会社とりせん大平店",
      "name_kana": "カブシキカイシャトリセンオオヒラテン",
      "business_type": "⑪ 百貨店、総合スーパー",
      "address": "栃木県栃木市大平町西水代1837-1",
      "lat": 36.318412,
      "lng": 139.712997,
      "geocoding_level": null,
      "phone": "0282-44-0731",
      "license_no": "",
      "license_date": null,
      "expire_date": null
    },
    {
      "name": "株式会社とりせん蔵の街店",
      "name_kana": "カブシキカイシャトリセンクラノマチテン",
      "business_type": "⑪ 百貨店、総合スーパー",
      "address": "栃木県栃木市富士見町5-30",
      "lat": 36.37784,
      "lng": 139.72662,
      "geocoding_level": null,
      "phone": "0282-25-6430",
      "license_no": "",
      "license_date": null,
      "expire_date": null
    },
    {
      "name": "株式会社とりせん栃木店",
      "name_kana": "カブシキカイシャトリセントチギテン",
      "business_type": "⑪ 百貨店、総合スーパー",
      "address": "栃木県栃木市箱森町12-15",
      "lat": 36.386368,
      "lng": 139.719541,
      "geocoding_level": null,
      "phone": "0282-24-3301",
      "license_no": "",
      "license_date": null,
      "expire_date": null
    },
    {
      "name": "株式会社とりせん　藤岡店（寿司）",
      "name_kana": "トリセンフジオカテンスシ",
      "business_type": "㉕ そうざい製造業",
      "address": "栃木県栃木市藤岡町藤岡１０２９",
      "lat": 36.26195,
      "lng": 139.650709,
      "geocoding_level": null,
      "phone": "0282-62-2181",
      "license_no": "30040742",
      "license_date": "2023-01-11",
      "expire_date": "2029-05-31"
    },
    {
      "name": "株式会社とりせん　藤岡店（そうざい）",
      "name_kana": "トリセンフジオカテンソウザイ",
      "business_type": "㉕ そうざい製造業",
      "address": "栃木県栃木市藤岡町藤岡１０２９",
      "lat": 36.26195,
      "lng": 139.650709,
      "geocoding_level": null,
      "phone": "0282-62-2181",
      "license_no": "30040741",
      "license_date": "2023-01-11",
      "expire_date": "2029-05-31"
    },
    {
      "name": "株式会社上原園　栃木工場",
      "name_kana": "カブシキガイシャウエハラエン　トチギコウジョウ",
      "business_type": "⑬ その他の食料・飲料販売業",
      "address": "栃木県栃木市城内町2-6-20",
      "lat": 36.373345,
      "lng": 139.744845,
      "geocoding_level": null,
      "phone": "0282208686",
      "license_no": "",
      "license_date": null,
      "expire_date": null
    },
    {
      "name": "株式会社上原園　都賀インタ―工場",
      "name_kana": "カブシキガイシャウエハラエン　ツガインターコウジョウ",
      "business_type": "⑬ その他の食料・飲料販売業",
      "address": "栃木県栃木市都賀町家中4665-1",
      "lat": 36.441032,
      "lng": 139.758915,
      "geocoding_level": null,
      "phone": "0282218813",
      "license_no": "",
      "license_date": null,
      "expire_date": null
    },
    {
      "name": "栃木刑務所",
      "name_kana": "トチギケイムショ",
      "business_type": "㉖ 集団給食施設",
      "address": "栃木県栃木市惣社町2484",
      "lat": 36.402431,
      "lng": 139.793547,
      "geocoding_level": null,
      "phone": "028-27-1885",
      "license_no": "",
      "license_date": null,
      "expire_date": null
    },
    {
      "name": "タマポリ株式会社　栃木工場",
      "name_kana": "タマポリカブシキガイシャ　トチギコウジョウ",
      "business_type": "㉗ 器具、容器包装の製造・加工業（合成樹脂が使用された器具又は容器包装の製造、加工に限る。）",
      "address": "栃木県栃木市西方町本城1062-13",
      "lat": 36.482848,
      "lng": 139.722254,
      "geocoding_level": null,
      "phone": "0282-92-0920",
      "license_no": "",
      "license_date": null,
      "expire_date": null
    },
    {
      "name": "魚の北辰 栃木店",
      "name_kana": "サカナノホクシン トチギテン",
      "business_type": "⑬ その他の食料・飲料販売業",
      "address": "栃木県栃木市万町9-25 東武宇都宮百貨店 栃木市役所店",
      "lat": 36.382431,
      "lng": 139.734067,
      "geocoding_level": null,
      "phone": "0282-24-5011",
      "license_no": "",
      "license_date": null,
      "expire_date": null
    },
    {
      "name": "記憶に刻め　栃木店",
      "name_kana": "キオクニキザメトチギテン",
      "business_type": "① 飲食店営業",
      "address": "栃木県栃木市箱森町２－２９",
      "lat": 36.386657,
      "lng": 139.724429,
      "geocoding_level": null,
      "phone": "0282-28-8720",
      "license_no": "栃木県指令南保第30039323号",
      "license_date": "2021-08-12",
      "expire_date": "2027-10-31"
    },
    {
      "name": "ピザーラ栃木",
      "name_kana": "ピザーラトチギ",
      "business_type": "⑬ その他の食料・飲料販売業",
      "address": "栃木県栃木市片柳町2-14",
      "lat": 36.372303,
      "lng": 139.720993,
      "geocoding_level": null,
      "phone": "",
      "license_no": "",
      "license_date": null,
      "expire_date": null
    },
    {
      "name": "クスリのアオキ倭町店",
      "name_kana": "クスリノアオキヤマトチョウテン",
      "business_type": "⑪ 百貨店、総合スーパー",
      "address": "栃木県栃木市倭町8番23号",
      "lat": 36.378383,
      "lng": 139.73233,
      "geocoding_level": null,
      "phone": "0282-25-7385",
      "license_no": "",
      "license_date": null,
      "expire_date": null
    },
    {
      "name": "クスリのアオキ大平店",
      "name_kana": "クスリノアオキオオヒラテン",
      "business_type": "⑪ 百貨店、総合スーパー",
      "address": "栃木県栃木市大平町西野田250番地4",
      "lat": 36.322586,
      "lng": 139.712269,
      "geocoding_level": null,
      "phone": "0282-21-7801",
      "license_no": "",
      "license_date": null,
      "expire_date": null
    },
    {
      "name": "クスリのアオキ薗部店",
      "name_kana": "クスリノアオキソノベテン",
      "business_type": "⑪ 百貨店、総合スーパー",
      "address": "栃木県栃木市薗部町3丁目5番2号",
      "lat": 36.378624,
      "lng": 139.714992,
      "geocoding_level": null,
      "phone": "0282-28-7601",
      "license_no": "",
      "license_date": null,
      "expire_date": null
    },
    {
      "name": "クスリのアオキ薗部店",
      "name_kana": "クスリノアオキソノベテン",
      "business_type": "⑪ 菓子製造業",
      "address": "栃木県栃木市薗部町3丁目5番2号",
      "lat": 36.378624,
      "lng": 139.714992,
      "geocoding_level": null,
      "phone": "0282-28-7601",
      "license_no": "栃木県指令南保第30039358号",
      "license_date": "2021-09-16",
      "expire_date": "2027-10-31"
    },
    {
      "name": "クスリのアオキ合戦場店",
      "name_kana": "クスリノアオキカッセンバテン",
      "business_type": "⑪ 百貨店、総合スーパー",
      "address": "栃木県栃木市都賀町合戦場1009番地4",
      "lat": 36.409697,
      "lng": 139.744685,
      "geocoding_level": null,
      "phone": "0282-25-8020",
      "license_no": "",
      "license_date": null,
      "expire_date": null
    },
    {
      "name": "クスリのアオキ栃木今泉店",
      "name_kana": "クスリノアオキトチギイマイズミテン",
      "business_type": "⑪ 百貨店、総合スーパー",
      "address": "栃木県栃木市今泉町1丁目3番13号",
      "lat": 36.385382,
      "lng": 139.749706,
      "geocoding_level": null,
      "phone": "0282-25-8216",
      "license_no": "",
      "license_date": null,
      "expire_date": null
    },
    {
      "name": "大平カインズモール農産物直売所「愛菜果」",
      "name_kana": "オオヒラカインズモールノウサンブツチョクバイジョアイサイカ",
      "business_type": "⑦ 野菜果物販売業",
      "address": "栃木県栃木市大平町下皆川２１１６－１０",
      "lat": 36.353579,
      "lng": 139.703901,
      "geocoding_level": null,
      "phone": "0282-45-1772",
      "license_no": "",
      "license_date": null,
      "expire_date": null
    },
    {
      "name": "大平カインズモール農産物直売所「愛菜果」",
      "name_kana": "オオヒラカインズモールノウサンブツチョクバイジョアイサイカ",
      "business_type": "⑧ 米穀類販売業",
      "address": "栃木県栃木市大平町下皆川２１１６－１０",
      "lat": 36.353579,
      "lng": 139.703901,
      "geocoding_level": null,
      "phone": "0282-45-1772",
      "license_no": "",
      "license_date": null,
      "expire_date": null
    },
    {
      "name": "大平カインズモール農産物直売所「愛菜果」",
      "name_kana": "オオヒラカインズモールノウサンブツチョクバイジョアイサイカ",
      "business_type": "⑬ その他の食料・飲料販売業",
      "address": "栃木県栃木市大平町下皆川２１１６－１０",
      "lat": 36.353579,
      "lng": 139.703901,
      "geocoding_level": null,
      "phone": "0282-45-1772",
      "license_no": "",
      "license_date": null,
      "expire_date": null
    },
    {
      "name": "ＪＡしもつけとちぎ農産物直売所よっとこれ",
      "name_kana": "ジェイエイシモツケトチギノウサンブツチョクバイジョヨットコレ",
      "business_type": "⑦ 野菜果物販売業",
      "address": "栃木県栃木市大宮町１４１９－５",
      "lat": 36.392155,
      "lng": 139.766785,
      "geocoding_level": null,
      "phone": "0282-27-8555",
      "license_no": "",
      "license_date": null,
      "expire_date": null
    },
    {
      "name": "ＪＡしもつけとちぎ農産物直売所よっとこれ",
      "name_kana": "ジェイエイシモツケトチギノウサンブツチョクバイジョヨットコレ",
      "business_type": "⑧ 米穀類販売業",
      "address": "栃木県栃木市大宮町１４１９－５",
      "lat": 36.392155,
      "lng": 139.766785,
      "geocoding_level": null,
      "phone": "0282-27-8555",
      "license_no": "",
      "license_date": null,
      "expire_date": null
    },
    {
      "name": "ＪＡしもつけとちぎ農産物直売所よっとこれ",
      "name_kana": "ジェイエイシモツケトチギノウサンブツチョクバイジョヨットコレ",
      "business_type": "⑬ その他の食料・飲料販売業",
      "address": "栃木県栃木市大宮町１４１９－５",
      "lat": 36.392155,
      "lng": 139.766785,
      "geocoding_level": null,
      "phone": "0282-27-8555",
      "license_no": "",
      "license_date": null,
      "expire_date": null
    },
    {
      "name": "都賀生出宿里の駅農産物直売所",
      "name_kana": "ツガオイデジュクサトノエキノウサンブツチョクバイジョ",
      "business_type": "⑦ 野菜果物販売業",
      "address": "栃木県栃木市都賀町大柿３３４－５",
      "lat": 36.451239,
      "lng": 139.692154,
      "geocoding_level": null,
      "phone": "0282-91-1181",
      "license_no": "",
      "license_date": null,
      "expire_date": null
    },
    {
      "name": "都賀生出宿里の駅農産物直売所",
      "name_kana": "ツガオイデジュクサトノエキノウサンブツチョクバイジョ",
      "business_type": "⑧ 米穀類販売業",
      "address": "栃木県栃木市都賀町大柿３３４－５",
      "lat": 36.451239,
      "lng": 139.692154,
      "geocoding_level": null,
      "phone": "0282-91-1181",
      "license_no": "",
      "license_date": null,
      "expire_date": null
    },
    {
      "name": "都賀生出宿里の駅農産物直売所",
      "name_kana": "ツガオイデジュクサトノエキノウサンブツチョクバイジョ",
      "business_type": "⑬ その他の食料・飲料販売業",
      "address": "栃木県栃木市都賀町大柿３３４－５",
      "lat": 36.451239,
      "lng": 139.692154,
      "geocoding_level": null,
      "phone": "0282-91-1181",
      "license_no": "",
      "license_date": null,
      "expire_date": null
    },
    {
      "name": "栃木県職員生活協同組合　下都賀庁舎売店",
      "name_kana": "トチギケンショクインセイカツキョウドウクミアイ　シモツガチョウシャバイテン",
      "business_type": "③ 乳類販売業",
      "address": "栃木県栃木市神田町6-6",
      "lat": 36.381281,
      "lng": 139.743448,
      "geocoding_level": null,
      "phone": "0282-24-9822",
      "license_no": "",
      "license_date": null,
      "expire_date": null
    },
    {
      "name": "栃木県職員生活協同組合　下都賀庁舎売店",
      "name_kana": "トチギケンショクインセイカツキョウドウクミアイ　シモツガチョウシャバイテン",
      "business_type": "⑥ 弁当販売業",
      "address": "栃木県栃木市神田町6-6",
      "lat": 36.381281,
      "lng": 139.743448,
      "geocoding_level": null,
      "phone": "0282-24-9822",
      "license_no": "",
      "license_date": null,
      "expire_date": null
    },
    {
      "name": "医療法人社団　おおやクリニック",
      "name_kana": "オオヤクリニック",
      "business_type": "㉖ 集団給食施設",
      "address": "栃木県栃木市片柳町２丁目１番50号",
      "lat": 36.371804,
      "lng": 139.726524,
      "geocoding_level": null,
      "phone": "0282-24-8822",
      "license_no": "",
      "license_date": null,
      "expire_date": null
    },
    {
      "name": "ケータリング１２号車",
      "name_kana": "ケータリングジュウニゴウシャ",
      "business_type": "① 飲食店営業",
      "address": "栃木県栃木市片柳町２丁目１４",
      "lat": 36.372303,
      "lng": 139.720993,
      "geocoding_level": null,
      "phone": "0282-23-8300",
      "license_no": "30040855",
      "license_date": "2023-02-28",
      "expire_date": "2028-02-29"
    },
    {
      "name": "がってん寿司　栃木店",
      "name_kana": "ガッテンズシ　トチギテン",
      "business_type": "① 飲食店営業",
      "address": "栃木県栃木市箱森町36-16",
      "lat": 36.392729,
      "lng": 139.726104,
      "geocoding_level": null,
      "phone": "0282-20-2711",
      "license_no": "30043039",
      "license_date": "2025-07-01",
      "expire_date": "2031-06-30"
    },
    {
      "name": "GKNドライブラインジャパン㈱社員食堂",
      "name_kana": "ジーケーエヌドライブラインジャパンシャインショクドウ",
      "business_type": "① 飲食店営業",
      "address": "栃木県栃木市大宮町2388",
      "lat": 36.403307,
      "lng": 139.751831,
      "geocoding_level": null,
      "phone": "",
      "license_no": "栃木県指令南保第30040437号",
      "license_date": "2022-09-30",
      "expire_date": "2028-09-30"
    },
    {
      "name": "株式会社ムトウユニパック",
      "name_kana": "カブシキガイシャムトウユニパック",
      "business_type": "① 飲食店営業",
      "address": "栃木県栃木市大光寺1313-1",
      "lat": 36.403976,
      "lng": 139.806453,
      "geocoding_level": null,
      "phone": "",
      "license_no": "栃木県指令南保第30040967号",
      "license_date": "2023-03-27",
      "expire_date": "2029-03-31"
    },
    {
      "name": "NEW　DAYS　栃木",
      "name_kana": "ニューデイズトチギ",
      "business_type": "⑩ コンビニエンスストア",
      "address": "栃木県栃木市沼和田町１－１",
      "lat": 36.371595,
      "lng": 139.731194,
      "geocoding_level": null,
      "phone": "0282-20-6116",
      "license_no": "",
      "license_date": null,
      "expire_date": null
    },
    {
      "name": "栃木県立栃木農業高等学校　食品製造実習室",
      "name_kana": "トチギケンリツトチギノウギョウコウトウガッコウ",
      "business_type": "⑳ 精穀・製粉業",
      "address": "栃木県栃木市平井町９１１",
      "lat": 36.373443,
      "lng": 139.703861,
      "geocoding_level": null,
      "phone": "0282-22-0326",
      "license_no": "",
      "license_date": null,
      "expire_date": null
    },
    {
      "name": "珈琲あとりえしおか",
      "name_kana": "コーヒーアトリエシオカ",
      "business_type": "① 飲食店営業",
      "address": "栃木県栃木市平井町８５９－７",
      "lat": 36.372507,
      "lng": 139.707392,
      "geocoding_level": null,
      "phone": "0282-23-4332",
      "license_no": "栃木県指令南保第30039261号",
      "license_date": "2021-07-14",
      "expire_date": "2026-07-31"
    },
    {
      "name": "日立グローバルライフソリューションズ（株） ホームソリューション事業部 冷熱家電本部",
      "name_kana": "ヒタチグローバルライフソリューションズ ホームソリューションジギョウブ レイネツカデンホンブ",
      "business_type": "㉗ 器具、容器包装の製造・加工業（合成樹脂が使用された器具又は容器包装の製造、加工に限る。）",
      "address": "栃木県栃木市大平町富田800",
      "lat": 36.338458,
      "lng": 139.705297,
      "geocoding_level": null,
      "phone": "",
      "license_no": "",
      "license_date": null,
      "expire_date": null
    },
    {
      "name": "太陽鉱油株式会社　佐野インター東SS",
      "name_kana": "タイヨウコウユカブシキガイシャ　サノヒガシインターエスエス",
      "business_type": "⑫ 自動販売機による販売業（コップ式自動販売機（自動洗浄・屋内設置）及び営業許可の対象となる自動販売機を除く）",
      "address": "栃木県栃木市藤岡町大田和６１４－１",
      "lat": 36.296801,
      "lng": 139.62792,
      "geocoding_level": null,
      "phone": "0282-62-1811",
      "license_no": "",
      "license_date": null,
      "expire_date": null
    },
    {
      "name": "栃木製麺",
      "name_kana": "トチギセイメン",
      "business_type": "① 飲食店営業",
      "address": "栃木県栃木市万町９－２５ 東武宇都宮百貨店栃木市役所店内１Ｆ",
      "lat": 36.382431,
      "lng": 139.734067,
      "geocoding_level": null,
      "phone": "",
      "license_no": "栃木県指令南保第30039263号",
      "license_date": "2021-07-20",
      "expire_date": "2027-10-31"
    },
    {
      "name": "串まつり",
      "name_kana": "クシマツリ",
      "business_type": "① 飲食店営業",
      "address": "栃木県栃木市境町２３－２１",
      "lat": 36.372815,
      "lng": 139.728609,
      "geocoding_level": null,
      "phone": "0282-22-8883",
      "license_no": "栃木県指令南保第30039268号",
      "license_date": "2021-07-16",
      "expire_date": "2027-10-31"
    },
    {
      "name": "共栄ポリマー株式会社",
      "name_kana": "キョウエイポリマーカブシキカイシャ",
      "business_type": "㉗ 器具、容器包装の製造・加工業（合成樹脂が使用された器具又は容器包装の製造、加工に限る。）",
      "address": "栃木県栃木市藤岡町大字大前867",
      "lat": 36.278821,
      "lng": 139.655811,
      "geocoding_level": null,
      "phone": "",
      "license_no": "",
      "license_date": null,
      "expire_date": null
    },
    {
      "name": "カインズ大平店",
      "name_kana": "カインズオオヒラテン",
      "business_type": "⑧ 米穀類販売業",
      "address": "栃木県栃木市大平町下皆川2116番地1",
      "lat": 36.354238,
      "lng": 139.709631,
      "geocoding_level": null,
      "phone": "0282-45-1777",
      "license_no": "",
      "license_date": null,
      "expire_date": null
    },
    {
      "name": "愛菜果",
      "name_kana": "アイサイカ",
      "business_type": "⑰ 農産保存食料品製造・加工業",
      "address": "栃木県栃木市大平町西水代１５７８",
      "lat": 36.309386,
      "lng": 139.715243,
      "geocoding_level": null,
      "phone": "0282-43-2682",
      "license_no": "",
      "license_date": null,
      "expire_date": null
    },
    {
      "name": "愛菜果",
      "name_kana": "アイサイカ",
      "business_type": "⑳ 精穀・製粉業",
      "address": "栃木県栃木市大平町西水代１５７８",
      "lat": 36.309386,
      "lng": 139.715243,
      "geocoding_level": null,
      "phone": "0282-43-2682",
      "license_no": "",
      "license_date": null,
      "expire_date": null
    },
    {
      "name": "株式会社観光農園いわふね",
      "name_kana": "カンコウノウエンイワフネ",
      "business_type": "① 飲食店営業",
      "address": "栃木県栃木市岩舟町下津原１５８５",
      "lat": 36.309323,
      "lng": 139.634091,
      "geocoding_level": null,
      "phone": "0282-28-6200",
      "license_no": "栃木県指令南保第30039275号",
      "license_date": "2021-07-20",
      "expire_date": "2026-07-31"
    },
    {
      "name": "ＰＨＯ　ＨＡ",
      "name_kana": "フォーハー",
      "business_type": "① 飲食店営業",
      "address": "栃木県栃木市境町１１－１１ 平和ビル２階南",
      "lat": 36.3737,
      "lng": 139.729937,
      "geocoding_level": null,
      "phone": "",
      "license_no": "栃木県指令南保第30039281号",
      "license_date": "2021-07-20",
      "expire_date": "2027-10-31"
    },
    {
      "name": "飯塚酒店",
      "name_kana": "イイヅカサケテン",
      "business_type": "① 魚介類販売業（包装済みの魚介類のみの販売）",
      "address": "栃木県栃木市藤岡町都賀2011-2",
      "lat": 36.287494,
      "lng": 139.620127,
      "geocoding_level": null,
      "phone": "",
      "license_no": "",
      "license_date": null,
      "expire_date": null
    },
    {
      "name": "飯塚酒店",
      "name_kana": "イイヅカサケテン",
      "business_type": "② 食肉販売業（包装済みの食肉のみの販売）",
      "address": "栃木県栃木市藤岡町都賀2011-2",
      "lat": 36.287494,
      "lng": 139.620127,
      "geocoding_level": null,
      "phone": "",
      "license_no": "",
      "license_date": null,
      "expire_date": null
    },
    {
      "name": "飯塚酒店",
      "name_kana": "イイヅカサケテン",
      "business_type": "③ 乳類販売業",
      "address": "栃木県栃木市藤岡町都賀2011-2",
      "lat": 36.287494,
      "lng": 139.620127,
      "geocoding_level": null,
      "phone": "",
      "license_no": "",
      "license_date": null,
      "expire_date": null
    },
    {
      "name": "飯塚酒店",
      "name_kana": "イイヅカサケテン",
      "business_type": "⑬ その他の食料・飲料販売業",
      "address": "栃木県栃木市藤岡町都賀2011-2",
      "lat": 36.287494,
      "lng": 139.620127,
      "geocoding_level": null,
      "phone": "",
      "license_no": "",
      "license_date": null,
      "expire_date": null
    },
    {
      "name": "とちぎコープ生活協同組合　栃木店",
      "name_kana": "トチギコープセイカツキョウドウクミアイ　トチギテン",
      "business_type": "⑪ 百貨店、総合スーパー",
      "address": "栃木県栃木市今泉町1-5-11",
      "lat": 36.386975,
      "lng": 139.748118,
      "geocoding_level": null,
      "phone": "0282-27-8119",
      "license_no": "",
      "license_date": null,
      "expire_date": null
    },
    {
      "name": "エームＳＪ０６２８（第一食堂）",
      "name_kana": "エームエスジェイダイイチショクドウ",
      "business_type": "① 飲食店営業",
      "address": "栃木県栃木市大平町伯仲２６９１",
      "lat": 36.300674,
      "lng": 139.707382,
      "geocoding_level": null,
      "phone": "",
      "license_no": "30039289",
      "license_date": "2021-08-30",
      "expire_date": "2027-08-31"
    },
    {
      "name": "道の駅にしかた",
      "name_kana": "ミチノエキニシカタ",
      "business_type": "⑦ 野菜果物販売業",
      "address": "栃木県栃木市西方町元369-1",
      "lat": 36.466999,
      "lng": 139.742989,
      "geocoding_level": null,
      "phone": "0282920990",
      "license_no": "",
      "license_date": null,
      "expire_date": null
    },
    {
      "name": "光洋産業株式会社栃木工場",
      "name_kana": "コウヨウサンギョウカブシキガイシャトチギコウジョウ",
      "business_type": "㉗ 器具、容器包装の製造・加工業（合成樹脂が使用された器具又は容器包装の製造、加工に限る。）",
      "address": "栃木県栃木市岩舟町曲ケ島８８２",
      "lat": 36.305277,
      "lng": 139.675584,
      "geocoding_level": null,
      "phone": "0282-55-6861",
      "license_no": "",
      "license_date": null,
      "expire_date": null
    },
    {
      "name": "カドヤ",
      "name_kana": "カドヤ",
      "business_type": "⑬ その他の食料・飲料販売業",
      "address": "栃木県栃木市大平町西水代1754-1",
      "lat": 36.317177,
      "lng": 139.712319,
      "geocoding_level": null,
      "phone": "0282433369",
      "license_no": "",
      "license_date": null,
      "expire_date": null
    },
    {
      "name": "ケーズデンキ栃木大平",
      "name_kana": "ケーズデンキトチギオオヒラ",
      "business_type": "⑫ 自動販売機による販売業（コップ式自動販売機（自動洗浄・屋内設置）及び営業許可の対象となる自動販売機を除く）",
      "address": "栃木県栃木市大平町下皆川１２街区",
      "lat": 36.34895,
      "lng": 139.706293,
      "geocoding_level": null,
      "phone": "",
      "license_no": "",
      "license_date": null,
      "expire_date": null
    },
    {
      "name": "ライブガーデン栃木本店",
      "name_kana": "ライブガーデントチギホンテン",
      "business_type": "⑫ 自動販売機による販売業（コップ式自動販売機（自動洗浄・屋内設置）及び営業許可の対象となる自動販売機を除く）",
      "address": "栃木県栃木市大宮町向原２１７７－７",
      "lat": 36.389968,
      "lng": 139.760096,
      "geocoding_level": null,
      "phone": "",
      "license_no": "",
      "license_date": null,
      "expire_date": null
    },
    {
      "name": "みかも山公園東口広場入口正面直売所脇",
      "name_kana": "ミカモサンコウエンヒガシグチヒロバイリグチショウメンチョクバイジョワキ",
      "business_type": "⑫ 自動販売機による販売業（コップ式自動販売機（自動洗浄・屋内設置）及び営業許可の対象となる自動販売機を除く）",
      "address": "栃木県栃木市岩舟町下津原1747-1",
      "lat": 36.308192,
      "lng": 139.632178,
      "geocoding_level": null,
      "phone": "",
      "license_no": "",
      "license_date": null,
      "expire_date": null
    },
    {
      "name": "みかも山公園東口広場入口管理棟前",
      "name_kana": "ミカモヤマコウエンヒガシグチヒロバイリグチカンリトウマエ",
      "business_type": "⑫ 自動販売機による販売業（コップ式自動販売機（自動洗浄・屋内設置）及び営業許可の対象となる自動販売機を除く）",
      "address": "栃木県栃木市岩舟町下津原1747-1",
      "lat": 36.308192,
      "lng": 139.632178,
      "geocoding_level": null,
      "phone": "",
      "license_no": "",
      "license_date": null,
      "expire_date": null
    },
    {
      "name": "福寿園",
      "name_kana": "フクジュエン",
      "business_type": "⑫ 自動販売機による販売業（コップ式自動販売機（自動洗浄・屋内設置）及び営業許可の対象となる自動販売機を除く）",
      "address": "栃木県栃木市千塚町210",
      "lat": 36.415572,
      "lng": 139.692833,
      "geocoding_level": null,
      "phone": "",
      "license_no": "",
      "license_date": null,
      "expire_date": null
    },
    {
      "name": "長寿園",
      "name_kana": "チョウジュエン",
      "business_type": "⑫ 自動販売機による販売業（コップ式自動販売機（自動洗浄・屋内設置）及び営業許可の対象となる自動販売機を除く）",
      "address": "栃木県栃木市薗部町2-14-9",
      "lat": 36.376545,
      "lng": 139.71774,
      "geocoding_level": null,
      "phone": "",
      "license_no": "",
      "license_date": null,
      "expire_date": null
    },
    {
      "name": "ＪＲ栃木駅高崎方面階段上",
      "name_kana": "ジェイアールトチギエキタカサキホウメンカイダンウエ",
      "business_type": "⑬ その他の食料・飲料販売業",
      "address": "栃木県栃木市沼和田町1-1",
      "lat": 36.371595,
      "lng": 139.731194,
      "geocoding_level": null,
      "phone": "",
      "license_no": "",
      "license_date": null,
      "expire_date": null
    },
    {
      "name": "ダイナム栃木岩舟",
      "name_kana": "ダイナムトチギイワフネ",
      "business_type": "⑬ その他の食料・飲料販売業",
      "address": "栃木県栃木市岩舟町静戸字いすず４６７番地４",
      "lat": 36.302665,
      "lng": 139.696242,
      "geocoding_level": null,
      "phone": "",
      "license_no": "",
      "license_date": null,
      "expire_date": null
    },
    {
      "name": "HANS",
      "name_kana": "ハンズ",
      "business_type": "① 飲食店営業",
      "address": "栃木県栃木市栃木市大平町下皆川2113-8",
      "lat": 36.353579,
      "lng": 139.703901,
      "geocoding_level": null,
      "phone": "07083555884",
      "license_no": "30039387",
      "license_date": "2021-09-17",
      "expire_date": "2027-02-28"
    },
    {
      "name": "株式会社ヨークベニマル　栃木平柳店",
      "name_kana": "カブシキカイシャヨークベニマル　トチギヒラヤナギテン",
      "business_type": "③ 食肉販売業",
      "address": "栃木県栃木市平柳町２丁目２６－２１",
      "lat": 36.394254,
      "lng": 139.751871,
      "geocoding_level": null,
      "phone": "0282-29-3200",
      "license_no": "栃木県指令南保第30039331号",
      "license_date": "2021-09-30",
      "expire_date": "2027-09-30"
    },
    {
      "name": "株式会社ヨークベニマル　栃木平柳店",
      "name_kana": "カブシキカイシャヨークベニマル　トチギヒラヤナギテン",
      "business_type": "④ 魚介類販売業",
      "address": "栃木県栃木市平柳町２丁目２６－２１",
      "lat": 36.394254,
      "lng": 139.751871,
      "geocoding_level": null,
      "phone": "0282-29-3200",
      "license_no": "栃木県指令南保第30039332号",
      "license_date": "2021-09-30",
      "expire_date": "2027-09-30"
    },
    {
      "name": "ヨークベニマル栃木平柳店",
      "name_kana": "ヨークベニマルトチギヒラヤナギテン",
      "business_type": "⑪ 菓子製造業",
      "address": "栃木県栃木市平柳町２丁目２６－２１",
      "lat": 36.394254,
      "lng": 139.751871,
      "geocoding_level": null,
      "phone": "0282-29-3200",
      "license_no": "栃木県指令南保第30039442号",
      "license_date": "2021-09-30",
      "expire_date": "2027-09-30"
    },
    {
      "name": "Burgers 1st",
      "name_kana": "バーガーズ　ファースト",
      "business_type": "① 飲食店営業",
      "address": "栃木県栃木市藤岡町都賀２８５０−２",
      "lat": 36.293993,
      "lng": 139.620804,
      "geocoding_level": null,
      "phone": "0282-80-9126",
      "license_no": "栃木県指令南保第30039386号",
      "license_date": "2021-09-16",
      "expire_date": "2026-11-30"
    },
    {
      "name": "ジョイフーズ　岩舟店",
      "name_kana": "ジョイフーズ　イワフネテン",
      "business_type": "⑫ 自動販売機による販売業（コップ式自動販売機（自動洗浄・屋内設置）及び営業許可の対象となる自動販売機を除く）",
      "address": "栃木県栃木市岩舟町静1164",
      "lat": 36.319005,
      "lng": 139.661468,
      "geocoding_level": null,
      "phone": "0282-55-3978",
      "license_no": "",
      "license_date": null,
      "expire_date": null
    },
    {
      "name": "ジョイフーズ　都賀店",
      "name_kana": "ジョイフーズ　ツガテン",
      "business_type": "⑫ 自動販売機による販売業（コップ式自動販売機（自動洗浄・屋内設置）及び営業許可の対象となる自動販売機を除く）",
      "address": "栃木県栃木市都賀町家中1727-1",
      "lat": 36.428316,
      "lng": 139.751333,
      "geocoding_level": null,
      "phone": "0282-27-2678",
      "license_no": "",
      "license_date": null,
      "expire_date": null
    },
    {
      "name": "ジョイフーズ　岩舟店",
      "name_kana": "ジョイフーズ　イワフネテン",
      "business_type": "⑪ 百貨店、総合スーパー",
      "address": "栃木県栃木市岩舟町静1164",
      "lat": 36.319005,
      "lng": 139.661468,
      "geocoding_level": null,
      "phone": "0282-55-3978",
      "license_no": "",
      "license_date": null,
      "expire_date": null
    },
    {
      "name": "ジョイフーズ　都賀店",
      "name_kana": "ジョイフーズ　ツガテン",
      "business_type": "⑪ 百貨店、総合スーパー",
      "address": "栃木県栃木市都賀町家中1727-1",
      "lat": 36.428316,
      "lng": 139.751333,
      "geocoding_level": null,
      "phone": "0282-27-2678",
      "license_no": "",
      "license_date": null,
      "expire_date": null
    },
    {
      "name": "ジョイフーズ　岩舟店",
      "name_kana": "ジョイフーズ　イワフネテン",
      "business_type": "① 飲食店営業",
      "address": "栃木県栃木市岩舟町静1164-1",
      "lat": 36.319364,
      "lng": 139.662075,
      "geocoding_level": null,
      "phone": "0282-55-3978",
      "license_no": "30042294",
      "license_date": "2024-10-31",
      "expire_date": "2030-10-31"
    },
    {
      "name": "ジョイフーズ　岩舟店",
      "name_kana": "ジョイフーズ　イワフネテン",
      "business_type": "③ 食肉販売業",
      "address": "栃木県栃木市岩舟町静1164-1",
      "lat": 36.319364,
      "lng": 139.662075,
      "geocoding_level": null,
      "phone": "0282-55-3978",
      "license_no": "30042295",
      "license_date": "2024-10-31",
      "expire_date": "2030-10-31"
    },
    {
      "name": "ジョイフーズ　岩舟店",
      "name_kana": "ジョイフーズ　イワフネテン",
      "business_type": "④ 魚介類販売業",
      "address": "栃木県栃木市岩舟町静1164-1",
      "lat": 36.319364,
      "lng": 139.662075,
      "geocoding_level": null,
      "phone": "0282-55-3978",
      "license_no": "30042296",
      "license_date": "2024-10-31",
      "expire_date": "2030-10-31"
    },
    {
      "name": "小林酒造株式会社「鳳凰美田」第ニ工場惣社蔵",
      "name_kana": "コバヤシシュゾウカブシキガイシャホウオウビデンダイニコウジョウソウジャクラ",
      "business_type": "㉑ 酒類製造業",
      "address": "栃木県栃木市惣社町１５１０－１９",
      "lat": 36.404215,
      "lng": 139.79105,
      "geocoding_level": null,
      "phone": "0282-27-7765",
      "license_no": "30040332",
      "license_date": "2022-08-02",
      "expire_date": "2028-09-30"
    },
    {
      "name": "南の牧場　薗部店",
      "name_kana": "ミナミノボクジョウソノベテン",
      "business_type": "③ 食肉販売業",
      "address": "栃木県栃木市薗部町３丁目５番２号",
      "lat": 36.378553,
      "lng": 139.715431,
      "geocoding_level": null,
      "phone": "0282-21-7189",
      "license_no": "栃木県指令南保第30039347号",
      "license_date": "2021-09-16",
      "expire_date": "2027-10-31"
    },
    {
      "name": "株式会社吉野工業所栃木工場",
      "name_kana": "カブシキカイシャヨシノコウギョウショトチギコウジョウ",
      "business_type": "㉖ 集団給食施設",
      "address": "栃木県栃木市吹上町1550",
      "lat": 36.415171,
      "lng": 139.703582,
      "geocoding_level": null,
      "phone": "0282-31-1141",
      "license_no": "",
      "license_date": null,
      "expire_date": null
    },
    {
      "name": "310クラフト",
      "name_kana": "サトークラフト",
      "business_type": "① 飲食店営業",
      "address": "栃木県栃木市神田町6-6",
      "lat": 36.381281,
      "lng": 139.743448,
      "geocoding_level": null,
      "phone": "090-7944-0120",
      "license_no": "30039360",
      "license_date": "2021-09-10",
      "expire_date": "2026-09-30"
    },
    {
      "name": "株式会社たいらや　栃木都賀店",
      "name_kana": "タイラヤトチギツガテン",
      "business_type": "① 飲食店営業",
      "address": "栃木県栃木市都賀町平川６６１番１",
      "lat": 36.409008,
      "lng": 139.753708,
      "geocoding_level": null,
      "phone": "0282-29-3011",
      "license_no": "30040196",
      "license_date": "2022-06-14",
      "expire_date": "2029-11-30"
    },
    {
      "name": "株式会社たいらや　栃木都賀店",
      "name_kana": "タイラヤトチギツガテン",
      "business_type": "④ 魚介類販売業",
      "address": "栃木県栃木市都賀町平川６６１番１",
      "lat": 36.409008,
      "lng": 139.753708,
      "geocoding_level": null,
      "phone": "0282-29-3011",
      "license_no": "30040197",
      "license_date": "2022-06-14",
      "expire_date": "2029-11-30"
    },
    {
      "name": "Ｐｅｓｃｈｅｒｉａ　ｄｉ　ＴＡＮＡＫＡ　薗部店",
      "name_kana": "ペスケリーア　ディ　タナカ　ソノベテン",
      "business_type": "① 飲食店営業",
      "address": "栃木県栃木市薗部町３丁目５－２　クスリのアオキ薗部店内",
      "lat": 36.378595,
      "lng": 139.715104,
      "geocoding_level": null,
      "phone": "0282-28-7785",
      "license_no": "栃木県指令南保第30039383号",
      "license_date": "2021-09-16",
      "expire_date": "2027-10-31"
    },
    {
      "name": "Ｐｅｓｃｈｅｒｉａ　ｄｉ　ＴＡＮＡＫＡ　薗部店",
      "name_kana": "ペスケリーア　ディ　タナカ　ソノベテン",
      "business_type": "④ 魚介類販売業",
      "address": "栃木県栃木市薗部町３丁目５－２　クスリのアオキ薗部店内",
      "lat": 36.378595,
      "lng": 139.715104,
      "geocoding_level": null,
      "phone": "0282-28-7785",
      "license_no": "栃木県指令南保第30039384号",
      "license_date": "2021-09-16",
      "expire_date": "2027-10-31"
    },
    {
      "name": "ひのきの杜",
      "name_kana": "ヒノキノモリ",
      "business_type": "㉖ 集団給食施設",
      "address": "栃木県栃木市岩舟町曲ケ島８０６－１",
      "lat": 36.302448,
      "lng": 139.673752,
      "geocoding_level": null,
      "phone": "0282-54-3131",
      "license_no": "",
      "license_date": null,
      "expire_date": null
    },
    {
      "name": "スシロー栃木箱森町店",
      "name_kana": "スシロートチギハコノモリマチテン",
      "business_type": "① 飲食店営業",
      "address": "栃木県栃木市箱森町41番15号",
      "lat": 36.394309,
      "lng": 139.725873,
      "geocoding_level": null,
      "phone": "0282-20-3021",
      "license_no": "栃木県指令南保第30041991号",
      "license_date": "2024-06-28",
      "expire_date": "2030-06-30"
    },
    {
      "name": "ますやそば屋",
      "name_kana": "マスヤソバヤ",
      "business_type": "① 飲食店営業",
      "address": "栃木県栃木市嘉右衛門町１３－１１",
      "lat": 36.386864,
      "lng": 139.73285,
      "geocoding_level": null,
      "phone": "0282-22-0749",
      "license_no": "３００３９３７１",
      "license_date": "2021-11-01",
      "expire_date": "2026-10-31"
    },
    {
      "name": "株式会社長谷川製作所",
      "name_kana": "ハセガワセイサクショ",
      "business_type": "㉗ 器具、容器包装の製造・加工業（合成樹脂が使用された器具又は容器包装の製造、加工に限る。）",
      "address": "栃木県栃木市錦町１１－１８",
      "lat": 36.385566,
      "lng": 139.732839,
      "geocoding_level": null,
      "phone": "0282-22-1543",
      "license_no": "",
      "license_date": null,
      "expire_date": null
    },
    {
      "name": "ウエルシア栃木日の出町店",
      "name_kana": "ウエルシアトチギヒノデチョウテン",
      "business_type": "⑪ 百貨店、総合スーパー",
      "address": "栃木県栃木市日ノ出町5-14",
      "lat": 36.385252,
      "lng": 139.740132,
      "geocoding_level": null,
      "phone": "0282-20-3901",
      "license_no": "",
      "license_date": null,
      "expire_date": null
    },
    {
      "name": "ウエルシア栃木片柳店",
      "name_kana": "ウエルシアトチギカタヤナギテン",
      "business_type": "⑪ 百貨店、総合スーパー",
      "address": "栃木県栃木市片柳町4-2-28",
      "lat": 36.368213,
      "lng": 139.717386,
      "geocoding_level": null,
      "phone": "",
      "license_no": "",
      "license_date": null,
      "expire_date": null
    },
    {
      "name": "ＪＡしもつけ　いわふねホール",
      "name_kana": "ジェイエーシモツケイワフネホール",
      "business_type": "① 飲食店営業",
      "address": "栃木県栃木市岩舟町和泉６８０－１",
      "lat": 36.323248,
      "lng": 139.678096,
      "geocoding_level": null,
      "phone": "0282-55-8787",
      "license_no": "３００３９３９２",
      "license_date": "2021-11-01",
      "expire_date": "2027-10-31"
    },
    {
      "name": "ＪAしもつけ　おおひらホール",
      "name_kana": "ジェイエイシモツケオオヒラホール",
      "business_type": "① 飲食店営業",
      "address": "栃木県栃木市大平町富田５００３－１１",
      "lat": 36.341018,
      "lng": 139.696681,
      "geocoding_level": null,
      "phone": "0282-45-1400",
      "license_no": "30039780",
      "license_date": "2022-03-01",
      "expire_date": "2028-02-29"
    },
    {
      "name": "(株)宇都宮給食センター　アルス幼稚園内",
      "name_kana": "ウツノミヤキュウショクセンターアルスヨウチエンナイ",
      "business_type": "① 飲食店営業",
      "address": "栃木県栃木市片柳町１丁目２０－１",
      "lat": 36.374534,
      "lng": 139.725008,
      "geocoding_level": null,
      "phone": "090-4387-9133",
      "license_no": "30040157",
      "license_date": "2022-06-30",
      "expire_date": "2028-06-30"
    },
    {
      "name": "町田商店　栃木箱森店",
      "name_kana": "マチダショウテン　トチギハコモリテン",
      "business_type": "① 飲食店営業",
      "address": "栃木県栃木市箱森町43-5",
      "lat": 36.394834,
      "lng": 139.728328,
      "geocoding_level": null,
      "phone": "",
      "license_no": "30042463",
      "license_date": "2024-12-06",
      "expire_date": "2031-02-28"
    },
    {
      "name": "そば割烹嵯峨野",
      "name_kana": "ソバカッポウサガノ",
      "business_type": "① 飲食店営業",
      "address": "栃木県栃木市薗部町２丁目３－１",
      "lat": 36.375784,
      "lng": 139.719002,
      "geocoding_level": null,
      "phone": "0282-20-8260",
      "license_no": "30039631",
      "license_date": "2021-11-22",
      "expire_date": "2028-02-29"
    },
    {
      "name": "小野商店",
      "name_kana": "オノショウテン",
      "business_type": "① 魚介類販売業（包装済みの魚介類のみの販売）",
      "address": "栃木県栃木市泉川町３９８－２",
      "lat": 36.393702,
      "lng": 139.704987,
      "geocoding_level": null,
      "phone": "0282-23-5025",
      "license_no": "",
      "license_date": null,
      "expire_date": null
    },
    {
      "name": "いちごつなぎ",
      "name_kana": "イチゴツナギ",
      "business_type": "① 飲食店営業",
      "address": "栃木県栃木市万町９－３２　五番蔵",
      "lat": 36.381555,
      "lng": 139.733529,
      "geocoding_level": null,
      "phone": "",
      "license_no": "30040337",
      "license_date": "2022-08-03",
      "expire_date": "2027-10-31"
    },
    {
      "name": "牛たん　けやき　栃木店",
      "name_kana": "ギュウタン　ケヤキ　トチギテン",
      "business_type": "① 飲食店営業",
      "address": "栃木県栃木市箱森町36-7",
      "lat": 36.392027,
      "lng": 139.727469,
      "geocoding_level": null,
      "phone": "0282286688",
      "license_no": "30042268",
      "license_date": "2024-10-31",
      "expire_date": "2030-10-31"
    },
    {
      "name": "サンフレンズしずか",
      "name_kana": "サンフレンズシズカ",
      "business_type": "㉖ 集団給食施設",
      "address": "栃木県栃木市岩舟町静2341-4",
      "lat": 36.315299,
      "lng": 139.664644,
      "geocoding_level": null,
      "phone": "0282557266",
      "license_no": "",
      "license_date": null,
      "expire_date": null
    },
    {
      "name": "ホテルサンルート栃木",
      "name_kana": "ホテルサンルートトチギ",
      "business_type": "① 飲食店営業",
      "address": "栃木県栃木市万町１６－１",
      "lat": 36.382848,
      "lng": 139.734966,
      "geocoding_level": null,
      "phone": "0282-24-5858",
      "license_no": "30039430",
      "license_date": "2021-11-01",
      "expire_date": "2027-10-31"
    },
    {
      "name": "栃木温泉湯楽の里",
      "name_kana": "トチギオンセンユラノサト",
      "business_type": "③ 乳類販売業",
      "address": "栃木県栃木市大町２２－７０",
      "lat": 36.395595,
      "lng": 139.73303,
      "geocoding_level": null,
      "phone": "0282-20-2641",
      "license_no": "",
      "license_date": null,
      "expire_date": null
    },
    {
      "name": "中華料理　鑫源楼",
      "name_kana": "チュウカリョウリキンゲンロウ",
      "business_type": "① 飲食店営業",
      "address": "栃木県栃木市大平町新９８７－１",
      "lat": 36.326389,
      "lng": 139.713057,
      "geocoding_level": null,
      "phone": "",
      "license_no": "栃木県指令南保第30039432号",
      "license_date": "2021-09-30",
      "expire_date": "2028-02-29"
    },
    {
      "name": "株式会社関口海苔店",
      "name_kana": "カブシキカイシャセキグチノリテン",
      "business_type": "㉒ 海藻製造・加工業",
      "address": "栃木県栃木市箱森町39-4",
      "lat": 36.39342,
      "lng": 139.722294,
      "geocoding_level": null,
      "phone": "",
      "license_no": "",
      "license_date": null,
      "expire_date": null
    },
    {
      "name": "麺屋鶴と亀",
      "name_kana": "メンヤツルトカメ",
      "business_type": "㉕ そうざい製造業",
      "address": "栃木県栃木市大平町下皆川154-3",
      "lat": 36.350124,
      "lng": 139.702086,
      "geocoding_level": null,
      "phone": "",
      "license_no": "30040023",
      "license_date": "2022-04-25",
      "expire_date": "2028-08-31"
    },
    {
      "name": "麺屋鶴と亀",
      "name_kana": "メンヤツルトカメ",
      "business_type": "① 飲食店営業",
      "address": "栃木県栃木市大平町下皆川１５４－３",
      "lat": 36.350124,
      "lng": 139.702086,
      "geocoding_level": null,
      "phone": "",
      "license_no": "30040353",
      "license_date": "2022-08-31",
      "expire_date": "2028-08-31"
    },
    {
      "name": "TOUKOUSYA",
      "name_kana": "トウコウシャ",
      "business_type": "① 飲食店営業",
      "address": "栃木県栃木市倭町5番17号",
      "lat": 36.379379,
      "lng": 139.733359,
      "geocoding_level": null,
      "phone": "0282232251",
      "license_no": "栃木県指令南保第30039482号",
      "license_date": "2021-10-25",
      "expire_date": "2027-10-31"
    },
    {
      "name": "TOUKOUSYA",
      "name_kana": "トウコウシャ",
      "business_type": "⑪ 菓子製造業",
      "address": "栃木県栃木市倭町5番17号",
      "lat": 36.379379,
      "lng": 139.733359,
      "geocoding_level": null,
      "phone": "0282232251",
      "license_no": "栃木県指令南保第30039483号",
      "license_date": "2021-10-25",
      "expire_date": "2027-10-31"
    },
    {
      "name": "カミヤマト焙煎室",
      "name_kana": "カミヤマトバイセンシツ",
      "business_type": "⑯ コーヒー製造・加工業（飲料の製造を除く。）",
      "address": "栃木県栃木市倭町5番17号",
      "lat": 36.379379,
      "lng": 139.733359,
      "geocoding_level": null,
      "phone": "0282232251",
      "license_no": "",
      "license_date": null,
      "expire_date": null
    },
    {
      "name": "焼肉　きんぐ　栃木室町店",
      "name_kana": "ヤキニクキングトチギムロマチテン",
      "business_type": "① 飲食店営業",
      "address": "栃木県栃木市室町６－２７",
      "lat": 36.376495,
      "lng": 139.73289,
      "geocoding_level": null,
      "phone": "",
      "license_no": "栃木県指令南保第30039480号",
      "license_date": "2021-10-25",
      "expire_date": "2027-10-31"
    },
    {
      "name": "桃里カントリークラブ　クラブハウスレストラン",
      "name_kana": "トウリカントリークラブクラブハウスレストラン",
      "business_type": "① 飲食店営業",
      "address": "栃木県栃木市岩舟町小野寺４９２５",
      "lat": 36.376328,
      "lng": 139.648467,
      "geocoding_level": null,
      "phone": "0282-57-7337",
      "license_no": "３００３９４８４",
      "license_date": "2021-11-01",
      "expire_date": "2027-10-31"
    },
    {
      "name": "桃里カントリー倶楽部　コース内売店インコース",
      "name_kana": "トウリカントリークラブコースナイバイテンインコース",
      "business_type": "① 飲食店営業",
      "address": "栃木県栃木市岩舟町小野寺４９２５",
      "lat": 36.376328,
      "lng": 139.648467,
      "geocoding_level": null,
      "phone": "0282-57-7337",
      "license_no": "３００３９４８５",
      "license_date": "2021-11-01",
      "expire_date": "2027-10-31"
    },
    {
      "name": "桃里カントリー倶楽部　コース内売店アウトコース",
      "name_kana": "トウリカントリークラブコースナイバイテンアウトコース",
      "business_type": "① 飲食店営業",
      "address": "栃木県栃木市岩舟町小野寺４９２５",
      "lat": 36.376328,
      "lng": 139.648467,
      "geocoding_level": null,
      "phone": "0282-57-7337",
      "license_no": "３００３９４８６",
      "license_date": "2021-11-01",
      "expire_date": "2027-10-31"
    },
    {
      "name": "株式会社アスワン",
      "name_kana": "カブシキガイシャアスワン",
      "business_type": "⑭ 清涼飲料水製造業",
      "address": "栃木県栃木市樋ノ口町字綾川東６８－１",
      "lat": 36.360323,
      "lng": 139.755353,
      "geocoding_level": null,
      "phone": "0282-20-6811",
      "license_no": "30039651",
      "license_date": "2021-12-02",
      "expire_date": "2028-03-31"
    },
    {
      "name": "とちぎメディカルセンターとちのき",
      "name_kana": "トチギメディカルセンタートチノキ",
      "business_type": "⑫ 自動販売機による販売業（コップ式自動販売機（自動洗浄・屋内設置）及び営業許可の対象となる自動販売機を除く）",
      "address": "栃木県栃木市大町39-5",
      "lat": 36.399359,
      "lng": 139.735111,
      "geocoding_level": null,
      "phone": "",
      "license_no": "",
      "license_date": null,
      "expire_date": null
    },
    {
      "name": "ファミリーマート栃木沼和田店",
      "name_kana": "ファミリーマートトチギヌマワダテン",
      "business_type": "⑩ コンビニエンスストア",
      "address": "栃木県栃木市沼和田町43-18",
      "lat": 36.365767,
      "lng": 139.732351,
      "geocoding_level": null,
      "phone": "0282200551",
      "license_no": "",
      "license_date": null,
      "expire_date": null
    },
    {
      "name": "ファミリーマート栃木横堀店",
      "name_kana": "ファミリーマートトチギヨコボリテン",
      "business_type": "⑩ コンビニエンスストア",
      "address": "栃木県栃木市大平町横堀671番地3他1筆",
      "lat": 36.351731,
      "lng": 139.734751,
      "geocoding_level": null,
      "phone": "0282200058",
      "license_no": "",
      "license_date": null,
      "expire_date": null
    },
    {
      "name": "Ｆｕｊｉ　Ｓｐｉｃｙ＆ＨＡＬＡＬＦｏｏｄ",
      "name_kana": "フジスパイシイアンドハラルフード",
      "business_type": "⑬ その他の食料・飲料販売業",
      "address": "栃木県栃木市大平町川連２６２ ２Ｆ",
      "lat": 36.360622,
      "lng": 139.717127,
      "geocoding_level": null,
      "phone": "080-7649-5144",
      "license_no": "",
      "license_date": null,
      "expire_date": null
    },
    {
      "name": "魚清",
      "name_kana": "ウオセイ",
      "business_type": "④ 魚介類販売業",
      "address": "栃木県栃木市川原田町１６９－１",
      "lat": 36.40291,
      "lng": 139.735245,
      "geocoding_level": null,
      "phone": "",
      "license_no": "30039509",
      "license_date": "2021-12-01",
      "expire_date": "2026-11-30"
    },
    {
      "name": "岩下プロセスフーズ株式会社",
      "name_kana": "イワシタプロセスフーズカブシキガイシャ",
      "business_type": "㉙ 漬物製造業",
      "address": "栃木県栃木市河合町１０番６号",
      "lat": 36.374706,
      "lng": 139.734886,
      "geocoding_level": null,
      "phone": "0282223882",
      "license_no": "３００３９５３１",
      "license_date": "2021-10-28",
      "expire_date": "2027-10-31"
    },
    {
      "name": "道の駅みかも　レストランみかも",
      "name_kana": "ミチノエキミカモレストランミカモ",
      "business_type": "① 飲食店営業",
      "address": "栃木県栃木市藤岡町大田和６７８番地",
      "lat": 36.296793,
      "lng": 139.625644,
      "geocoding_level": null,
      "phone": "0282-62-0990",
      "license_no": "30039600",
      "license_date": "2021-12-01",
      "expire_date": "2027-11-30"
    },
    {
      "name": "道の駅みかも　レストランみかも",
      "name_kana": "ミチノエキミカモレストランミカモ",
      "business_type": "⑪ 菓子製造業",
      "address": "栃木県栃木市藤岡町大田和６７８番地",
      "lat": 36.296793,
      "lng": 139.625644,
      "geocoding_level": null,
      "phone": "0282-62-0990",
      "license_no": "30039601",
      "license_date": "2021-12-01",
      "expire_date": "2027-11-30"
    },
    {
      "name": "道の駅みかも　レストランみかも",
      "name_kana": "ミチノエキミカモレストランミカモ",
      "business_type": "⑫ アイスクリーム類製造業",
      "address": "栃木県栃木市藤岡町大田和６７８番地",
      "lat": 36.296793,
      "lng": 139.625644,
      "geocoding_level": null,
      "phone": "0282-62-0990",
      "license_no": "30039602",
      "license_date": "2021-12-01",
      "expire_date": "2027-11-30"
    },
    {
      "name": "道の駅みかも　レストランみかも",
      "name_kana": "ミチノエキミカモ　レストランミカモ",
      "business_type": "③ 乳類販売業",
      "address": "栃木県栃木市藤岡町大田和678番地",
      "lat": 36.296793,
      "lng": 139.625644,
      "geocoding_level": null,
      "phone": "0282-62-0990",
      "license_no": "",
      "license_date": null,
      "expire_date": null
    },
    {
      "name": "道の駅みかも　レストランみかも",
      "name_kana": "ミチノエキミカモ　レストランミカモ",
      "business_type": "⑬ その他の食料・飲料販売業",
      "address": "栃木県栃木市藤岡町大田和678番地",
      "lat": 36.296793,
      "lng": 139.625644,
      "geocoding_level": null,
      "phone": "0282-62-0990",
      "license_no": "",
      "license_date": null,
      "expire_date": null
    },
    {
      "name": "道の駅みかも　レストランみかも",
      "name_kana": "ミチノエキミカモレストランミカモ",
      "business_type": "① 飲食店営業",
      "address": "栃木県栃木市藤岡町大田和６７８番地",
      "lat": 36.296793,
      "lng": 139.625644,
      "geocoding_level": null,
      "phone": "0282-62-0990",
      "license_no": "30039604",
      "license_date": "2021-12-01",
      "expire_date": "2027-11-30"
    },
    {
      "name": "道の駅みかも　レストランみかも",
      "name_kana": "ミチノエキミカモレストランミカモ",
      "business_type": "① 飲食店営業",
      "address": "栃木県栃木市藤岡町大田和６７８番地",
      "lat": 36.296793,
      "lng": 139.625644,
      "geocoding_level": null,
      "phone": "0282-62-0990",
      "license_no": "30039603",
      "license_date": "2021-12-01",
      "expire_date": "2027-11-30"
    },
    {
      "name": "スナック街風",
      "name_kana": "スナックマチカゼ",
      "business_type": "① 飲食店営業",
      "address": "栃木県栃木市大平町西水代２７６０−１ 9番",
      "lat": 36.315097,
      "lng": 139.707641,
      "geocoding_level": null,
      "phone": "080-7213-4853",
      "license_no": "30039521",
      "license_date": "2021-11-15",
      "expire_date": "2027-02-28"
    },
    {
      "name": "HALEKURA GOLFCLUB",
      "name_kana": "ハレクラ　ゴルフクラブ",
      "business_type": "⑬ その他の食料・飲料販売業",
      "address": "栃木県栃木市河合町1-5 シャンブルホテル2F",
      "lat": 36.372422,
      "lng": 139.731832,
      "geocoding_level": null,
      "phone": "0282-51-2814",
      "license_no": "",
      "license_date": null,
      "expire_date": null
    },
    {
      "name": "コーヒーショップ　ＹＯＵ",
      "name_kana": "コーヒーショップユウ",
      "business_type": "㉕ そうざい製造業",
      "address": "栃木県栃木市藤岡町藤岡５０９２",
      "lat": 36.256435,
      "lng": 139.646255,
      "geocoding_level": null,
      "phone": "0282-62-5080",
      "license_no": "30039528",
      "license_date": "2021-12-01",
      "expire_date": "2027-11-30"
    },
    {
      "name": "居酒屋　トモ",
      "name_kana": "イザカヤトモ",
      "business_type": "① 飲食店営業",
      "address": "栃木県栃木市藤岡町中根１４３８－１",
      "lat": 36.285331,
      "lng": 139.684935,
      "geocoding_level": null,
      "phone": "0282-67-2280",
      "license_no": "30039529",
      "license_date": "2021-12-01",
      "expire_date": "2026-11-30"
    },
    {
      "name": "社会福祉法人なすびの里",
      "name_kana": "ナスビノサト",
      "business_type": "㉔ その他の食料品製造・加工業",
      "address": "栃木県栃木市大光寺町３４７－２",
      "lat": 36.390357,
      "lng": 139.790982,
      "geocoding_level": null,
      "phone": "0282-29-6111",
      "license_no": "",
      "license_date": null,
      "expire_date": null
    },
    {
      "name": "松金化学工業株式会社",
      "name_kana": "マツキンカガクコウギョウカブシキガイシャ",
      "business_type": "㉗ 器具、容器包装の製造・加工業（合成樹脂が使用された器具又は容器包装の製造、加工に限る。）",
      "address": "栃木県栃木市境町28-5",
      "lat": 36.369153,
      "lng": 139.725686,
      "geocoding_level": null,
      "phone": "0282242111",
      "license_no": "",
      "license_date": null,
      "expire_date": null
    },
    {
      "name": "アバンセ都賀店",
      "name_kana": "アバンセツガテン",
      "business_type": "① 飲食店営業",
      "address": "栃木県栃木市都賀町家中１７２７－１",
      "lat": 36.428302,
      "lng": 139.751282,
      "geocoding_level": null,
      "phone": "0282-27-2678",
      "license_no": "30039626",
      "license_date": "2021-12-01",
      "expire_date": "2027-11-30"
    },
    {
      "name": "アバンセ都賀店",
      "name_kana": "アバンセツガテン",
      "business_type": "③ 食肉販売業",
      "address": "栃木県栃木市都賀町家中１７２７－１",
      "lat": 36.428302,
      "lng": 139.751282,
      "geocoding_level": null,
      "phone": "0282-27-2678",
      "license_no": "30039627",
      "license_date": "2021-12-01",
      "expire_date": "2027-11-30"
    },
    {
      "name": "アバンセ都賀店",
      "name_kana": "アバンセツガテン",
      "business_type": "④ 魚介類販売業",
      "address": "栃木県栃木市都賀町家中１７２７－１",
      "lat": 36.428302,
      "lng": 139.751282,
      "geocoding_level": null,
      "phone": "0282-27-2678",
      "license_no": "30039628",
      "license_date": "2021-12-01",
      "expire_date": "2027-11-30"
    },
    {
      "name": "アバンセ都賀店(寿司）",
      "name_kana": "アバンセツガテンスシ",
      "business_type": "① 飲食店営業",
      "address": "栃木県栃木市都賀町家中１７２７－１",
      "lat": 36.428302,
      "lng": 139.751282,
      "geocoding_level": null,
      "phone": "",
      "license_no": "30039629",
      "license_date": "2021-12-01",
      "expire_date": "2027-11-30"
    },
    {
      "name": "サイゼリヤイオン栃木店",
      "name_kana": "サイゼリヤイオントチギテン",
      "business_type": "⑬ その他の食料・飲料販売業",
      "address": "栃木県栃木市箱森町37-9 ｲｵﾝ栃木店2F",
      "lat": 36.39495,
      "lng": 139.723956,
      "geocoding_level": null,
      "phone": "0282-20-1091",
      "license_no": "",
      "license_date": null,
      "expire_date": null
    },
    {
      "name": "share kitchen & space CHIDORI",
      "name_kana": "シェアキッチンアンドスペースチドリ",
      "business_type": "⑬ その他の食料・飲料販売業",
      "address": "栃木県栃木市栃木市泉町13-15",
      "lat": 36.387632,
      "lng": 139.736243,
      "geocoding_level": null,
      "phone": "08035940066",
      "license_no": "",
      "license_date": null,
      "expire_date": null
    },
    {
      "name": "ｓｈａｒｅ　ｋｉｔｃｈｅｎ　＆　ｓｐａｃｅ  ＣＨＩＤＯＲＩ",
      "name_kana": "シェアキッチンアンドスペースチドリ",
      "business_type": "① 飲食店営業",
      "address": "栃木県栃木市栃木市嘉右衛門町13-15",
      "lat": 36.386744,
      "lng": 139.733169,
      "geocoding_level": null,
      "phone": "08035940066",
      "license_no": "30039620",
      "license_date": "2021-11-19",
      "expire_date": "2027-02-28"
    },
    {
      "name": "ｓｈａｒｅ　ｋｉｔｃｈｅｎ　＆　ｓｐａｃｅ  ＣＨＩＤＯＲＩ",
      "name_kana": "シェアキッチンアンドスペースチドリ",
      "business_type": "⑪ 菓子製造業",
      "address": "栃木県栃木市栃木市嘉右衛門町13-15",
      "lat": 36.386744,
      "lng": 139.733169,
      "geocoding_level": null,
      "phone": "08035940066",
      "license_no": "30039621",
      "license_date": "2021-11-19",
      "expire_date": "2027-02-28"
    },
    {
      "name": "松金産業株式会社",
      "name_kana": "マツキンサンギョウカブシキガイシャ",
      "business_type": "㉗ 器具、容器包装の製造・加工業（合成樹脂が使用された器具又は容器包装の製造、加工に限る。）",
      "address": "栃木県栃木市大平町牛久640",
      "lat": 36.367335,
      "lng": 139.727083,
      "geocoding_level": null,
      "phone": "",
      "license_no": "",
      "license_date": null,
      "expire_date": null
    },
    {
      "name": "ヤオハン大森店",
      "name_kana": "ヤオハンオオモリテン",
      "business_type": "① 飲食店営業",
      "address": "栃木県栃木市大森町４５１－７",
      "lat": 36.414388,
      "lng": 139.697878,
      "geocoding_level": null,
      "phone": "0282-31-3501",
      "license_no": "３００３９５８２",
      "license_date": "2021-11-12",
      "expire_date": "2027-11-30"
    },
    {
      "name": "ヤオハンＮＥＷ西店",
      "name_kana": "ヤオハンニューニシテン",
      "business_type": "① 飲食店営業",
      "address": "栃木県栃木市片柳町４－２－３２",
      "lat": 36.368561,
      "lng": 139.717785,
      "geocoding_level": null,
      "phone": "0282-23-1222",
      "license_no": "３００３９５８４",
      "license_date": "2021-11-12",
      "expire_date": "2028-02-29"
    },
    {
      "name": "ヤオハン川原田店",
      "name_kana": "ヤオハンカワラダテン",
      "business_type": "① 飲食店営業",
      "address": "栃木県栃木市川原田町２８０－１",
      "lat": 36.405551,
      "lng": 139.734786,
      "geocoding_level": null,
      "phone": "0282-22-5611",
      "license_no": "30039583",
      "license_date": "2021-11-12",
      "expire_date": "2027-11-30"
    },
    {
      "name": "ヤオハン城内店",
      "name_kana": "ヤオハンジョウナイテン",
      "business_type": "① 飲食店営業",
      "address": "栃木県栃木市城内町２－２３－３",
      "lat": 36.371219,
      "lng": 139.748612,
      "geocoding_level": null,
      "phone": "0282-22-6300",
      "license_no": "30039580",
      "license_date": "2021-11-12",
      "expire_date": "2028-02-29"
    },
    {
      "name": "ヤオハンプラザアイム店",
      "name_kana": "ヤオハンプラザアイムテン",
      "business_type": "① 飲食店営業",
      "address": "栃木県栃木市昭和町３－１",
      "lat": 36.390577,
      "lng": 139.735744,
      "geocoding_level": null,
      "phone": "0282-23-1203",
      "license_no": "30039581",
      "license_date": "2021-11-12",
      "expire_date": "2028-02-29"
    },
    {
      "name": "ヤオハン岩舟店",
      "name_kana": "ヤオハンイワフネテン",
      "business_type": "① 飲食店営業",
      "address": "栃木県栃木市岩舟町下津原１６７",
      "lat": 36.318115,
      "lng": 139.651281,
      "geocoding_level": null,
      "phone": "0282-54-3603",
      "license_no": "３００３９５８５",
      "license_date": "2021-11-12",
      "expire_date": "2028-04-30"
    },
    {
      "name": "ヤオハンＮＥＷ大平店",
      "name_kana": "ヤオハンニューオオヒラテン",
      "business_type": "① 飲食店営業",
      "address": "栃木県栃木市大平町西野田１５２番地",
      "lat": 36.328724,
      "lng": 139.714035,
      "geocoding_level": null,
      "phone": "0282-45-2070",
      "license_no": "30039579",
      "license_date": "2021-11-12",
      "expire_date": "2028-02-29"
    },
    {
      "name": "ヤオハンＮＥＷ大平店",
      "name_kana": "ヤオハンニューオオヒラテン",
      "business_type": "③ 食肉販売業",
      "address": "栃木県栃木市大平町西野田１５２",
      "lat": 36.328724,
      "lng": 139.714035,
      "geocoding_level": null,
      "phone": "0282-45-2070",
      "license_no": "30039784",
      "license_date": "2022-03-01",
      "expire_date": "2028-02-29"
    },
    {
      "name": "ヤオハンＮＥＷ大平店",
      "name_kana": "ヤオハンニューオオヒラテン",
      "business_type": "④ 魚介類販売業",
      "address": "栃木県栃木市大平町西野田１５２",
      "lat": 36.328724,
      "lng": 139.714035,
      "geocoding_level": null,
      "phone": "0282-45-2070",
      "license_no": "30039785",
      "license_date": "2022-03-01",
      "expire_date": "2028-02-29"
    },