{
  "meta": {
    "updated": 1783568789,
    "sources": [
      {
        "source": "厚生労働省 食品衛生申請等システム（オープンデータ）",
        "license": "公共データ利用規約（第1.0版, PDL1.0）"
      }
    ]
  },
  "data": [
    {
      "name": "有限会社小林農産",
      "name_kana": "ユウゲンガイシャコバヤシノウサン",
      "business_type": "⑳ 精穀・製粉業",
      "address": "長野県東筑摩郡筑北村坂北3988-3",
      "lat": 36.429805,
      "lng": 138.015897,
      "geocoding_level": null,
      "phone": "0263-66-2341",
      "license_no": "",
      "license_date": null,
      "expire_date": null
    },
    {
      "name": "和らふ",
      "name_kana": "ワラウ",
      "business_type": "① 飲食店営業",
      "address": "長野県東筑摩郡筑北村坂井８３２６",
      "lat": 36.420643,
      "lng": 138.087207,
      "geocoding_level": null,
      "phone": "08074454114",
      "license_no": "09420379",
      "license_date": "2021-06-04",
      "expire_date": "2026-06-30"
    },
    {
      "name": "和らふ",
      "name_kana": "ワラウ",
      "business_type": "① 飲食店営業",
      "address": "長野県東筑摩郡筑北村坂井８３２６",
      "lat": 36.420643,
      "lng": 138.087207,
      "geocoding_level": null,
      "phone": "080-7445-4114",
      "license_no": "09420393",
      "license_date": "2021-06-04",
      "expire_date": "2026-06-30"
    },
    {
      "name": "ちくほくソーセージ工房",
      "name_kana": "チクホクソーセージコウボウ",
      "business_type": "⑮ 食肉製品製造業",
      "address": "長野県東筑摩郡筑北村大沢新田９７番地１",
      "lat": 36.383852,
      "lng": 138.056791,
      "geocoding_level": null,
      "phone": "090-8653-4368",
      "license_no": "09423230",
      "license_date": "2022-07-01",
      "expire_date": "2028-08-31"
    },
    {
      "name": "燻製工房　ＫＵＮＭＡＲＵ",
      "name_kana": "クンセイコウボウ　クンマル",
      "business_type": "㉕ そうざい製造業",
      "address": "長野県東筑摩郡筑北村大沢新田９７番地１",
      "lat": 36.383852,
      "lng": 138.056791,
      "geocoding_level": null,
      "phone": "090-8653-4368",
      "license_no": "09428034",
      "license_date": "2024-12-13",
      "expire_date": "2031-08-31"
    },
    {
      "name": "デイサービスあずまや",
      "name_kana": "デイサービスアズマヤ",
      "business_type": "⑥ 弁当販売業",
      "address": "長野県東筑摩郡筑北村坂北2194番地1",
      "lat": 36.426047,
      "lng": 138.015764,
      "geocoding_level": null,
      "phone": "0263664377",
      "license_no": "",
      "license_date": null,
      "expire_date": null
    },
    {
      "name": "デイサービスあずまや",
      "name_kana": "デイサービスアズマヤ",
      "business_type": "㉖ 集団給食施設",
      "address": "長野県東筑摩郡筑北村坂北2194番地1",
      "lat": 36.426047,
      "lng": 138.015764,
      "geocoding_level": null,
      "phone": "0263664377",
      "license_no": "",
      "license_date": null,
      "expire_date": null
    },
    {
      "name": "デイサービスほかほか",
      "name_kana": "デイサービスホカホカ",
      "business_type": "⑥ 弁当販売業",
      "address": "長野県東筑摩郡筑北村西条3507番地",
      "lat": 36.412184,
      "lng": 138.009032,
      "geocoding_level": null,
      "phone": "0263662506",
      "license_no": "",
      "license_date": null,
      "expire_date": null
    },
    {
      "name": "デイサービスほかほか",
      "name_kana": "デイサービスホカホカ",
      "business_type": "㉖ 集団給食施設",
      "address": "長野県東筑摩郡筑北村西条3507番地",
      "lat": 36.412184,
      "lng": 138.009032,
      "geocoding_level": null,
      "phone": "0263662506",
      "license_no": "",
      "license_date": null,
      "expire_date": null
    },
    {
      "name": "村のパン屋さん　ちくほっくる",
      "name_kana": "ムラノパンヤサン　チクホックル",
      "business_type": "① 飲食店営業",
      "address": "長野県東筑摩郡筑北村西条３５０８",
      "lat": 36.412213,
      "lng": 138.009118,
      "geocoding_level": null,
      "phone": "0263-66-0001",
      "license_no": "09329247",
      "license_date": "2023-03-31",
      "expire_date": "2029-03-31"
    },
    {
      "name": "村のパン屋さん　ちくほっくる",
      "name_kana": "ムラノパンヤサン　チクホックル",
      "business_type": "⑪ 菓子製造業",
      "address": "長野県東筑摩郡筑北村西条３５０８",
      "lat": 36.412213,
      "lng": 138.009118,
      "geocoding_level": null,
      "phone": "0263-66-0001",
      "license_no": "09329254",
      "license_date": "2023-03-31",
      "expire_date": "2029-03-31"
    },
    {
      "name": "デイサービス坂井",
      "name_kana": "デイサービスサカイ",
      "business_type": "⑥ 弁当販売業",
      "address": "長野県東筑摩郡筑北村坂井5727",
      "lat": 36.448373,
      "lng": 138.068199,
      "geocoding_level": null,
      "phone": "0263672918",
      "license_no": "",
      "license_date": null,
      "expire_date": null
    },
    {
      "name": "デイサービス坂井",
      "name_kana": "デイサービスサカイ",
      "business_type": "㉖ 集団給食施設",
      "address": "長野県東筑摩郡筑北村坂井5727",
      "lat": 36.448373,
      "lng": 138.068199,
      "geocoding_level": null,
      "phone": "0263672918",
      "license_no": "",
      "license_date": null,
      "expire_date": null
    },
    {
      "name": "森田勇翔",
      "name_kana": "モリタユウト",
      "business_type": "⑬ その他の食料・飲料販売業",
      "address": "長野県東筑摩郡筑北村坂井9286-2",
      "lat": 36.41447,
      "lng": 138.105707,
      "geocoding_level": null,
      "phone": "08092463721",
      "license_no": "",
      "license_date": null,
      "expire_date": null
    },
    {
      "name": "ウエルシア筑北聖南店",
      "name_kana": "ウエルシアチクホクセイナンテン",
      "business_type": "⑪ 百貨店、総合スーパー",
      "address": "長野県東筑摩郡筑北村西条3412",
      "lat": 36.41441,
      "lng": 138.008537,
      "geocoding_level": null,
      "phone": "0263661567",
      "license_no": "",
      "license_date": null,
      "expire_date": null
    },
    {
      "name": "漬け物　ラボ",
      "name_kana": "ツケモノ　ラボ",
      "business_type": "⑱ 調味料製造・加工業",
      "address": "長野県東筑摩郡筑北村坂北２２６７番地",
      "lat": 36.428163,
      "lng": 138.018118,
      "geocoding_level": null,
      "phone": "0120-651-575",
      "license_no": "",
      "license_date": null,
      "expire_date": null
    },
    {
      "name": "漬け物　ラボ",
      "name_kana": "ツケモノ　ラボ",
      "business_type": "㉙ 漬物製造業",
      "address": "長野県東筑摩郡筑北村坂北２２６７番地",
      "lat": 36.428153,
      "lng": 138.018135,
      "geocoding_level": null,
      "phone": "0120-651-575",
      "license_no": "09426617",
      "license_date": "2024-04-05",
      "expire_date": "2030-08-31"
    },
    {
      "name": "本城らんらん広場",
      "name_kana": "ホンジョウランランヒロバ",
      "business_type": "⑦ 野菜果物販売業",
      "address": "長野県東筑摩郡筑北村西条３４１５",
      "lat": 36.414163,
      "lng": 138.008656,
      "geocoding_level": null,
      "phone": "",
      "license_no": "",
      "license_date": null,
      "expire_date": null
    },
    {
      "name": "そば処　さかい",
      "name_kana": "ソバドコロ　サカイ",
      "business_type": "① 飲食店営業",
      "address": "長野県東筑摩郡筑北村坂井６２９２",
      "lat": 36.436629,
      "lng": 138.072296,
      "geocoding_level": null,
      "phone": "0263-67-2002",
      "license_no": "09249688",
      "license_date": "2023-01-31",
      "expire_date": "2028-08-31"
    },
    {
      "name": "ちりえん　‐縁あれば千里‐",
      "name_kana": "チリエン　エンアレバセンリ",
      "business_type": "⑰ 農産保存食料品製造・加工業",
      "address": "長野県東筑摩郡筑北村坂井4694",
      "lat": 36.448808,
      "lng": 138.063709,
      "geocoding_level": null,
      "phone": "09078496427",
      "license_no": "",
      "license_date": null,
      "expire_date": null
    },
    {
      "name": "草湯温泉　保養センター　冠着荘",
      "name_kana": "クサユオンセン　ホヨウセンター　カムリキソウ",
      "business_type": "③ 乳類販売業",
      "address": "長野県東筑摩郡筑北村坂井６４７８番地",
      "lat": 36.436604,
      "lng": 138.07428,
      "geocoding_level": null,
      "phone": "0263-67-2216",
      "license_no": "",
      "license_date": null,
      "expire_date": null
    },
    {
      "name": "草湯温泉　保養センター　冠着荘",
      "name_kana": "クサユオンセン　ホヨウセンター　カムリキソウ",
      "business_type": "⑬ その他の食料・飲料販売業",
      "address": "長野県東筑摩郡筑北村坂井６４７８番地",
      "lat": 36.436604,
      "lng": 138.07428,
      "geocoding_level": null,
      "phone": "0263-67-2216",
      "license_no": "",
      "license_date": null,
      "expire_date": null
    },
    {
      "name": "麺処子々",
      "name_kana": "メンドコロネネ",
      "business_type": "① 飲食店営業",
      "address": "長野県東筑摩郡筑北村坂井１４１",
      "lat": 36.432931,
      "lng": 138.090276,
      "geocoding_level": null,
      "phone": "0263-67-2522",
      "license_no": "09422405",
      "license_date": "2022-03-25",
      "expire_date": "2028-08-31"
    },
    {
      "name": "ＢＩＫＫＥ",
      "name_kana": "ビッケ",
      "business_type": "① 飲食店営業",
      "address": "長野県東筑摩郡筑北村坂井７８２８",
      "lat": 36.425873,
      "lng": 138.075709,
      "geocoding_level": null,
      "phone": "090-5439-4281",
      "license_no": "09422661",
      "license_date": "2022-04-26",
      "expire_date": "2027-04-30"
    },
    {
      "name": "ＢＩＫＫＥ",
      "name_kana": "ビッケ",
      "business_type": "㉕ そうざい製造業",
      "address": "長野県東筑摩郡筑北村坂井７８２８",
      "lat": 36.425873,
      "lng": 138.075709,
      "geocoding_level": null,
      "phone": "090-5439-4281",
      "license_no": "09427968",
      "license_date": "2024-12-06",
      "expire_date": "2031-08-31"
    },
    {
      "name": "ＢＩＫＫＥ",
      "name_kana": "ビッケ",
      "business_type": "⑪ 菓子製造業",
      "address": "長野県東筑摩郡筑北村坂井７８２８",
      "lat": 36.425873,
      "lng": 138.075709,
      "geocoding_level": null,
      "phone": "090-5439-4281",
      "license_no": "09409191",
      "license_date": "2026-01-30",
      "expire_date": "2032-08-31"
    },
    {
      "name": "農産物直売所　坂北やさいBOX",
      "name_kana": "ノウサンブツチョクバイジョ　サカキタヤサイボックス",
      "business_type": "⑦ 野菜果物販売業",
      "address": "長野県東筑摩郡筑北村坂北4332-1",
      "lat": 36.4262,
      "lng": 138.011847,
      "geocoding_level": null,
      "phone": "0263663080",
      "license_no": "",
      "license_date": null,
      "expire_date": null
    },
    {
      "name": "３６９タコライス",
      "name_kana": "ミロクタコライス",
      "business_type": "① 飲食店営業",
      "address": "長野県東筑摩郡筑北村坂井７０１０",
      "lat": 36.435163,
      "lng": 138.070211,
      "geocoding_level": null,
      "phone": "080-2372-3956",
      "license_no": "09423254",
      "license_date": "2022-07-01",
      "expire_date": "2027-08-31"
    },
    {
      "name": "松ちゃんキムチ工房",
      "name_kana": "マッチャンキムチコウボウ",
      "business_type": "㉙ 漬物製造業",
      "address": "長野県東筑摩郡筑北村坂北３９８７－１５",
      "lat": 36.429372,
      "lng": 138.015527,
      "geocoding_level": null,
      "phone": "0263-66-2048",
      "license_no": "09423457",
      "license_date": "2022-07-29",
      "expire_date": "2028-08-31"
    },
    {
      "name": "松ちゃんキムチ工房",
      "name_kana": "マッチャンキムチコウボウ",
      "business_type": "① 飲食店営業",
      "address": "長野県東筑摩郡筑北村坂北３９８７－１５",
      "lat": 36.429372,
      "lng": 138.015527,
      "geocoding_level": null,
      "phone": "0263-66-2048",
      "license_no": "09425320",
      "license_date": "2023-07-24",
      "expire_date": "2028-07-31"
    },
    {
      "name": "松ちゃんキムチ工房",
      "name_kana": "マッチャンキムチコウボウ",
      "business_type": "⑦ 野菜果物販売業",
      "address": "長野県東筑摩郡筑北村坂北３９８７－１５",
      "lat": 36.429372,
      "lng": 138.015527,
      "geocoding_level": null,
      "phone": "0263-66-2048",
      "license_no": "",
      "license_date": null,
      "expire_date": null
    },
    {
      "name": "日本ウェルネス長野高等学校",
      "name_kana": "ニホンウェルネスナガノコウトウガッコウ",
      "business_type": "③ 乳類販売業",
      "address": "長野県東筑摩郡筑北村西条４２２８",
      "lat": 36.403266,
      "lng": 138.012175,
      "geocoding_level": null,
      "phone": "0263-66-0012",
      "license_no": "",
      "license_date": null,
      "expire_date": null
    },
    {
      "name": "日本ウェルネス長野高等学校",
      "name_kana": "ニホンウェルネスナガノコウトウガッコウ",
      "business_type": "⑬ その他の食料・飲料販売業",
      "address": "長野県東筑摩郡筑北村西条４２２８",
      "lat": 36.403266,
      "lng": 138.012175,
      "geocoding_level": null,
      "phone": "0263-66-0012",
      "license_no": "",
      "license_date": null,
      "expire_date": null
    },
    {
      "name": "さのば",
      "name_kana": "サノバ",
      "business_type": "① 飲食店営業",
      "address": "長野県東筑摩郡筑北村",
      "lat": 36.402545,
      "lng": 138.011738,
      "geocoding_level": null,
      "phone": "090-5515-7569",
      "license_no": "09423635",
      "license_date": "2022-08-30",
      "expire_date": "2027-08-31"
    },
    {
      "name": "さのば",
      "name_kana": "サノバ",
      "business_type": "㉑ 製茶業",
      "address": "長野県東筑摩郡筑北村坂北1824-1",
      "lat": 36.424859,
      "lng": 138.019179,
      "geocoding_level": null,
      "phone": "090-5515-7569",
      "license_no": "",
      "license_date": null,
      "expire_date": null
    },
    {
      "name": "セブンイレブン坂北聖南店",
      "name_kana": "セブンイレブンサカキタセイナンテン",
      "business_type": "① 魚介類販売業（包装済みの魚介類のみの販売）",
      "address": "長野県東筑摩郡筑北村坂北４７７７－１",
      "lat": 36.416462,
      "lng": 138.008516,
      "geocoding_level": null,
      "phone": "0263-66-4971",
      "license_no": "",
      "license_date": null,
      "expire_date": null
    },
    {
      "name": "セブンイレブン坂北聖南店",
      "name_kana": "セブンイレブンサカキタセイナンテン",
      "business_type": "② 食肉販売業（包装済みの食肉のみの販売）",
      "address": "長野県東筑摩郡筑北村坂北４７７７－１",
      "lat": 36.416462,
      "lng": 138.008516,
      "geocoding_level": null,
      "phone": "0263-66-4971",
      "license_no": "",
      "license_date": null,
      "expire_date": null
    },
    {
      "name": "セブンイレブン坂北聖南店",
      "name_kana": "セブンイレブンサカキタセイナンテン",
      "business_type": "③ 乳類販売業",
      "address": "長野県東筑摩郡筑北村坂北４７７７－１",
      "lat": 36.416462,
      "lng": 138.008516,
      "geocoding_level": null,
      "phone": "0263-66-4971",
      "license_no": "",
      "license_date": null,
      "expire_date": null
    },
    {
      "name": "セブンイレブン坂北聖南店",
      "name_kana": "セブンイレブンサカキタセイナンテン",
      "business_type": "⑩ コンビニエンスストア",
      "address": "長野県東筑摩郡筑北村坂北４７７７－１",
      "lat": 36.416462,
      "lng": 138.008516,
      "geocoding_level": null,
      "phone": "0263-66-4971",
      "license_no": "",
      "license_date": null,
      "expire_date": null
    },
    {
      "name": "セブンイレブン　坂北聖南店",
      "name_kana": "セブンイレブン　サカキタセイナンテン",
      "business_type": "① 飲食店営業",
      "address": "長野県東筑摩郡筑北村坂北４７７７－１",
      "lat": 36.426147,
      "lng": 137.99112,
      "geocoding_level": null,
      "phone": "0263-66-4971",
      "license_no": "09258825",
      "license_date": "2023-02-28",
      "expire_date": "2028-08-31"
    },
    {
      "name": "西条温泉　とくら",
      "name_kana": "ニシジョウオンセン　トクラ",
      "business_type": "③ 乳類販売業",
      "address": "長野県東筑摩郡筑北村西条３４４３",
      "lat": 36.413645,
      "lng": 138.008121,
      "geocoding_level": null,
      "phone": "0263-66-2114",
      "license_no": "",
      "license_date": null,
      "expire_date": null
    },
    {
      "name": "西条温泉　とくら",
      "name_kana": "ニシジョウオンセン　トクラ",
      "business_type": "⑥ 弁当販売業",
      "address": "長野県東筑摩郡筑北村西条３４４３",
      "lat": 36.413645,
      "lng": 138.008121,
      "geocoding_level": null,
      "phone": "0263-66-2114",
      "license_no": "",
      "license_date": null,
      "expire_date": null
    },
    {
      "name": "西条温泉　とくら",
      "name_kana": "ニシジョウオンセン　トクラ",
      "business_type": "⑦ 野菜果物販売業",
      "address": "長野県東筑摩郡筑北村西条３４４３",
      "lat": 36.413645,
      "lng": 138.008121,
      "geocoding_level": null,
      "phone": "0263-66-2114",
      "license_no": "",
      "license_date": null,
      "expire_date": null
    },
    {
      "name": "西条温泉　とくら",
      "name_kana": "ニシジョウオンセン　トクラ",
      "business_type": "① 飲食店営業",
      "address": "長野県東筑摩郡筑北村西条３４４３番地",
      "lat": 36.413645,
      "lng": 138.008121,
      "geocoding_level": null,
      "phone": "0263-66-2114",
      "license_no": "09391721",
      "license_date": "2024-03-29",
      "expire_date": "2030-08-31"
    },
    {
      "name": "差切峡温泉保養センター坂北荘",
      "name_kana": "サシキリキョウオンセンホヨウセンターサカキタソウ",
      "business_type": "① 飲食店営業",
      "address": "長野県東筑摩郡筑北村坂北仁熊９８２８",
      "lat": 36.440193,
      "lng": 137.99605,
      "geocoding_level": null,
      "phone": "0263-66-2223",
      "license_no": "09055060",
      "license_date": "2025-02-28",
      "expire_date": "2031-02-28"
    },
    {
      "name": "筑北村坂井農産物加工施設",
      "name_kana": "チクホクムラサカイノウサンブツカコウシセツ",
      "business_type": "⑪ 菓子製造業",
      "address": "長野県東筑摩郡筑北村坂井５７４４",
      "lat": 36.432931,
      "lng": 138.090276,
      "geocoding_level": null,
      "phone": "0263-67-2002",
      "license_no": "09161511",
      "license_date": "2026-01-30",
      "expire_date": "2032-08-31"
    },
    {
      "name": "筑北村商工会",
      "name_kana": "チクホクムラショウコウカイ",
      "business_type": "① 飲食店営業",
      "address": "長野県東筑摩郡筑北村西条４１９５ 筑北村役場駐車場",
      "lat": 36.402579,
      "lng": 138.012016,
      "geocoding_level": null,
      "phone": "",
      "license_no": "09335660",
      "license_date": "2026-03-31",
      "expire_date": "2031-03-31"
    },
    {
      "name": "筑北村商工会",
      "name_kana": "チクホクムラショウコウカイ",
      "business_type": "① 飲食店営業",
      "address": "長野県東筑摩郡筑北村西条４１９５ 筑北村役場駐車場",
      "lat": 36.402579,
      "lng": 138.012016,
      "geocoding_level": null,
      "phone": "",
      "license_no": "09335677",
      "license_date": "2026-03-31",
      "expire_date": "2031-03-31"
    },
    {
      "name": "ちくほくシャインカレッジ",
      "name_kana": "チクホクシャインカレッジ",
      "business_type": "① 飲食店営業",
      "address": "長野県東筑摩郡筑北村坂北２２６７",
      "lat": 36.428153,
      "lng": 138.018135,
      "geocoding_level": null,
      "phone": "0263-55-7412",
      "license_no": "09424801",
      "license_date": "2023-06-01",
      "expire_date": "2029-08-31"
    },
    {
      "name": "（有）中澤精肉",
      "name_kana": "ユウゲンガイシャ　ナカザワセイニク",
      "business_type": "③ 食肉販売業",
      "address": "長野県東筑摩郡筑北村坂北６９３９－１",
      "lat": 36.43919,
      "lng": 138.005585,
      "geocoding_level": null,
      "phone": "0263-66-1129",
      "license_no": "09266633",
      "license_date": "2024-02-29",
      "expire_date": "2029-08-31"
    },
    {
      "name": "銀扇亭",
      "name_kana": "ギンセンテイ",
      "business_type": "① 飲食店営業",
      "address": "長野県東筑摩郡筑北村東条６０７－４",
      "lat": 36.406771,
      "lng": 138.018062,
      "geocoding_level": null,
      "phone": "",
      "license_no": "09396501",
      "license_date": "2024-03-29",
      "expire_date": "2030-08-31"
    },
    {
      "name": "キッチンカー",
      "name_kana": "キッチンカー",
      "business_type": "① 飲食店営業",
      "address": "長野県東筑摩郡筑北村西条４１９５",
      "lat": 36.402579,
      "lng": 138.012016,
      "geocoding_level": null,
      "phone": "",
      "license_no": "09400234",
      "license_date": "2024-03-29",
      "expire_date": "2029-08-31"
    },
    {
      "name": "Re Forest Camp",
      "name_kana": "リフォレストキャンプ",
      "business_type": "① 飲食店営業",
      "address": "長野県東筑摩郡筑北村坂北3438",
      "lat": 36.433315,
      "lng": 138.017547,
      "geocoding_level": null,
      "phone": "",
      "license_no": "09426859",
      "license_date": "2024-04-16",
      "expire_date": "2029-04-30"
    },
    {
      "name": "Re Forest Camp",
      "name_kana": "リフォレストキャンプ",
      "business_type": "① 飲食店営業",
      "address": "長野県東筑摩郡筑北村坂北3438",
      "lat": 36.433315,
      "lng": 138.017547,
      "geocoding_level": null,
      "phone": "",
      "license_no": "09426866",
      "license_date": "2024-04-16",
      "expire_date": "2029-04-30"
    },
    {
      "name": "Re Forest Camp",
      "name_kana": "リフォレストキャンプ",
      "business_type": "① 飲食店営業",
      "address": "長野県東筑摩郡筑北村坂北3438",
      "lat": 36.433315,
      "lng": 138.017547,
      "geocoding_level": null,
      "phone": "",
      "license_no": "09426873",
      "license_date": "2024-04-16",
      "expire_date": "2029-04-30"
    },
    {
      "name": "Re Forest Camp",
      "name_kana": "リフォレストキャンプ",
      "business_type": "① 飲食店営業",
      "address": "長野県東筑摩郡筑北村坂北3438",
      "lat": 36.433315,
      "lng": 138.017547,
      "geocoding_level": null,
      "phone": "",
      "license_no": "09426881",
      "license_date": "2024-04-16",
      "expire_date": "2029-04-30"
    },
    {
      "name": "Re Forest Camp",
      "name_kana": "リフォレストキャンプ",
      "business_type": "① 飲食店営業",
      "address": "長野県東筑摩郡筑北村坂北3438",
      "lat": 36.433315,
      "lng": 138.017547,
      "geocoding_level": null,
      "phone": "",
      "license_no": "09426898",
      "license_date": "2024-04-16",
      "expire_date": "2029-04-30"
    },
    {
      "name": "よってきましょ　もえぎ亭",
      "name_kana": "ヨッテキマショ　モエギテイ",
      "business_type": "① 飲食店営業",
      "address": "長野県東筑摩郡筑北村坂北４３３２－１",
      "lat": 36.4262,
      "lng": 138.011847,
      "geocoding_level": null,
      "phone": "0263-66-3150",
      "license_no": "09392392",
      "license_date": "2024-02-29",
      "expire_date": "2030-08-31"
    },
    {
      "name": "よってきましょ　もえぎ亭",
      "name_kana": "ヨッテキマショ　モエギテイ",
      "business_type": "㉕ そうざい製造業",
      "address": "長野県東筑摩郡筑北村坂北４３３２－１",
      "lat": 36.4262,
      "lng": 138.011847,
      "geocoding_level": null,
      "phone": "0263-66-3150",
      "license_no": "09427046",
      "license_date": "2024-05-31",
      "expire_date": "2030-08-31"
    },
    {
      "name": "シルク＆ソイ　（Ｓｉｌｋ＆Ｓｏｙ）",
      "name_kana": "シルクアンドソイ",
      "business_type": "① 飲食店営業",
      "address": "長野県東筑摩郡筑北村東条岩戸２０４９",
      "lat": 36.401229,
      "lng": 138.027939,
      "geocoding_level": null,
      "phone": "080-9373-1428",
      "license_no": "09427620",
      "license_date": "2024-09-27",
      "expire_date": "2031-08-31"
    },
    {
      "name": "坂井いちご園",
      "name_kana": "サカイイチゴエン",
      "business_type": "⑳ 精穀・製粉業",
      "address": "長野県東筑摩郡筑北村坂井6274-2",
      "lat": 36.437744,
      "lng": 138.072444,
      "geocoding_level": null,
      "phone": "090-1693-3509",
      "license_no": "",
      "license_date": null,
      "expire_date": null
    },
    {
      "name": "石仏食堂",
      "name_kana": "セキブツショクドウ",
      "business_type": "㉕ そうざい製造業",
      "address": "長野県東筑摩郡筑北村坂井１１５７２ーロ",
      "lat": 36.405383,
      "lng": 138.101534,
      "geocoding_level": null,
      "phone": "0263-67-3810",
      "license_no": "09428194",
      "license_date": "2025-01-31",
      "expire_date": "2030-08-31"
    },
    {
      "name": "石仏食堂",
      "name_kana": "セキブツショクドウ",
      "business_type": "① 飲食店営業",
      "address": "長野県東筑摩郡筑北村坂井１１５７２ーロ",
      "lat": 36.405383,
      "lng": 138.101534,
      "geocoding_level": null,
      "phone": "0263-67-3810",
      "license_no": "09022159",
      "license_date": "2025-01-31",
      "expire_date": "2030-08-31"
    },
    {
      "name": "コメリハードアンドグリーン坂北店",
      "name_kana": "コメリハードアンドグリーンサカキタテン",
      "business_type": "⑧ 米穀類販売業",
      "address": "長野県東筑摩郡筑北村坂北４８６１番１",
      "lat": 36.417323,
      "lng": 138.009557,
      "geocoding_level": null,
      "phone": "0263-66-1002",
      "license_no": "",
      "license_date": null,
      "expire_date": null
    },
    {
      "name": "村のパン屋さんちくほっくる",
      "name_kana": "ムラノパンヤサンチクホックル",
      "business_type": "⑬ その他の食料・飲料販売業",
      "address": "長野県東筑摩郡筑北村西条３５０８",
      "lat": 36.412213,
      "lng": 138.009118,
      "geocoding_level": null,
      "phone": "0263-66-0001",
      "license_no": "",
      "license_date": null,
      "expire_date": null
    },
    {
      "name": "居酒屋　しんちゃん",
      "name_kana": "イザカヤ　シンチャン",
      "business_type": "① 飲食店営業",
      "address": "長野県東筑摩郡筑北村西条４４０４－１",
      "lat": 36.409598,
      "lng": 138.012721,
      "geocoding_level": null,
      "phone": "0263-66-3659",
      "license_no": "09203370",
      "license_date": "2026-03-31",
      "expire_date": "2032-08-31"
    }
  ]
}
