{
  "meta": {
    "updated": 1783568789,
    "sources": [
      {
        "source": "厚生労働省 食品衛生申請等システム（オープンデータ）",
        "license": "公共データ利用規約（第1.0版, PDL1.0）"
      }
    ]
  },
  "data": [
    {
      "name": "ドラッグストアウェルネス大山店",
      "name_kana": "ドラッグストアウェルネスダイセンテン",
      "business_type": "⑬ その他の食料・飲料販売業",
      "address": "鳥取県西伯郡大山町塩津902-3",
      "lat": 35.521752,
      "lng": 133.568426,
      "geocoding_level": null,
      "phone": "0858-58-3915",
      "license_no": "",
      "license_date": null,
      "expire_date": null
    },
    {
      "name": "obispo",
      "name_kana": "オビスポ",
      "business_type": "㉑ 製茶業",
      "address": "鳥取県西伯郡大山町今在家473",
      "lat": 35.444538,
      "lng": 133.499617,
      "geocoding_level": null,
      "phone": "09081497493",
      "license_no": "",
      "license_date": null,
      "expire_date": null
    },
    {
      "name": "山陰ヤクルト販売株式会社　名和センター",
      "name_kana": "サンインヤクルトハンバイカブシキガイシャ　ナワセンター",
      "business_type": "⑬ その他の食料・飲料販売業",
      "address": "鳥取県西伯郡大山町古御堂136-5",
      "lat": 35.496321,
      "lng": 133.478048,
      "geocoding_level": null,
      "phone": "",
      "license_no": "",
      "license_date": null,
      "expire_date": null
    },
    {
      "name": "合同会社大山スマイルファーム",
      "name_kana": "ゴウドウガイシャダイセンスマイルファーム",
      "business_type": "⑭ 清涼飲料水製造業",
      "address": "鳥取県西伯郡大山町岡５５９",
      "lat": 35.521267,
      "lng": 133.557701,
      "geocoding_level": null,
      "phone": "",
      "license_no": "145001",
      "license_date": "2021-12-09",
      "expire_date": "2028-08-31"
    },
    {
      "name": "合同会社大山スマイルファーム",
      "name_kana": "ゴウドウガイシャダイセンスマイルファーム",
      "business_type": "㉙ 漬物製造業",
      "address": "鳥取県西伯郡大山町岡５５９",
      "lat": 35.521267,
      "lng": 133.557701,
      "geocoding_level": null,
      "phone": "",
      "license_no": "202420087",
      "license_date": "2024-05-24",
      "expire_date": "2030-08-31"
    },
    {
      "name": "合同会社大山スマイルファーム",
      "name_kana": "ゴウドウガイシャダイセンスマイルファーム",
      "business_type": "㉚ 密封包装食品製造業",
      "address": "鳥取県西伯郡大山町岡５５９",
      "lat": 35.521267,
      "lng": 133.557701,
      "geocoding_level": null,
      "phone": "",
      "license_no": "305008",
      "license_date": "2023-05-31",
      "expire_date": "2029-08-31"
    },
    {
      "name": "合同会社大山スマイルファアーム",
      "name_kana": "ゴウドウガイシャダイセンスマイルファーム",
      "business_type": "⑰ 農産保存食料品製造・加工業",
      "address": "鳥取県西伯郡大山町岡５５９",
      "lat": 35.521265,
      "lng": 133.557692,
      "geocoding_level": null,
      "phone": "",
      "license_no": "",
      "license_date": null,
      "expire_date": null
    },
    {
      "name": "丸合　中山店",
      "name_kana": "マルゴウ　ナカヤマテン",
      "business_type": "⑪ 百貨店、総合スーパー",
      "address": "鳥取県西伯郡大山町赤坂３４８－２",
      "lat": 35.524408,
      "lng": 133.57949,
      "geocoding_level": null,
      "phone": "0858-58-2210",
      "license_no": "",
      "license_date": null,
      "expire_date": null
    },
    {
      "name": "丸合　中山店",
      "name_kana": "マルゴウ　ナカヤマテン",
      "business_type": "① 飲食店営業",
      "address": "鳥取県西伯郡大山町赤坂３４８－２",
      "lat": 35.524396,
      "lng": 133.579483,
      "geocoding_level": null,
      "phone": "0858-58-2210",
      "license_no": "015645",
      "license_date": "2022-09-01",
      "expire_date": "2028-08-31"
    },
    {
      "name": "丸合　中山店",
      "name_kana": "マルゴウ　ナカヤマテン",
      "business_type": "④ 魚介類販売業",
      "address": "鳥取県西伯郡大山町赤坂３４８－２",
      "lat": 35.524408,
      "lng": 133.57949,
      "geocoding_level": null,
      "phone": "0858-58-2210",
      "license_no": "045042",
      "license_date": "2022-09-01",
      "expire_date": "2028-08-31"
    },
    {
      "name": "Aコープ名和店",
      "name_kana": "エーコープナワテン",
      "business_type": "⑪ 百貨店、総合スーパー",
      "address": "鳥取県西伯郡大山町御来屋２６２－４",
      "lat": 35.511545,
      "lng": 133.496484,
      "geocoding_level": null,
      "phone": "0859543298",
      "license_no": "",
      "license_date": null,
      "expire_date": null
    },
    {
      "name": "井上青輝園",
      "name_kana": "イノウエセイキエン",
      "business_type": "㉑ 製茶業",
      "address": "鳥取県西伯郡大山町潮音寺９２番地",
      "lat": 35.514299,
      "lng": 133.588474,
      "geocoding_level": null,
      "phone": "",
      "license_no": "",
      "license_date": null,
      "expire_date": null
    },
    {
      "name": "有限会社法橋商店",
      "name_kana": "ユウゲンガイシャ　ホッキョウショウテン",
      "business_type": "⑦ 野菜果物販売業",
      "address": "鳥取県西伯郡大山町御来屋999",
      "lat": 35.511119,
      "lng": 133.494059,
      "geocoding_level": null,
      "phone": "0859-54-2137",
      "license_no": "",
      "license_date": null,
      "expire_date": null
    },
    {
      "name": "Ça a l'air bon",
      "name_kana": "サアレボン",
      "business_type": "① 飲食店営業",
      "address": "鳥取県西伯郡大山町赤松312-51",
      "lat": 35.417648,
      "lng": 133.500663,
      "geocoding_level": null,
      "phone": "09061372638",
      "license_no": "015427",
      "license_date": "2022-02-25",
      "expire_date": "2028-08-31"
    },
    {
      "name": "Jewelrycandy",
      "name_kana": "ジュエリーキャンディー",
      "business_type": "⑬ その他の食料・飲料販売業",
      "address": "鳥取県西伯郡大山町高田1123-1",
      "lat": 35.462606,
      "lng": 133.505394,
      "geocoding_level": null,
      "phone": "08056178392",
      "license_no": "",
      "license_date": null,
      "expire_date": null
    },
    {
      "name": "株式会社週末住人",
      "name_kana": "カブシキガイシャシュウマツジュウニン",
      "business_type": "⑨ 通信販売・訪問販売による販売業",
      "address": "鳥取県西伯郡大山町富長１５９番地１ ２Ｆ（ＴＯＲＩＣＯ内）",
      "lat": 35.504267,
      "lng": 133.486233,
      "geocoding_level": null,
      "phone": "05088839348",
      "license_no": "",
      "license_date": null,
      "expire_date": null
    },
    {
      "name": "CAFE2020",
      "name_kana": "カフェツレヅレ",
      "business_type": "① 飲食店営業",
      "address": "鳥取県西伯郡大山町国信543−22",
      "lat": 35.484479,
      "lng": 133.456846,
      "geocoding_level": null,
      "phone": "07084715489",
      "license_no": "015593",
      "license_date": "2022-07-12",
      "expire_date": "2028-08-31"
    },
    {
      "name": "地域自主組織なわのわ",
      "name_kana": "チイキジシュソシキナワノワ",
      "business_type": "① 飲食店営業",
      "address": "鳥取県西伯郡大山町加茂12-2",
      "lat": 35.495522,
      "lng": 133.500544,
      "geocoding_level": null,
      "phone": "",
      "license_no": "015944",
      "license_date": "2022-03-27",
      "expire_date": "2029-08-31"
    },
    {
      "name": "地域自主組織なわのわ",
      "name_kana": "チイキジシュソシキナワノワ",
      "business_type": "㉔ 麺類製造業",
      "address": "鳥取県西伯郡大山町加茂12-2",
      "lat": 35.495522,
      "lng": 133.500544,
      "geocoding_level": null,
      "phone": "",
      "license_no": "245009",
      "license_date": "2022-03-27",
      "expire_date": "2029-08-31"
    },
    {
      "name": "介護老人保健施設　小谷苑",
      "name_kana": "カイゴロウジンホケンシセツ　コダニエン",
      "business_type": "㉖ 集団給食施設",
      "address": "鳥取県西伯郡大山町西坪５４５-１",
      "lat": 35.513248,
      "lng": 133.502255,
      "geocoding_level": null,
      "phone": "0859543388",
      "license_no": "",
      "license_date": null,
      "expire_date": null
    },
    {
      "name": "Knot Daisen",
      "name_kana": "ノット　ダイセン",
      "business_type": "① 飲食店営業",
      "address": "鳥取県西伯郡大山町赤松　中槇原572-426",
      "lat": 35.409817,
      "lng": 133.478924,
      "geocoding_level": null,
      "phone": "0853-25-3111",
      "license_no": "015943",
      "license_date": "2023-03-24",
      "expire_date": "2029-08-31"
    },
    {
      "name": "Knot Daisen",
      "name_kana": "ノット　ダイセン",
      "business_type": "① 飲食店営業",
      "address": "鳥取県西伯郡大山町赤松　中槇原572-426",
      "lat": 35.409817,
      "lng": 133.478924,
      "geocoding_level": null,
      "phone": "0853-25-3111",
      "license_no": "015943",
      "license_date": "2023-03-24",
      "expire_date": "2029-08-31"
    },
    {
      "name": "大山ジビエ工房",
      "name_kana": "ダイセンジビエコウボウ",
      "business_type": "② 食肉販売業（包装済みの食肉のみの販売）",
      "address": "鳥取県西伯郡大山町羽田井1419-226",
      "lat": 35.466627,
      "lng": 133.58393,
      "geocoding_level": null,
      "phone": "",
      "license_no": "",
      "license_date": null,
      "expire_date": null
    },
    {
      "name": "ばんだの里",
      "name_kana": "バンダノサト",
      "business_type": "㉖ 集団給食施設",
      "address": "鳥取県西伯郡大山町安原1119",
      "lat": 35.46663,
      "lng": 133.439192,
      "geocoding_level": null,
      "phone": "0859533001",
      "license_no": "",
      "license_date": null,
      "expire_date": null
    },
    {
      "name": "Community Cafe & Bar ringtime",
      "name_kana": "コミュニティカフェアンドバーリングタイム",
      "business_type": "① 飲食店営業",
      "address": "鳥取県西伯郡大山町末長296-21",
      "lat": 35.482743,
      "lng": 133.454246,
      "geocoding_level": null,
      "phone": "09052667103",
      "license_no": "202420347",
      "license_date": "2024-10-15",
      "expire_date": "2031-08-31"
    },
    {
      "name": "有限会社松本建設",
      "name_kana": "ユウゲンガイシャマツモトケンセツ",
      "business_type": "㉔ その他の食料品製造・加工業",
      "address": "鳥取県西伯郡大山町松河原218",
      "lat": 35.516822,
      "lng": 133.550086,
      "geocoding_level": null,
      "phone": "0858-58-3977",
      "license_no": "",
      "license_date": null,
      "expire_date": null
    },
    {
      "name": "やまねの塒",
      "name_kana": "ヤマネノネグラ",
      "business_type": "① 飲食店営業",
      "address": "鳥取県西伯郡大山町國信551-2",
      "lat": 35.484314,
      "lng": 133.456677,
      "geocoding_level": null,
      "phone": "08036000553",
      "license_no": "202520670",
      "license_date": "2026-02-25",
      "expire_date": "2032-08-31"
    },
    {
      "name": "牛骨ラーメンスタンド大山参道店",
      "name_kana": "ギュウコツラーメンスタンドダイセンサンドウテン",
      "business_type": "① 飲食店営業",
      "address": "鳥取県西伯郡大山町大山45-11",
      "lat": 35.393086,
      "lng": 133.530114,
      "geocoding_level": null,
      "phone": "0859579673",
      "license_no": "202520075",
      "license_date": "2025-05-21",
      "expire_date": "2031-08-31"
    },
    {
      "name": "牛骨ラーメンスタンド大山参道店",
      "name_kana": "ギュウコツラーメンスタンドダイセンサンドウテン",
      "business_type": "⑬ その他の食料・飲料販売業",
      "address": "鳥取県西伯郡大山町大山45-11",
      "lat": 35.393086,
      "lng": 133.530114,
      "geocoding_level": null,
      "phone": "0859579673",
      "license_no": "",
      "license_date": null,
      "expire_date": null
    },
    {
      "name": "キャラコ",
      "name_kana": "キャラコ",
      "business_type": "① 飲食店営業",
      "address": "鳥取県西伯郡大山町大山22",
      "lat": 35.392382,
      "lng": 133.531586,
      "geocoding_level": null,
      "phone": "",
      "license_no": "202520172",
      "license_date": "2025-07-03",
      "expire_date": "2031-08-31"
    },
    {
      "name": "コメリハードアンドグリーン名和店",
      "name_kana": "コメリハードアンドグリーンナワテン",
      "business_type": "⑧ 米穀類販売業",
      "address": "鳥取県西伯郡大山町富長１３９番",
      "lat": 35.503096,
      "lng": 133.48444,
      "geocoding_level": null,
      "phone": "0859-54-6100",
      "license_no": "",
      "license_date": null,
      "expire_date": null
    },
    {
      "name": "やまねの塒",
      "name_kana": "ヤマネノネグラ",
      "business_type": "⑪ 菓子製造業",
      "address": "鳥取県西伯郡大山町國信551-2",
      "lat": 35.484314,
      "lng": 133.456677,
      "geocoding_level": null,
      "phone": "08036000553",
      "license_no": "202520671",
      "license_date": "2026-02-25",
      "expire_date": "2032-08-31"
    }
  ]
}
