{
  "meta": {
    "updated": 1783568789,
    "sources": [
      {
        "source": "厚生労働省 食品衛生申請等システム（オープンデータ）",
        "license": "公共データ利用規約（第1.0版, PDL1.0）"
      }
    ]
  },
  "data": [
    {
      "name": "株式会社種商",
      "name_kana": "カブシキガイシャタネショウ",
      "business_type": "⑳ 精穀・製粉業",
      "address": "佐賀県鳥栖市藤木町若桜3-5",
      "lat": 33.362847,
      "lng": 130.525431,
      "geocoding_level": null,
      "phone": "0942-83-1311",
      "license_no": "",
      "license_date": null,
      "expire_date": null
    },
    {
      "name": "株式会社テイスティフーズ",
      "name_kana": "テイスティフーズ",
      "business_type": "㉕ そうざい製造業",
      "address": "佐賀県鳥栖市藤木町若桜3番地12",
      "lat": 33.362847,
      "lng": 130.525431,
      "geocoding_level": null,
      "phone": "0942-83-1411",
      "license_no": "佐賀県指令8鳥保福第55号",
      "license_date": "2026-05-31",
      "expire_date": "2032-05-31"
    },
    {
      "name": "株式会社テイスティフーズ",
      "name_kana": "テイスティフーズ",
      "business_type": "㉘ 複合型冷凍食品製造業",
      "address": "佐賀県鳥栖市藤木町若桜3番地12",
      "lat": 33.362847,
      "lng": 130.525431,
      "geocoding_level": null,
      "phone": "0942-83-1411",
      "license_no": "佐賀県指令8鳥保福第56号",
      "license_date": "2026-05-31",
      "expire_date": "2032-05-31"
    },
    {
      "name": "西日本フード株式会社九州第1事業部鳥栖営業部",
      "name_kana": "ニシニッポンフードカブシキガイシャキュウシュウダイイチジギョウブトスエイギョウブ",
      "business_type": "⑬ その他の食料・飲料販売業",
      "address": "佐賀県鳥栖市幡崎町1702",
      "lat": 33.39118,
      "lng": 130.536576,
      "geocoding_level": null,
      "phone": "",
      "license_no": "",
      "license_date": null,
      "expire_date": null
    },
    {
      "name": "西日本フード株式会社",
      "name_kana": "ニシニッポンフード",
      "business_type": "② 食肉販売業（包装済みの食肉のみの販売）",
      "address": "佐賀県鳥栖市幡崎町１７０２番地",
      "lat": 33.39118,
      "lng": 130.536576,
      "geocoding_level": null,
      "phone": "",
      "license_no": "",
      "license_date": null,
      "expire_date": null
    },
    {
      "name": "西日本フード株式会社",
      "name_kana": "ニシニッポンフード",
      "business_type": "⑦ 野菜果物販売業",
      "address": "佐賀県鳥栖市幡崎町１７０２番地",
      "lat": 33.39118,
      "lng": 130.536576,
      "geocoding_level": null,
      "phone": "",
      "license_no": "",
      "license_date": null,
      "expire_date": null
    },
    {
      "name": "西日本フード株式会社",
      "name_kana": "ニシニッポンフード",
      "business_type": "⑬ その他の食料・飲料販売業",
      "address": "佐賀県鳥栖市幡崎町１７０２番地",
      "lat": 33.39118,
      "lng": 130.536576,
      "geocoding_level": null,
      "phone": "",
      "license_no": "",
      "license_date": null,
      "expire_date": null
    },
    {
      "name": "株式会社丸珠物産　サンリブ鳥栖店",
      "name_kana": "カブシキガイシャマルタマブッサン　サンリブトステン",
      "business_type": "⑦ 野菜果物販売業",
      "address": "佐賀県鳥栖市本鳥栖町537-1",
      "lat": 33.374557,
      "lng": 130.518237,
      "geocoding_level": null,
      "phone": "0942-87-7610",
      "license_no": "",
      "license_date": null,
      "expire_date": null
    },
    {
      "name": "ダイソー　フレスポ鳥栖店",
      "name_kana": "ダイソー　フレスポトステン",
      "business_type": "⑬ その他の食料・飲料販売業",
      "address": "佐賀県鳥栖市本鳥栖町５３７－１ フレスポ鳥栖　２階",
      "lat": 33.374575,
      "lng": 130.518238,
      "geocoding_level": null,
      "phone": "",
      "license_no": "",
      "license_date": null,
      "expire_date": null
    },
    {
      "name": "ダイソー　鳥栖蔵上店",
      "name_kana": "ダイソー　トスクラノウエテン",
      "business_type": "⑬ その他の食料・飲料販売業",
      "address": "佐賀県鳥栖市蔵上町２－１７３",
      "lat": 33.368128,
      "lng": 130.495541,
      "geocoding_level": null,
      "phone": "",
      "license_no": "",
      "license_date": null,
      "expire_date": null
    },
    {
      "name": "株式会社ミツヤ鳥栖工場",
      "name_kana": "カブシキガイシャミツヤトスコウジョウ",
      "business_type": "⑪ 菓子製造業",
      "address": "佐賀県鳥栖市藤木町字若桜６－９",
      "lat": 33.362847,
      "lng": 130.525431,
      "geocoding_level": null,
      "phone": "0942-82-4820",
      "license_no": "佐賀県指令3鳥保福第52号",
      "license_date": "2021-06-01",
      "expire_date": "2027-05-31"
    },
    {
      "name": "ワンサードフィットネス鳥栖",
      "name_kana": "ワンサードフィットネストリス",
      "business_type": "⑫ 自動販売機による販売業（コップ式自動販売機（自動洗浄・屋内設置）及び営業許可の対象となる自動販売機を除く）",
      "address": "佐賀県鳥栖市宿町1104-1",
      "lat": 33.376336,
      "lng": 130.504252,
      "geocoding_level": null,
      "phone": "",
      "license_no": "",
      "license_date": null,
      "expire_date": null
    },
    {
      "name": "ダイナム佐賀鳥栖店",
      "name_kana": "ダイナムサガトステン",
      "business_type": "⑤ コップ式自動販売機（自動洗浄・屋内設置）",
      "address": "佐賀県鳥栖市真木町字荒巻1712番地7",
      "lat": 33.359457,
      "lng": 130.51017,
      "geocoding_level": null,
      "phone": "070-1455-8834",
      "license_no": "",
      "license_date": null,
      "expire_date": null
    },
    {
      "name": "めん六や　佐賀鳥栖店",
      "name_kana": "メンロクヤ　サガトステン",
      "business_type": "① 飲食店営業",
      "address": "佐賀県鳥栖市真木町荒巻1712番地7",
      "lat": 33.359457,
      "lng": 130.51017,
      "geocoding_level": null,
      "phone": "070-1455-8834",
      "license_no": "佐賀県指令8鳥保福第60号",
      "license_date": "2026-05-31",
      "expire_date": "2032-05-31"
    },
    {
      "name": "鳥栖中央青果地方卸売市場",
      "name_kana": "トスチュウオウセイカチホウオロシウリイチバ",
      "business_type": "⑦ 野菜果物販売業",
      "address": "佐賀県鳥栖市曽根崎町1003",
      "lat": 33.371688,
      "lng": 130.531749,
      "geocoding_level": null,
      "phone": "0942832911",
      "license_no": "",
      "license_date": null,
      "expire_date": null
    },
    {
      "name": "フレッシュフーズ株式会社",
      "name_kana": "フレッシュフーズカブシキガイシャ",
      "business_type": "⑦ 野菜果物販売業",
      "address": "佐賀県鳥栖市曽根崎町１００３",
      "lat": 33.371688,
      "lng": 130.531749,
      "geocoding_level": null,
      "phone": "09088944316",
      "license_no": "",
      "license_date": null,
      "expire_date": null
    },
    {
      "name": "アスタラビスタ鳥栖店　清流物語",
      "name_kana": "アスタラビスタトステン　セイリュウモノガタリ",
      "business_type": "⑫ 自動販売機による販売業（コップ式自動販売機（自動洗浄・屋内設置）及び営業許可の対象となる自動販売機を除く）",
      "address": "佐賀県鳥栖市古賀町311",
      "lat": 33.388923,
      "lng": 130.499485,
      "geocoding_level": null,
      "phone": "",
      "license_no": "",
      "license_date": null,
      "expire_date": null
    },
    {
      "name": "スターバックスコーヒー鳥栖蔵上町店",
      "name_kana": "スターバックスコーヒートスクラノウエマチテン",
      "business_type": "⑬ その他の食料・飲料販売業",
      "address": "佐賀県鳥栖市蔵上町662-5",
      "lat": 33.375944,
      "lng": 130.498631,
      "geocoding_level": null,
      "phone": "0942-87-5677",
      "license_no": "",
      "license_date": null,
      "expire_date": null
    },
    {
      "name": "スターバックスコーヒー鳥栖プレミアム・アウトレット店",
      "name_kana": "スターバックスコーヒートスプレミアム・アウトレットテン",
      "business_type": "⑬ その他の食料・飲料販売業",
      "address": "佐賀県鳥栖市弥生が丘8-1",
      "lat": 33.406797,
      "lng": 130.510726,
      "geocoding_level": null,
      "phone": "0942-50-8229",
      "license_no": "",
      "license_date": null,
      "expire_date": null
    },
    {
      "name": "スターバックスコーヒー　鳥栖蔵上町店",
      "name_kana": "スターバックスコーヒー　トスクラノウエマチテン",
      "business_type": "① 飲食店営業",
      "address": "佐賀県鳥栖市蔵上町６６２番５",
      "lat": 33.375944,
      "lng": 130.498631,
      "geocoding_level": null,
      "phone": "0942-87-5677",
      "license_no": "佐賀県指令4鳥保福第284号",
      "license_date": "2022-11-30",
      "expire_date": "2028-11-30"
    },
    {
      "name": "ジョイフル鳥栖中央店",
      "name_kana": "ジョイフルトスチュウオウテン",
      "business_type": "① 飲食店営業",
      "address": "佐賀県鳥栖市本鳥栖町３０２－１０",
      "lat": 33.377814,
      "lng": 130.520981,
      "geocoding_level": null,
      "phone": "0942-87-8915",
      "license_no": "佐賀県指令7鳥保福第430号",
      "license_date": "2026-02-28",
      "expire_date": "2032-02-29"
    },
    {
      "name": "日本デイリーネット（株）九州センター",
      "name_kana": "ニッポンデイリーネットカブシキガイシャキュウシュウセンター",
      "business_type": "㉙ その他",
      "address": "佐賀県鳥栖市姫方町1624番地",
      "lat": 33.382919,
      "lng": 130.535408,
      "geocoding_level": null,
      "phone": "0942-81-3200",
      "license_no": "",
      "license_date": null,
      "expire_date": null
    },
    {
      "name": "あじかん鳥栖工場",
      "name_kana": "アジカントスコウジョウ",
      "business_type": "⑯ 水産製品製造業",
      "address": "佐賀県鳥栖市藤木町6-4",
      "lat": 33.365973,
      "lng": 130.527736,
      "geocoding_level": null,
      "phone": "0942-85-1730",
      "license_no": "佐賀県指令3鳥保福第42号",
      "license_date": "2021-06-01",
      "expire_date": "2027-05-31"
    },
    {
      "name": "あじかん鳥栖工場",
      "name_kana": "アジカントスコウジョウ",
      "business_type": "㉕ そうざい製造業",
      "address": "佐賀県鳥栖市藤木町6-4",
      "lat": 33.365973,
      "lng": 130.527736,
      "geocoding_level": null,
      "phone": "0942-85-1730",
      "license_no": "佐賀県指令3鳥保福第43号",
      "license_date": "2021-06-01",
      "expire_date": "2027-05-31"
    },
    {
      "name": "あじかん鳥栖工場",
      "name_kana": "アジカントスコウジョウ",
      "business_type": "㉗ 冷凍食品製造業",
      "address": "佐賀県鳥栖市藤木町6-4",
      "lat": 33.365973,
      "lng": 130.527736,
      "geocoding_level": null,
      "phone": "0942-85-1730",
      "license_no": "佐賀県指令3鳥保福第44号",
      "license_date": "2021-06-01",
      "expire_date": "2027-05-31"
    },
    {
      "name": "ANYTIME FITNESS鳥栖店",
      "name_kana": "エニタイムフィットネストステン",
      "business_type": "⑫ 自動販売機による販売業（コップ式自動販売機（自動洗浄・屋内設置）及び営業許可の対象となる自動販売機を除く）",
      "address": "佐賀県鳥栖市本町2-1450-1",
      "lat": 33.377222,
      "lng": 130.509277,
      "geocoding_level": null,
      "phone": "0942857800",
      "license_no": "",
      "license_date": null,
      "expire_date": null
    },
    {
      "name": "有限会社ショッピングマルショウ鳥栖営業所",
      "name_kana": "ユウゲンガイシャショッピングマルショウトスエイギョウショ",
      "business_type": "③ 食肉販売業",
      "address": "佐賀県鳥栖市幸津町149番地6",
      "lat": 33.361467,
      "lng": 130.497151,
      "geocoding_level": null,
      "phone": "",
      "license_no": "佐賀県指令3鳥保福第69号",
      "license_date": "2021-06-01",
      "expire_date": "2027-05-31"
    },
    {
      "name": "マックスバリュ鳥栖村田店",
      "name_kana": "マックバリュトスムラタテン",
      "business_type": "⑫ 自動販売機による販売業（コップ式自動販売機（自動洗浄・屋内設置）及び営業許可の対象となる自動販売機を除く）",
      "address": "佐賀県鳥栖市村田町701-1",
      "lat": 33.356988,
      "lng": 130.482261,
      "geocoding_level": null,
      "phone": "",
      "license_no": "",
      "license_date": null,
      "expire_date": null
    },
    {
      "name": "ファミリーマート鳥栖藤木町店",
      "name_kana": "ファミリーマートトスフジノキマチテン",
      "business_type": "⑩ コンビニエンスストア",
      "address": "佐賀県鳥栖市藤木町２４４９番地",
      "lat": 33.367834,
      "lng": 130.516129,
      "geocoding_level": null,
      "phone": "",
      "license_no": "",
      "license_date": null,
      "expire_date": null
    },
    {
      "name": "ファミリーマート鳥栖藤木町店",
      "name_kana": "ファミリーマートトスフジノキマチテン",
      "business_type": "① 飲食店営業",
      "address": "佐賀県鳥栖市藤木町２４４９番地",
      "lat": 33.367834,
      "lng": 130.516129,
      "geocoding_level": null,
      "phone": "0942-81-3001",
      "license_no": "佐賀県指令3鳥保福第49号",
      "license_date": "2021-06-01",
      "expire_date": "2027-05-31"
    },
    {
      "name": "ファミリーマート鳥栖あさひ新町店",
      "name_kana": "ファミリーマートトスアサヒシンマチテン",
      "business_type": "① 飲食店営業",
      "address": "佐賀県鳥栖市あさひ新町821番地28",
      "lat": 33.347787,
      "lng": 130.499136,
      "geocoding_level": null,
      "phone": "0942-87-5338",
      "license_no": "佐賀県指令5鳥保福第48号",
      "license_date": "2023-05-31",
      "expire_date": "2029-05-31"
    },
    {
      "name": "ＩＨミートソリューション株式会社　九州パックセンター",
      "name_kana": "アイエイチミートソリューションキュウシュウパックセンター",
      "business_type": "⑨ 食肉処理業",
      "address": "佐賀県鳥栖市藤木町若桜8番1号",
      "lat": 33.362847,
      "lng": 130.525431,
      "geocoding_level": null,
      "phone": "0942-83-7175",
      "license_no": "佐賀県指令8鳥保福第82号",
      "license_date": "2026-05-31",
      "expire_date": "2032-05-31"
    },
    {
      "name": "Ｕｍｉｏｓ ロジ株式会社 九州支社　鳥栖物流センター",
      "name_kana": "ウミオスロジカブシキガイシャキュウシュウシシャトスブツリュウセンター",
      "business_type": "㉙ その他",
      "address": "佐賀県鳥栖市姫方町字蓮原1626番地",
      "lat": 33.389659,
      "lng": 130.531789,
      "geocoding_level": null,
      "phone": "0942824161",
      "license_no": "",
      "license_date": null,
      "expire_date": null
    },
    {
      "name": "かなさ保育園",
      "name_kana": "カナサホイクエン",
      "business_type": "㉖ 集団給食施設",
      "address": "佐賀県鳥栖市山浦町字乗目１４３４番地１",
      "lat": 33.377488,
      "lng": 130.485349,
      "geocoding_level": null,
      "phone": "0942-85-8986",
      "license_no": "",
      "license_date": null,
      "expire_date": null
    },
    {
      "name": "ウエスト　鳥栖店",
      "name_kana": "ウエスト　トステン",
      "business_type": "① 飲食店営業",
      "address": "佐賀県鳥栖市真木町1496-1",
      "lat": 33.355052,
      "lng": 130.514026,
      "geocoding_level": null,
      "phone": "0942-84-0466",
      "license_no": "佐賀県指令3鳥保福第47号",
      "license_date": "2021-06-01",
      "expire_date": "2027-05-31"
    },
    {
      "name": "結カフェ",
      "name_kana": "ユイカフェ",
      "business_type": "① 飲食店営業",
      "address": "佐賀県鳥栖市轟木町1048-3",
      "lat": 33.363449,
      "lng": 130.499994,
      "geocoding_level": null,
      "phone": "0942811133",
      "license_no": "佐賀県指令3鳥保福第51号",
      "license_date": "2021-06-01",
      "expire_date": "2027-05-31"
    },
    {
      "name": "結カフェ",
      "name_kana": "ユイカフェ",
      "business_type": "① 飲食店営業",
      "address": "佐賀県鳥栖市元町 県内一円",
      "lat": 33.372855,
      "lng": 130.508898,
      "geocoding_level": null,
      "phone": "",
      "license_no": "佐賀県指令３鳥保福第291号",
      "license_date": "2022-03-07",
      "expire_date": "2027-11-30"
    },
    {
      "name": "果汁工房果琳　鳥栖プレミアム・アウトレット店",
      "name_kana": "カジュウコウボウカリン　トスプレミアム・アウトレットテン",
      "business_type": "① 飲食店営業",
      "address": "佐賀県鳥栖市弥生が丘8-1",
      "lat": 33.406797,
      "lng": 130.510726,
      "geocoding_level": null,
      "phone": "0942-81-3313",
      "license_no": "佐賀県指令7鳥保福第151号",
      "license_date": "2025-08-31",
      "expire_date": "2031-08-31"
    },
    {
      "name": "一福",
      "name_kana": "イップク",
      "business_type": "① 飲食店営業",
      "address": "佐賀県鳥栖市元町 県内一円",
      "lat": 33.372855,
      "lng": 130.508898,
      "geocoding_level": null,
      "phone": "",
      "license_no": "佐賀県指令３鳥保福第171号",
      "license_date": "2021-11-30",
      "expire_date": "2026-11-30"
    },
    {
      "name": "佐賀県立鳥栖工業高等学校",
      "name_kana": "サガケンリツトスコウギョウコトウガッコウ",
      "business_type": "① 飲食店営業",
      "address": "佐賀県鳥栖市元町1918番地",
      "lat": 33.373016,
      "lng": 130.50743,
      "geocoding_level": null,
      "phone": "0942-89-4134",
      "license_no": "佐賀県指令5鳥保福第130号",
      "license_date": "2023-08-14",
      "expire_date": "2029-11-30"
    },
    {
      "name": "どんどん亭鳥栖バイパス店",
      "name_kana": "ドンドンテイトスバイパステン",
      "business_type": "① 飲食店営業",
      "address": "佐賀県鳥栖市牛原町514-14",
      "lat": 33.383126,
      "lng": 130.499025,
      "geocoding_level": null,
      "phone": "0942-82-6103",
      "license_no": "佐賀県指令4鳥保福第294号",
      "license_date": "2022-11-30",
      "expire_date": "2028-11-30"
    },
    {
      "name": "バターバトラー鳥栖プレミアムアウトレット催事（3月18日～4月3日）",
      "name_kana": "バターバトラートスプレミアムアウトレットサイジ",
      "business_type": "⑬ その他の食料・飲料販売業",
      "address": "佐賀県鳥栖市弥生が丘8-1 鳥栖プレミアムアウトレット",
      "lat": 33.406797,
      "lng": 130.510726,
      "geocoding_level": null,
      "phone": "0942877370",
      "license_no": "",
      "license_date": null,
      "expire_date": null
    },
    {
      "name": "パナソニックシステムネットワークス株式会社売店前",
      "name_kana": "パナソニックシステムネットワークスカブシキカイシャバイテンマエ",
      "business_type": "② 調理機能を有する自動販売機（要許可）",
      "address": "佐賀県鳥栖市村田町1471 パナソニックシステムネットワークス株式会社",
      "lat": 33.352448,
      "lng": 130.465912,
      "geocoding_level": null,
      "phone": "0942-83-3131",
      "license_no": "佐賀県指令６鳥保福第96号",
      "license_date": "2024-05-31",
      "expire_date": "2030-05-31"
    },
    {
      "name": "ＪＲ鳥栖寮",
      "name_kana": "ジェイアールトスリョウ",
      "business_type": "㉖ 集団給食施設",
      "address": "佐賀県鳥栖市今泉町２６１１－１",
      "lat": 33.36718,
      "lng": 130.515002,
      "geocoding_level": null,
      "phone": "0942-82-2064",
      "license_no": "",
      "license_date": null,
      "expire_date": null
    },
    {
      "name": "母乳畑",
      "name_kana": "ボニュウバタケ",
      "business_type": "⑧ 米穀類販売業",
      "address": "佐賀県鳥栖市下野町2503-2",
      "lat": 33.334019,
      "lng": 130.502836,
      "geocoding_level": null,
      "phone": "090-8390-8210",
      "license_no": "",
      "license_date": null,
      "expire_date": null
    },
    {
      "name": "母乳畑",
      "name_kana": "ボニュウバタケ",
      "business_type": "㉑ 製茶業",
      "address": "佐賀県鳥栖市下野町2503-2",
      "lat": 33.334019,
      "lng": 130.502836,
      "geocoding_level": null,
      "phone": "090-8390-8210",
      "license_no": "",
      "license_date": null,
      "expire_date": null
    },
    {
      "name": "Ａ－プライス鳥栖店",
      "name_kana": "エープライストステン",
      "business_type": "⑪ 百貨店、総合スーパー",
      "address": "佐賀県鳥栖市蔵上４丁目３０６",
      "lat": 33.373437,
      "lng": 130.493572,
      "geocoding_level": null,
      "phone": "0942-87-7171",
      "license_no": "",
      "license_date": null,
      "expire_date": null
    },
    {
      "name": "有限会社アムール1971",
      "name_kana": "アムールイチキュウナナイチ",
      "business_type": "① 飲食店営業",
      "address": "佐賀県鳥栖市京町812番地 駅前不動産スタジアム7号店",
      "lat": 33.372508,
      "lng": 130.520424,
      "geocoding_level": null,
      "phone": "",
      "license_no": "佐賀県指令6鳥保福第443号",
      "license_date": "2025-02-14",
      "expire_date": "2031-02-28"
    },
    {
      "name": "ヒライ　フレスポ鳥栖店",
      "name_kana": "ヒライ　フレスポトステン",
      "business_type": "① 飲食店営業",
      "address": "佐賀県鳥栖市本鳥栖町字下鳥栖537-1",
      "lat": 33.374234,
      "lng": 130.519848,
      "geocoding_level": null,
      "phone": "0942-81-2518",
      "license_no": "佐賀県指令3鳥保福第271号",
      "license_date": "2022-02-28",
      "expire_date": "2028-02-29"
    },
    {
      "name": "ヒライドラッグストアモリ鳥栖村田店",
      "name_kana": "ヒライドラッグストアモリトスムラタテン",
      "business_type": "㉕ そうざい製造業",
      "address": "佐賀県鳥栖市村田町166番地2",
      "lat": 33.354154,
      "lng": 130.485438,
      "geocoding_level": null,
      "phone": "0942-84-6200",
      "license_no": "佐賀県指令4鳥保福 第118号",
      "license_date": "2022-07-22",
      "expire_date": "2029-05-31"
    },
    {
      "name": "ヒライドラッグストアモリ蔵上北店",
      "name_kana": "ヒライドラッグストアモリクラノウエキタテン",
      "business_type": "㉕ そうざい製造業",
      "address": "佐賀県鳥栖市蔵上2丁目270番地",
      "lat": 33.377338,
      "lng": 130.493831,
      "geocoding_level": null,
      "phone": "",
      "license_no": "佐賀県指令5鳥保福第383号",
      "license_date": "2024-01-18",
      "expire_date": "2030-11-30"
    },
    {
      "name": "OK COFFEE Saga Roastery",
      "name_kana": "オッケーコーヒーサガロースタリー",
      "business_type": "① 飲食店営業",
      "address": "佐賀県鳥栖市元町 県内一円",
      "lat": 33.372855,
      "lng": 130.508898,
      "geocoding_level": null,
      "phone": "",
      "license_no": "佐賀県指令5鳥保福　第243号",
      "license_date": "2023-10-31",
      "expire_date": "2028-11-30"
    },
    {
      "name": "deeer",
      "name_kana": "ディア",
      "business_type": "① 飲食店営業",
      "address": "佐賀県鳥栖市京町812番地 駅前不動産スタジアム3号店",
      "lat": 33.372508,
      "lng": 130.520424,
      "geocoding_level": null,
      "phone": "",
      "license_no": "佐賀県指令6鳥保福第444号",
      "license_date": "2025-02-14",
      "expire_date": "2031-02-28"
    },
    {
      "name": "中村学園事業部21950",
      "name_kana": "ナカムラガクエンジギョウブニイチキュウゴゼロ",
      "business_type": "① 飲食店営業",
      "address": "佐賀県鳥栖市酒井西町字榎町669-8 株式会社ニチレイ・ロジスティクス九州　鳥栖物流センター内食堂",
      "lat": 33.361523,
      "lng": 130.531789,
      "geocoding_level": null,
      "phone": "070-3115-1630",
      "license_no": "佐賀県指令3鳥保福第287号",
      "license_date": "2022-02-28",
      "expire_date": "2028-02-29"
    },
    {
      "name": "中村学園事業部20640",
      "name_kana": "ナカムラガクエンジギョウブニゼロロクヨンゾロ",
      "business_type": "① 飲食店営業",
      "address": "佐賀県鳥栖市轟木町1760",
      "lat": 33.367096,
      "lng": 130.500789,
      "geocoding_level": null,
      "phone": "090-6410-4198",
      "license_no": "佐賀県指令5鳥保福第67号",
      "license_date": "2023-05-31",
      "expire_date": "2029-05-31"
    },
    {
      "name": "中村学園事業部21250",
      "name_kana": "ナカムラガクエンジギョウブニイチニゴゼロ",
      "business_type": "① 飲食店営業",
      "address": "佐賀県鳥栖市田代外町701",
      "lat": 33.386515,
      "lng": 130.514449,
      "geocoding_level": null,
      "phone": "0942-83-4527",
      "license_no": "佐賀県指令5鳥保福第148号",
      "license_date": "2023-08-31",
      "expire_date": "2029-08-31"
    },
    {
      "name": "株式会社フレッシュ青果　鳥栖営業所",
      "name_kana": "カブシキガイシャフレッシュセイカトスエイギョウショ",
      "business_type": "⑦ 野菜果物販売業",
      "address": "佐賀県鳥栖市曽根崎町2346-5",
      "lat": 33.37759,
      "lng": 130.526703,
      "geocoding_level": null,
      "phone": "0942-50-5522",
      "license_no": "",
      "license_date": null,
      "expire_date": null
    },
    {
      "name": "イオン九州(株)エクスプレス曽根崎店",
      "name_kana": "イオンキュウシュウカブエクスプレスソネザキテン",
      "business_type": "③ 乳類販売業",
      "address": "佐賀県鳥栖市曽根崎町1641-1",
      "lat": 33.37859,
      "lng": 130.523813,
      "geocoding_level": null,
      "phone": "0942-84-0037",
      "license_no": "",
      "license_date": null,
      "expire_date": null
    },
    {
      "name": "イオン九州(株)エクスプレス曽根崎店",
      "name_kana": "イオンキュウシュウカブエクスプレスソネザキテン",
      "business_type": "⑪ 百貨店、総合スーパー",
      "address": "佐賀県鳥栖市曽根崎町1641-1",
      "lat": 33.37859,
      "lng": 130.523813,
      "geocoding_level": null,
      "phone": "0942-84-0037",
      "license_no": "",
      "license_date": null,
      "expire_date": null
    },
    {
      "name": "株式会社弥生が丘養蜂園",
      "name_kana": "ヤヨイガオカヨウホウエン",
      "business_type": "⑬ その他の食料・飲料販売業",
      "address": "佐賀県鳥栖市弥生が丘7-8",
      "lat": 33.407686,
      "lng": 130.515456,
      "geocoding_level": null,
      "phone": "",
      "license_no": "",
      "license_date": null,
      "expire_date": null
    },
    {
      "name": "もち吉　鳥栖店",
      "name_kana": "モチキチ　トステン",
      "business_type": "⑬ その他の食料・飲料販売業",
      "address": "佐賀県鳥栖市本町3丁目字原口1511",
      "lat": 33.378381,
      "lng": 130.508262,
      "geocoding_level": null,
      "phone": "0942-83-0855",
      "license_no": "",
      "license_date": null,
      "expire_date": null
    },
    {
      "name": "もち吉鳥栖店",
      "name_kana": "モチキチトステン",
      "business_type": "⑪ 菓子製造業",
      "address": "佐賀県鳥栖市本町３丁目字原口1511",
      "lat": 33.378381,
      "lng": 130.508262,
      "geocoding_level": null,
      "phone": "0942-83-0855",
      "license_no": "佐賀県指令6鳥保福第195号",
      "license_date": "2024-08-31",
      "expire_date": "2030-08-31"
    },
    {
      "name": "鳥栖市民文化会館",
      "name_kana": "トスシミンブンカカイカン",
      "business_type": "⑬ その他の食料・飲料販売業",
      "address": "佐賀県鳥栖市宿町８０７－１７",
      "lat": 33.373194,
      "lng": 130.502617,
      "geocoding_level": null,
      "phone": "0942853645",
      "license_no": "",
      "license_date": null,
      "expire_date": null
    },
    {
      "name": "竹乃屋鳥栖店",
      "name_kana": "タケノヤトステン",
      "business_type": "① 飲食店営業",
      "address": "佐賀県鳥栖市本鳥栖町537-1 フレスポ鳥栖敷地内",
      "lat": 33.376884,
      "lng": 130.516509,
      "geocoding_level": null,
      "phone": "0942-87-9477",
      "license_no": "佐賀県指令４鳥保福 第482号",
      "license_date": "2023-02-28",
      "expire_date": "2029-02-28"
    },
    {
      "name": "ザ・ビッグ鳥栖蔵上店",
      "name_kana": "ザ・ビッグトスクラノウエテン",
      "business_type": "③ 乳類販売業",
      "address": "佐賀県鳥栖市蔵上町4丁目3-3",
      "lat": 33.368128,
      "lng": 130.495541,
      "geocoding_level": null,
      "phone": "0942-81-5678",
      "license_no": "",
      "license_date": null,
      "expire_date": null
    },
    {
      "name": "ザ・ビッグ鳥栖蔵上店",
      "name_kana": "ザ・ビッグトスクラノウエテン",
      "business_type": "⑪ 百貨店、総合スーパー",
      "address": "佐賀県鳥栖市蔵上町4丁目3-3",
      "lat": 33.368128,
      "lng": 130.495541,
      "geocoding_level": null,
      "phone": "0942-81-5678",
      "license_no": "",
      "license_date": null,
      "expire_date": null
    },
    {
      "name": "ザ・ビッグ鳥栖蔵上店",
      "name_kana": "ザ・ビッグトスクラノウエテン",
      "business_type": "⑫ 自動販売機による販売業（コップ式自動販売機（自動洗浄・屋内設置）及び営業許可の対象となる自動販売機を除く）",
      "address": "佐賀県鳥栖市蔵上町4丁目3-3",
      "lat": 33.368128,
      "lng": 130.495541,
      "geocoding_level": null,
      "phone": "0942-81-5678",
      "license_no": "",
      "license_date": null,
      "expire_date": null
    },
    {
      "name": "ザ・ビッグ鳥栖店",
      "name_kana": "ザ・ビッグトステン",
      "business_type": "③ 乳類販売業",
      "address": "佐賀県鳥栖市宿町1156番地1号",
      "lat": 33.378998,
      "lng": 130.50389,
      "geocoding_level": null,
      "phone": "0942-81-3882",
      "license_no": "",
      "license_date": null,
      "expire_date": null
    },
    {
      "name": "ザ・ビッグ鳥栖店",
      "name_kana": "ザ・ビッグトステン",
      "business_type": "⑪ 百貨店、総合スーパー",
      "address": "佐賀県鳥栖市宿町1156番地1号",
      "lat": 33.378998,
      "lng": 130.50389,
      "geocoding_level": null,
      "phone": "0942-81-3882",
      "license_no": "",
      "license_date": null,
      "expire_date": null
    },
    {
      "name": "ザ・ビッグ鳥栖店",
      "name_kana": "ザ・ビッグトステン",
      "business_type": "⑫ 自動販売機による販売業（コップ式自動販売機（自動洗浄・屋内設置）及び営業許可の対象となる自動販売機を除く）",
      "address": "佐賀県鳥栖市宿町1156番地1号",
      "lat": 33.378998,
      "lng": 130.50389,
      "geocoding_level": null,
      "phone": "0942-81-3882",
      "license_no": "",
      "license_date": null,
      "expire_date": null
    },
    {
      "name": "最上鮮魚　サンリブ鳥栖店",
      "name_kana": "モガミセンギョ　サンリブトステン",
      "business_type": "① 飲食店営業",
      "address": "佐賀県鳥栖市本鳥栖町537-1",
      "lat": 33.375948,
      "lng": 130.517308,
      "geocoding_level": null,
      "phone": "0942843417",
      "license_no": "佐賀県指令5鳥保福第443号",
      "license_date": "2024-02-29",
      "expire_date": "2030-02-28"
    },
    {
      "name": "最上鮮魚　サンリブ鳥栖店",
      "name_kana": "モガミセンギョ　サンリブトステン",
      "business_type": "④ 魚介類販売業",
      "address": "佐賀県鳥栖市本鳥栖町537-1",
      "lat": 33.375948,
      "lng": 130.517308,
      "geocoding_level": null,
      "phone": "0942843417",
      "license_no": "佐賀県指令5鳥保福第442号",
      "license_date": "2024-02-29",
      "expire_date": "2030-02-28"
    },
    {
      "name": "最上鮮魚　サンリブ鳥栖店",
      "name_kana": "モガミセンギョ　サンリブトステン",
      "business_type": "⑬ その他の食料・飲料販売業",
      "address": "佐賀県鳥栖市本鳥栖町537-1",
      "lat": 33.375948,
      "lng": 130.517308,
      "geocoding_level": null,
      "phone": "0942843417",
      "license_no": "",
      "license_date": null,
      "expire_date": null
    },
    {
      "name": "株式会社丸福鳥栖店",
      "name_kana": "カブシキガイシャマルフクトステン",
      "business_type": "① 飲食店営業",
      "address": "佐賀県鳥栖市古賀町311",
      "lat": 33.388923,
      "lng": 130.499485,
      "geocoding_level": null,
      "phone": "0942-83-2320",
      "license_no": "佐賀県指令6鳥保福第162号",
      "license_date": "2024-08-31",
      "expire_date": "2030-08-31"
    },
    {
      "name": "株式会社丸福鳥栖店",
      "name_kana": "カブシキガイシャマルフクトステン",
      "business_type": "④ 魚介類販売業",
      "address": "佐賀県鳥栖市古賀町311",
      "lat": 33.388923,
      "lng": 130.499485,
      "geocoding_level": null,
      "phone": "0942-83-2320",
      "license_no": "佐賀県指令6鳥保福第163号",
      "license_date": "2024-08-31",
      "expire_date": "2030-08-31"
    },
    {
      "name": "株式会社高砂屋",
      "name_kana": "カブシキガイシャタカサゴヤ",
      "business_type": "⑪ 菓子製造業",
      "address": "佐賀県鳥栖市藤木町字若桜9番地の7 株式会社森光商店内",
      "lat": 35.34019,
      "lng": 134.400976,
      "geocoding_level": null,
      "phone": "0942-84-1231",
      "license_no": "佐賀県指令3鳥保福第53号",
      "license_date": "2021-06-01",
      "expire_date": "2027-05-31"
    },
    {
      "name": "ウエストケータリング",
      "name_kana": "ウエストケータリング",
      "business_type": "① 飲食店営業",
      "address": "佐賀県鳥栖市元町 県内一円",
      "lat": 33.372855,
      "lng": 130.508898,
      "geocoding_level": null,
      "phone": "",
      "license_no": "佐賀県指令３鳥保福第172号",
      "license_date": "2021-11-30",
      "expire_date": "2026-11-30"
    },
    {
      "name": "（株）ウエストケータリング",
      "name_kana": "カブシキガイシャウエストケータリング",
      "business_type": "① 飲食店営業",
      "address": "佐賀県鳥栖市元町 県内一円",
      "lat": 33.372855,
      "lng": 130.508898,
      "geocoding_level": null,
      "phone": "",
      "license_no": "佐賀県指令4鳥保福第333号",
      "license_date": "2022-11-30",
      "expire_date": "2027-11-30"
    },
    {
      "name": "㈱EverFood　テストキッチン",
      "name_kana": "カブシキガイシャ　エバーフード　テストキッチン",
      "business_type": "⑨ 通信販売・訪問販売による販売業",
      "address": "佐賀県鳥栖市元町1246-3",
      "lat": 33.373436,
      "lng": 130.510687,
      "geocoding_level": null,
      "phone": "0942-87-3045",
      "license_no": "",
      "license_date": null,
      "expire_date": null
    },
    {
      "name": "㈱EverFood　テストキッチン",
      "name_kana": "カブシキガイシャ　エバーフード　テストキッチン",
      "business_type": "② 食肉販売業（包装済みの食肉のみの販売）",
      "address": "佐賀県鳥栖市元町1246-3",
      "lat": 33.373436,
      "lng": 130.510687,
      "geocoding_level": null,
      "phone": "0942-87-3045",
      "license_no": "",
      "license_date": null,
      "expire_date": null
    },
    {
      "name": "㈱EverFood　テストキッチン",
      "name_kana": "カブシキガイシャ　エバーフード　テストキッチン",
      "business_type": "① 魚介類販売業（包装済みの魚介類のみの販売）",
      "address": "佐賀県鳥栖市元町1246-3",
      "lat": 33.373436,
      "lng": 130.510687,
      "geocoding_level": null,
      "phone": "0942-87-3045",
      "license_no": "",
      "license_date": null,
      "expire_date": null
    },
    {
      "name": "㈱EverFood　テストキッチン",
      "name_kana": "カブシキガイシャ　エバーフード　テストキッチン",
      "business_type": "⑥ 弁当販売業",
      "address": "佐賀県鳥栖市元町1246‐3",
      "lat": 33.373436,
      "lng": 130.510687,
      "geocoding_level": null,
      "phone": "0942873045",
      "license_no": "",
      "license_date": null,
      "expire_date": null
    },
    {
      "name": "㈱EverFood　テストキッチン",
      "name_kana": "カブシキガイシャ　エバーフード　テストキッチン",
      "business_type": "⑬ その他の食料・飲料販売業",
      "address": "佐賀県鳥栖市元町1246‐3",
      "lat": 33.373436,
      "lng": 130.510687,
      "geocoding_level": null,
      "phone": "0942873045",
      "license_no": "",
      "license_date": null,
      "expire_date": null
    },
    {
      "name": "㈱EverFood　テストキッチン",
      "name_kana": "カブシキガイシャ　エバーフード　テストキッチン",
      "business_type": "⑱ 調味料製造・加工業",
      "address": "佐賀県鳥栖市元町1246‐3",
      "lat": 33.373436,
      "lng": 130.510687,
      "geocoding_level": null,
      "phone": "0942873045",
      "license_no": "",
      "license_date": null,
      "expire_date": null
    },
    {
      "name": "有限会社ガーラジャパン",
      "name_kana": "ユウゲンガイシャガーラジャパン",
      "business_type": "⑨ 通信販売・訪問販売による販売業",
      "address": "佐賀県鳥栖市弥生が丘4-175-1",
      "lat": 33.407845,
      "lng": 130.520173,
      "geocoding_level": null,
      "phone": "0942-50-9610",
      "license_no": "",
      "license_date": null,
      "expire_date": null
    },
    {
      "name": "有限会社ガーラジャパン",
      "name_kana": "ユウゲンガイシャガーラジャパン",
      "business_type": "㉑ 製茶業",
      "address": "佐賀県鳥栖市弥生が丘4-175-1",
      "lat": 33.407845,
      "lng": 130.520173,
      "geocoding_level": null,
      "phone": "0942-50-9610",
      "license_no": "",
      "license_date": null,
      "expire_date": null
    },
    {
      "name": "ピエトロ鳥栖プレミアムアウトレット店",
      "name_kana": "ピエトロトスプレミアムアウトレットテン",
      "business_type": "① 飲食店営業",
      "address": "佐賀県鳥栖市弥生が丘8-1 鳥栖プレミアムアウトレット内",
      "lat": 33.406797,
      "lng": 130.510726,
      "geocoding_level": null,
      "phone": "0942-87-7300",
      "license_no": "佐賀県指令３鳥保福第83号",
      "license_date": "2021-08-31",
      "expire_date": "2027-08-31"
    },
    {
      "name": "マックスバリュ鳥栖村田店",
      "name_kana": "マックスバリュトスムラタテン",
      "business_type": "③ 乳類販売業",
      "address": "佐賀県鳥栖市村田町７０１－１",
      "lat": 33.356988,
      "lng": 130.482261,
      "geocoding_level": null,
      "phone": "0942-87-4848",
      "license_no": "",
      "license_date": null,
      "expire_date": null
    },
    {
      "name": "マックスバリュ鳥栖村田店",
      "name_kana": "マックスバリュトスムラタテン",
      "business_type": "⑪ 百貨店、総合スーパー",
      "address": "佐賀県鳥栖市村田町７０１－１",
      "lat": 33.356988,
      "lng": 130.482261,
      "geocoding_level": null,
      "phone": "0942-87-4848",
      "license_no": "",
      "license_date": null,
      "expire_date": null
    },
    {
      "name": "マックスバリュ鳥栖村田店",
      "name_kana": "マックスバリュトスムラタテン",
      "business_type": "⑫ 自動販売機による販売業（コップ式自動販売機（自動洗浄・屋内設置）及び営業許可の対象となる自動販売機を除く）",
      "address": "佐賀県鳥栖市村田町７０１－１",
      "lat": 33.356988,
      "lng": 130.482261,
      "geocoding_level": null,
      "phone": "0942-87-4848",
      "license_no": "",
      "license_date": null,
      "expire_date": null
    },
    {
      "name": "マックスバリュエクスプレス曽根崎店",
      "name_kana": "マックスバリュエクスプレスソネザキテン",
      "business_type": "① 飲食店営業",
      "address": "佐賀県鳥栖市曽根崎町1641-1",
      "lat": 33.37859,
      "lng": 130.523813,
      "geocoding_level": null,
      "phone": "0942-84-0037",
      "license_no": "佐賀県指令6鳥保福第457号",
      "license_date": "2025-02-28",
      "expire_date": "2031-02-28"
    },
    {
      "name": "マックスバリュエクスプレス曽根崎店",
      "name_kana": "マックスバリュエクスプレスソネザキテン",
      "business_type": "⑪ 菓子製造業",
      "address": "佐賀県鳥栖市曽根崎町1641-1",
      "lat": 33.37859,
      "lng": 130.523813,
      "geocoding_level": null,
      "phone": "0942-84-0037",
      "license_no": "佐賀県指令6鳥保福第458号",
      "license_date": "2025-02-28",
      "expire_date": "2031-02-28"
    },
    {
      "name": "マックスバリュ鳥栖村田店",
      "name_kana": "マックスバリュトスムラタテン",
      "business_type": "① 飲食店営業",
      "address": "佐賀県鳥栖市村田町701-1",
      "lat": 33.356988,
      "lng": 130.482261,
      "geocoding_level": null,
      "phone": "0942874848",
      "license_no": "佐賀県指令7鳥保福第54号",
      "license_date": "2025-05-31",
      "expire_date": "2031-05-31"
    },
    {
      "name": "マックスバリュ鳥栖村田店",
      "name_kana": "マックスバリュトスムラタテン",
      "business_type": "③ 食肉販売業",
      "address": "佐賀県鳥栖市村田町701-1",
      "lat": 33.356988,
      "lng": 130.482261,
      "geocoding_level": null,
      "phone": "0942874848",
      "license_no": "佐賀県指令7鳥保福第55号",
      "license_date": "2025-05-31",
      "expire_date": "2031-05-31"
    },
    {
      "name": "マックスバリュ鳥栖村田店",
      "name_kana": "マックスバリュトスムラタテン",
      "business_type": "④ 魚介類販売業",
      "address": "佐賀県鳥栖市村田町701-1",
      "lat": 33.356988,
      "lng": 130.482261,
      "geocoding_level": null,
      "phone": "0942874848",
      "license_no": "佐賀県指令7鳥保福第56号",
      "license_date": "2025-05-31",
      "expire_date": "2031-05-31"
    },
    {
      "name": "マックスバリュ鳥栖村田店",
      "name_kana": "マックスバリュトスムラタテン",
      "business_type": "⑪ 菓子製造業",
      "address": "佐賀県鳥栖市村田町701-1",
      "lat": 33.356988,
      "lng": 130.482261,
      "geocoding_level": null,
      "phone": "0942874848",
      "license_no": "佐賀県指令7鳥保福第57号",
      "license_date": "2025-05-31",
      "expire_date": "2031-05-31"
    },
    {
      "name": "フレンド・カンパニー",
      "name_kana": "フレンド　カンパニー",
      "business_type": "① 飲食店営業",
      "address": "佐賀県鳥栖市県内一円",
      "lat": 33.377879,
      "lng": 130.506243,
      "geocoding_level": null,
      "phone": "090-8666-1759",
      "license_no": "佐賀県指令6鳥保福第343号",
      "license_date": "2024-11-30",
      "expire_date": "2029-11-30"
    },
    {
      "name": "Cafe & Gift MIYAKIYA",
      "name_kana": "カフェアンドギフトミヤキヤ",
      "business_type": "① 飲食店営業",
      "address": "佐賀県鳥栖市元町 県内一円",
      "lat": 33.372855,
      "lng": 130.508898,
      "geocoding_level": null,
      "phone": "",
      "license_no": "佐賀県指令3鳥保福第293号",
      "license_date": "2022-03-04",
      "expire_date": "2027-11-30"
    },
    {
      "name": "麓刑務所",
      "name_kana": "フモトケイムショ",
      "business_type": "㉖ 集団給食施設",
      "address": "佐賀県鳥栖市山浦町2635",
      "lat": 33.378641,
      "lng": 130.489349,
      "geocoding_level": null,
      "phone": "0942-82-2121",
      "license_no": "",
      "license_date": null,
      "expire_date": null
    },
    {
      "name": "（有）阿蘇天然アイス",
      "name_kana": "ユウアソテンテンアイス",
      "business_type": "① 飲食店営業",
      "address": "佐賀県鳥栖市県内一円",
      "lat": 33.377879,
      "lng": 130.506243,
      "geocoding_level": null,
      "phone": "",
      "license_no": "佐賀県指令6鳥保福第505号",
      "license_date": "2025-03-14",
      "expire_date": "2030-11-30"
    },
    {
      "name": "paul",
      "name_kana": "ポール",
      "business_type": "⑪ 菓子製造業",
      "address": "佐賀県鳥栖市西新町1422-137",
      "lat": 33.353103,
      "lng": 130.469356,
      "geocoding_level": null,
      "phone": "090-5947-4163",
      "license_no": "佐賀県指令3鳥保福第7号",
      "license_date": "2021-06-17",
      "expire_date": "2028-05-31"
    },
    {
      "name": "paul",
      "name_kana": "ポール",
      "business_type": "⑬ その他の食料・飲料販売業",
      "address": "佐賀県鳥栖市県内一円",
      "lat": 33.377879,
      "lng": 130.506243,
      "geocoding_level": null,
      "phone": "",
      "license_no": "",
      "license_date": null,
      "expire_date": null
    },
    {
      "name": "BELLE CURRY",
      "name_kana": "ベル　カレー",
      "business_type": "① 飲食店営業",
      "address": "佐賀県鳥栖市元町 県内一円",
      "lat": 33.372855,
      "lng": 130.508898,
      "geocoding_level": null,
      "phone": "",
      "license_no": "佐賀県指令5鳥保福第404号",
      "license_date": "2024-02-09",
      "expire_date": "2029-11-30"
    },
    {
      "name": "あんくるふじや鳥栖店",
      "name_kana": "アンクルフジヤトステン",
      "business_type": "⑪ 百貨店、総合スーパー",
      "address": "佐賀県鳥栖市宿町門戸口1422-1",
      "lat": 33.376847,
      "lng": 130.503345,
      "geocoding_level": null,
      "phone": "0942-81-5530",
      "license_no": "",
      "license_date": null,
      "expire_date": null
    },
    {
      "name": "あんくる夢市場弥生が丘店",
      "name_kana": "アンクルユメイチバヤヨイガオカテン",
      "business_type": "④ 魚介類販売業",
      "address": "佐賀県鳥栖市弥生が丘1-36",
      "lat": 33.403671,
      "lng": 130.526459,
      "geocoding_level": null,
      "phone": "0942-87-4011",
      "license_no": "佐賀県指令6鳥保福第189号",
      "license_date": "2024-08-31",
      "expire_date": "2030-08-31"
    },
    {
      "name": "あんくる夢市場弥生が丘店",
      "name_kana": "アンクルユメイチバヤヨイガオカテン",
      "business_type": "⑪ 百貨店、総合スーパー",
      "address": "佐賀県鳥栖市弥生が丘1-36",
      "lat": 33.403671,
      "lng": 130.526459,
      "geocoding_level": null,
      "phone": "0942-87-4011",
      "license_no": "",
      "license_date": null,
      "expire_date": null
    },
    {
      "name": "あんくる夢市場弥生が丘店",
      "name_kana": "アンクルユメイチバヤヨイガオカテン",
      "business_type": "① 飲食店営業",
      "address": "佐賀県鳥栖市弥生が丘1-36",
      "lat": 33.403671,
      "lng": 130.526459,
      "geocoding_level": null,
      "phone": "0942-87-4011",
      "license_no": "佐賀県指令6鳥保福第190号",
      "license_date": "2024-08-31",
      "expire_date": "2030-08-31"
    },
    {
      "name": "あんくるふじや弥生が丘店",
      "name_kana": "アンクルフジヤヤヨイガオカテン",
      "business_type": "⑪ 百貨店、総合スーパー",
      "address": "佐賀県鳥栖市弥生が丘1丁目36-2",
      "lat": 33.40406,
      "lng": 130.526502,
      "geocoding_level": null,
      "phone": "0942-87-3500",
      "license_no": "",
      "license_date": null,
      "expire_date": null
    },
    {
      "name": "あんくる夢市場弥生が丘店",
      "name_kana": "アンクルユメイチバヤヨイガオカテン",
      "business_type": "③ 食肉販売業",
      "address": "佐賀県鳥栖市弥生が丘1-36",
      "lat": 33.403671,
      "lng": 130.526459,
      "geocoding_level": null,
      "phone": "0942-87-4011",
      "license_no": "佐賀県指令6鳥保福第191号",
      "license_date": "2024-08-31",
      "expire_date": "2030-08-31"
    },
    {
      "name": "元町珈琲うふふ",
      "name_kana": "モトマチコーヒーウフフ",
      "business_type": "① 飲食店営業",
      "address": "佐賀県鳥栖市元町1348-2",
      "lat": 33.375153,
      "lng": 130.507394,
      "geocoding_level": null,
      "phone": "0942830007",
      "license_no": "佐賀県指令5鳥保福第323号",
      "license_date": "2023-11-30",
      "expire_date": "2029-11-30"
    },
    {
      "name": "魚平",
      "name_kana": "ウオヘイ",
      "business_type": "① 飲食店営業",
      "address": "佐賀県鳥栖市京町790-1 緒方ビル1F",
      "lat": 33.373943,
      "lng": 130.518064,
      "geocoding_level": null,
      "phone": "",
      "license_no": "佐賀県指令6鳥保福第459号",
      "license_date": "2025-02-28",
      "expire_date": "2031-02-28"
    },
    {
      "name": "SHRIMP MOANI",
      "name_kana": "シュリンプ　モアニ",
      "business_type": "① 飲食店営業",
      "address": "佐賀県鳥栖市元町 佐賀県内一円",
      "lat": 33.372855,
      "lng": 130.508898,
      "geocoding_level": null,
      "phone": "",
      "license_no": "佐賀県指令5鳥保福第79号",
      "license_date": "2023-06-16",
      "expire_date": "2028-11-30"
    },
    {
      "name": "鳥栖の店",
      "name_kana": "トスノミセ",
      "business_type": "② 食肉販売業（包装済みの食肉のみの販売）",
      "address": "佐賀県鳥栖市本鳥栖町537-1",
      "lat": 33.375891,
      "lng": 130.516847,
      "geocoding_level": null,
      "phone": "0942-84-8991",
      "license_no": "",
      "license_date": null,
      "expire_date": null
    },
    {
      "name": "むさしの森珈琲 鳥栖古賀町店",
      "name_kana": "ムサシノモリコーヒートスコガマチテン",
      "business_type": "① 飲食店営業",
      "address": "佐賀県鳥栖市古賀町５２５－１",
      "lat": 33.384159,
      "lng": 130.499795,
      "geocoding_level": null,
      "phone": "0942-87-5030",
      "license_no": "佐賀県指令6鳥保福第192号",
      "license_date": "2024-08-31",
      "expire_date": "2030-08-31"
    },
    {
      "name": "むさしの森珈琲 鳥栖古賀町店",
      "name_kana": "ムサシノモリコーヒートスコガマチテン",
      "business_type": "⑬ その他の食料・飲料販売業",
      "address": "佐賀県鳥栖市古賀町５２５－１",
      "lat": 33.384159,
      "lng": 130.499795,
      "geocoding_level": null,
      "phone": "0942-87-5030",
      "license_no": "",
      "license_date": null,
      "expire_date": null
    },
    {
      "name": "しゃぶ葉 鳥栖店",
      "name_kana": "シャブヨウトステン",
      "business_type": "⑬ その他の食料・飲料販売業",
      "address": "佐賀県鳥栖市蔵上２丁目１１３",
      "lat": 33.374482,
      "lng": 130.498442,
      "geocoding_level": null,
      "phone": "0942-81-2585",
      "license_no": "",
      "license_date": null,
      "expire_date": null
    },
    {
      "name": "しゃぶ葉鳥栖店",
      "name_kana": "シャブヨウトステン",
      "business_type": "① 飲食店営業",
      "address": "佐賀県鳥栖市蔵上2丁目113",
      "lat": 33.374482,
      "lng": 130.498442,
      "geocoding_level": null,
      "phone": "0942-81-2585",
      "license_no": "佐賀県指令4鳥保福第298号",
      "license_date": "2022-11-30",
      "expire_date": "2028-11-30"
    },
    {
      "name": "イーティーズ鳥栖店",
      "name_kana": "イーティーズトステン",
      "business_type": "① 飲食店営業",
      "address": "佐賀県鳥栖市田代大官町832番地２ ダイレックス鳥栖店内",
      "lat": 33.390211,
      "lng": 130.51677,
      "geocoding_level": null,
      "phone": "",
      "license_no": "佐賀県指令３鳥保福第305号",
      "license_date": "2022-03-22",
      "expire_date": "2028-08-31"
    },
    {
      "name": "ライフガーデン鳥栖店",
      "name_kana": "ライフガーデントステン",
      "business_type": "① 飲食店営業",
      "address": "佐賀県鳥栖市轟木町1173番地",
      "lat": 33.36359,
      "lng": 130.503696,
      "geocoding_level": null,
      "phone": "0942-50-5531",
      "license_no": "佐賀県指令４鳥保福 第50号",
      "license_date": "2022-05-31",
      "expire_date": "2028-05-31"
    },
    {
      "name": "soda stand Shuwa Shuwa",
      "name_kana": "ソーダ　スタンド　シュワ　シュワ",
      "business_type": "① 飲食店営業",
      "address": "佐賀県鳥栖市県内一円",
      "lat": 33.377879,
      "lng": 130.506243,
      "geocoding_level": null,
      "phone": "",
      "license_no": "佐賀県指令5鳥保福第207号",
      "license_date": "2023-09-26",
      "expire_date": "2028-11-30"
    },
    {
      "name": "博多とよ唐亭　鳥栖店",
      "name_kana": "ハカタトヨカラテイトステン",
      "business_type": "① 飲食店営業",
      "address": "佐賀県鳥栖市田代大官町840-1",
      "lat": 33.390577,
      "lng": 130.516545,
      "geocoding_level": null,
      "phone": "0942-85-7888",
      "license_no": "佐賀県指令6鳥保福第196号",
      "license_date": "2024-08-31",
      "expire_date": "2030-08-31"
    },
    {
      "name": "カジノキ",
      "name_kana": "カジノキ",
      "business_type": "① 飲食店営業",
      "address": "佐賀県鳥栖市元町 県内一円",
      "lat": 33.372855,
      "lng": 130.508898,
      "geocoding_level": null,
      "phone": "",
      "license_no": "佐賀県指令3鳥保福第6号",
      "license_date": "2021-06-09",
      "expire_date": "2026-11-30"
    },
    {
      "name": "岩田産業株式會社　鳥栖支店",
      "name_kana": "イワタサンギョウカブシキガイシャ　トスシテン",
      "business_type": "① 魚介類販売業（包装済みの魚介類のみの販売）",
      "address": "佐賀県鳥栖市原町松尾939-3 岩田産業株式會社　鳥栖支店",
      "lat": 33.383625,
      "lng": 130.529246,
      "geocoding_level": null,
      "phone": "0942-50-5228",
      "license_no": "",
      "license_date": null,
      "expire_date": null
    },
    {
      "name": "岩田産業株式會社　鳥栖支店",
      "name_kana": "イワタサンギョウカブシキガイシャ　トスシテン",
      "business_type": "② 食肉販売業（包装済みの食肉のみの販売）",
      "address": "佐賀県鳥栖市原町松尾939-3 岩田産業株式會社　鳥栖支店",
      "lat": 33.383625,
      "lng": 130.529246,
      "geocoding_level": null,
      "phone": "0942-50-5228",
      "license_no": "",
      "license_date": null,
      "expire_date": null
    },
    {
      "name": "岩田産業株式會社　鳥栖支店",
      "name_kana": "イワタサンギョウカブシキガイシャ　トスシテン",
      "business_type": "③ 乳類販売業",
      "address": "佐賀県鳥栖市原町松尾939-3 岩田産業株式會社　鳥栖支店",
      "lat": 33.383625,
      "lng": 130.529246,
      "geocoding_level": null,
      "phone": "0942-50-5228",
      "license_no": "",
      "license_date": null,
      "expire_date": null
    },
    {
      "name": "ほっともっと鳥栖宿町店",
      "name_kana": "ホットモットトスシュクマチテン",
      "business_type": "① 飲食店営業",
      "address": "佐賀県鳥栖市宿町字船底1253-1",
      "lat": 33.374852,
      "lng": 130.50381,
      "geocoding_level": null,
      "phone": "0942-85-1931",
      "license_no": "佐賀県指令6鳥保福第240号",
      "license_date": "2024-09-20",
      "expire_date": "2030-11-30"
    },
    {
      "name": "上弦ノ月",
      "name_kana": "ジョウゲンノツキ",
      "business_type": "① 飲食店営業",
      "address": "佐賀県鳥栖市県内一円",
      "lat": 33.377879,
      "lng": 130.506243,
      "geocoding_level": null,
      "phone": "",
      "license_no": "佐賀県指令7鳥保福第300号",
      "license_date": "2025-11-19",
      "expire_date": "2030-11-30"
    },
    {
      "name": "サーティーワン　フレスポ鳥栖店",
      "name_kana": "サーティーワン　フレスポトステン",
      "business_type": "① 飲食店営業",
      "address": "佐賀県鳥栖市本鳥栖町537-1",
      "lat": 33.377161,
      "lng": 130.516271,
      "geocoding_level": null,
      "phone": "0942-83-8048",
      "license_no": "佐賀県指令3鳥保福第272号",
      "license_date": "2022-02-28",
      "expire_date": "2028-02-29"
    },
    {
      "name": "久世福商店 鳥栖プレミアムアウトレット店",
      "name_kana": "クゼフクショウテン トスプレミアムアウトレットテン",
      "business_type": "⑬ その他の食料・飲料販売業",
      "address": "佐賀県鳥栖市弥生が丘8-1",
      "lat": 33.40545,
      "lng": 130.512197,
      "geocoding_level": null,
      "phone": "0942-85-7600",
      "license_no": "",
      "license_date": null,
      "expire_date": null
    },
    {
      "name": "Jumplum Kitchen",
      "name_kana": "ジャンプラムキッチン",
      "business_type": "① 飲食店営業",
      "address": "佐賀県鳥栖市県内一円",
      "lat": 33.377879,
      "lng": 130.506243,
      "geocoding_level": null,
      "phone": "",
      "license_no": "佐賀県指令8鳥保福第29号",
      "license_date": "2026-05-13",
      "expire_date": "2031-11-30"
    },
    {
      "name": "サニー鳥栖",
      "name_kana": "サニートス",
      "business_type": "⑪ 百貨店、総合スーパー",
      "address": "佐賀県鳥栖市元町字横田1248番地1",
      "lat": 33.372855,
      "lng": 130.508898,
      "geocoding_level": null,
      "phone": "0942-83-3733",
      "license_no": "",
      "license_date": null,
      "expire_date": null
    },
    {
      "name": "サニー鳥栖",
      "name_kana": "サニートス",
      "business_type": "④ 魚介類販売業",
      "address": "佐賀県鳥栖市元町1248-1",
      "lat": 33.374015,
      "lng": 130.509708,
      "geocoding_level": null,
      "phone": "0942-83-3733",
      "license_no": "佐賀県指令３鳥保福第180号",
      "license_date": "2021-11-30",
      "expire_date": "2027-11-30"
    },
    {
      "name": "株式会社　九食　鳥栖第一工場",
      "name_kana": "カブシキカイシャ　キュウショク　トスダイイチコウジョウ",
      "business_type": "② 食肉販売業（包装済みの食肉のみの販売）",
      "address": "佐賀県鳥栖市田代大官町764",
      "lat": 33.388344,
      "lng": 130.514984,
      "geocoding_level": null,
      "phone": "0942-82-8416",
      "license_no": "",
      "license_date": null,
      "expire_date": null
    },
    {
      "name": "あご出汁おでんと炉端焼き　参寅",
      "name_kana": "アゴダシオデントロバタヤキ　サントラ",
      "business_type": "① 飲食店営業",
      "address": "佐賀県鳥栖市本通町1-812",
      "lat": 33.373804,
      "lng": 130.515396,
      "geocoding_level": null,
      "phone": "0942-50-5815",
      "license_no": "佐賀県指令5鳥保福第85号",
      "license_date": "2023-06-27",
      "expire_date": "2029-11-30"
    },
    {
      "name": "Teppan dining HAREMA",
      "name_kana": "テッパンダイニングハレマ",
      "business_type": "⑪ 菓子製造業",
      "address": "佐賀県鳥栖市本通町1丁目810-23　１F",
      "lat": 33.373973,
      "lng": 130.516473,
      "geocoding_level": null,
      "phone": "0942-87-5688",
      "license_no": "佐賀県指令3鳥保福第12号",
      "license_date": "2021-06-18",
      "expire_date": "2027-11-30"
    },
    {
      "name": "ファミリーマートＪＲ鳥栖駅店",
      "name_kana": "ファミリーマートジェイアールトスエキテン",
      "business_type": "⑩ コンビニエンスストア",
      "address": "佐賀県鳥栖市京町709番地",
      "lat": 33.374088,
      "lng": 130.519469,
      "geocoding_level": null,
      "phone": "0942-87-4055",
      "license_no": "",
      "license_date": null,
      "expire_date": null
    },
    {
      "name": "ファミリーマートＪＲ新鳥栖駅店",
      "name_kana": "ファミリーマートジェイアールシントスエキテン",
      "business_type": "⑩ コンビニエンスストア",
      "address": "佐賀県鳥栖市原古賀町一本松２１９－３",
      "lat": 33.371459,
      "lng": 130.488543,
      "geocoding_level": null,
      "phone": "0942-87-4060",
      "license_no": "",
      "license_date": null,
      "expire_date": null
    },
    {
      "name": "ファミリーマートJR新鳥栖駅店",
      "name_kana": "ファミリーマートジェーアールシントスエキテン",
      "business_type": "① 飲食店営業",
      "address": "佐賀県鳥栖市原古賀町一本松219-3",
      "lat": 33.371459,
      "lng": 130.488543,
      "geocoding_level": null,
      "phone": "0942-87-4060",
      "license_no": "佐賀県指令5鳥保福第318号",
      "license_date": "2023-11-30",
      "expire_date": "2029-11-30"
    },
    {
      "name": "ファミリーマートJR新鳥栖駅店",
      "name_kana": "ファミリーマートジェーアールシントスエキテン",
      "business_type": "① 魚介類販売業（包装済みの魚介類のみの販売）",
      "address": "佐賀県鳥栖市原古賀町一本松219-3",
      "lat": 33.371459,
      "lng": 130.488543,
      "geocoding_level": null,
      "phone": "0942-87-4060",
      "license_no": "",
      "license_date": null,
      "expire_date": null
    },
    {
      "name": "ファミリーマートJR新鳥栖駅店",
      "name_kana": "ファミリーマートジェーアールシントスエキテン",
      "business_type": "② 食肉販売業（包装済みの食肉のみの販売）",
      "address": "佐賀県鳥栖市原古賀町一本松219-3",
      "lat": 33.371459,
      "lng": 130.488543,
      "geocoding_level": null,
      "phone": "0942-87-4060",
      "license_no": "",
      "license_date": null,
      "expire_date": null
    },
    {
      "name": "ファミリーマートJR新鳥栖駅店",
      "name_kana": "ファミリーマートジェーアールシントスエキテン",
      "business_type": "③ 乳類販売業",
      "address": "佐賀県鳥栖市原古賀町一本松219-3",
      "lat": 33.371459,
      "lng": 130.488543,
      "geocoding_level": null,
      "phone": "0942-87-4060",
      "license_no": "",
      "license_date": null,
      "expire_date": null
    },
    {
      "name": "ファミリーマートJR新鳥栖駅店",
      "name_kana": "ファミリーマートジェーアールシントスエキテン",
      "business_type": "⑩ コンビニエンスストア",
      "address": "佐賀県鳥栖市原古賀町一本松219-3",
      "lat": 33.371459,
      "lng": 130.488543,
      "geocoding_level": null,
      "phone": "0942-87-4060",
      "license_no": "",
      "license_date": null,
      "expire_date": null
    },
    {
      "name": "菓匠将満",
      "name_kana": "カショウマサミツ",
      "business_type": "⑬ その他の食料・飲料販売業",
      "address": "佐賀県鳥栖市本鳥栖町537 フレスポ鳥栖 1階催事場",
      "lat": 33.376717,
      "lng": 130.518701,
      "geocoding_level": null,
      "phone": "0942842100",
      "license_no": "",
      "license_date": null,
      "expire_date": null
    },
    {
      "name": "ひなっ子",
      "name_kana": "ヒナッコ",
      "business_type": "① 飲食店営業",
      "address": "佐賀県鳥栖市京町722-25 京町ビル",
      "lat": 33.374712,
      "lng": 130.518636,
      "geocoding_level": null,
      "phone": "0942-82-2054",
      "license_no": "佐賀県指令6鳥保福第460号",
      "license_date": "2025-02-28",
      "expire_date": "2031-02-28"
    },
    {
      "name": "kitchen car SOUR",
      "name_kana": "キッチンカーサワー",
      "business_type": "① 飲食店営業",
      "address": "佐賀県鳥栖市元町 県内一円",
      "lat": 33.372855,
      "lng": 130.508898,
      "geocoding_level": null,
      "phone": "",
      "license_no": "佐賀県指令3鳥保福第14号",
      "license_date": "2021-06-22",
      "expire_date": "2026-11-30"
    },
    {
      "name": "COCO GELATO",
      "name_kana": "ココジェラート",
      "business_type": "① 飲食店営業",
      "address": "佐賀県鳥栖市元町 県内一円",
      "lat": 33.372855,
      "lng": 130.508898,
      "geocoding_level": null,
      "phone": "",
      "license_no": "佐賀県指令4鳥保福第220号",
      "license_date": "2022-10-12",
      "expire_date": "2027-11-30"
    },
    {
      "name": "ゴディバ鳥栖プレミアム・アウトレット店",
      "name_kana": "ゴディバトスプレミアムアウトレットテン",
      "business_type": "⑬ その他の食料・飲料販売業",
      "address": "佐賀県鳥栖市弥生が丘8-1 鳥栖プレミアム･アウトレット1510区",
      "lat": 33.406797,
      "lng": 130.510726,
      "geocoding_level": null,
      "phone": "0942852101",
      "license_no": "",
      "license_date": null,
      "expire_date": null
    },
    {
      "name": "麺場 田所商店 鳥栖店",
      "name_kana": "メンバ タドコロショウテン トステン",
      "business_type": "① 飲食店営業",
      "address": "佐賀県鳥栖市蔵上4丁目115",
      "lat": 33.407028,
      "lng": 130.520959,
      "geocoding_level": null,
      "phone": "0942830008",
      "license_no": "佐賀県指令5鳥保福第12号",
      "license_date": "2023-04-26",
      "expire_date": "2029-11-30"
    },
    {
      "name": "博多　一風堂",
      "name_kana": "ハカタ　イップウドウ",
      "business_type": "① 飲食店営業",
      "address": "佐賀県鳥栖市元町 県内一円",
      "lat": 33.372855,
      "lng": 130.508898,
      "geocoding_level": null,
      "phone": "",
      "license_no": "佐賀県指令３鳥保福第246号",
      "license_date": "2022-02-02",
      "expire_date": "2027-11-30"
    },
    {
      "name": "びっくり焼亭　鳥栖店",
      "name_kana": "ビックリヤキテイトステン",
      "business_type": "① 飲食店営業",
      "address": "佐賀県鳥栖市本鳥栖町811",
      "lat": 33.377596,
      "lng": 130.51647,
      "geocoding_level": null,
      "phone": "",
      "license_no": "佐賀県指令3鳥保福第22号",
      "license_date": "2021-07-13",
      "expire_date": "2028-02-29"
    },
    {
      "name": "株式会社かば田食品　鳥栖の店",
      "name_kana": "カバタショクヒントスノミセ",
      "business_type": "④ 魚介類販売業",
      "address": "佐賀県鳥栖市本鳥栖町537-1",
      "lat": 33.375948,
      "lng": 130.517308,
      "geocoding_level": null,
      "phone": "090-1084-3071",
      "license_no": "佐賀県指令6鳥保福第461号",
      "license_date": "2025-02-28",
      "expire_date": "2031-02-28"
    },
    {
      "name": "博多の味やまや",
      "name_kana": "ハカタノアジヤマヤ",
      "business_type": "① 飲食店営業",
      "address": "佐賀県鳥栖市県内一円",
      "lat": 33.377879,
      "lng": 130.506243,
      "geocoding_level": null,
      "phone": "",
      "license_no": "佐賀県指令5鳥保福第192号",
      "license_date": "2023-09-04",
      "expire_date": "2028-11-30"
    },
    {
      "name": "丸源ラーメン 鳥栖店",
      "name_kana": "マルゲンラーメントステン",
      "business_type": "⑬ その他の食料・飲料販売業",
      "address": "佐賀県鳥栖市轟木町1058-1",
      "lat": 33.365133,
      "lng": 130.501685,
      "geocoding_level": null,
      "phone": "",
      "license_no": "",
      "license_date": null,
      "expire_date": null
    },
    {
      "name": "丸源ラーメン鳥栖店",
      "name_kana": "マルゲンラーメントステン",
      "business_type": "① 飲食店営業",
      "address": "佐賀県鳥栖市轟木町1058-1",
      "lat": 33.36515,
      "lng": 130.501667,
      "geocoding_level": null,
      "phone": "0942-85-8616",
      "license_no": "佐賀県指令8鳥保福第84号",
      "license_date": "2026-05-31",
      "expire_date": "2032-05-31"
    },
    {
      "name": "焼肉きんぐ鳥栖店",
      "name_kana": "ヤキニクキングトステン",
      "business_type": "① 飲食店営業",
      "address": "佐賀県鳥栖市轟木町1067-1",
      "lat": 33.364964,
      "lng": 130.502578,
      "geocoding_level": null,
      "phone": "0942-85-9298",
      "license_no": "佐賀県指令8鳥保福第89号",
      "license_date": "2026-05-31",
      "expire_date": "2032-05-31"
    },
    {
      "name": "Happy Tappy",
      "name_kana": "ハッピー　タッピー",
      "business_type": "① 飲食店営業",
      "address": "佐賀県鳥栖市佐賀県内一円",
      "lat": 33.377879,
      "lng": 130.506243,
      "geocoding_level": null,
      "phone": "070-8490-4144",
      "license_no": "佐賀県指令5鳥保福第373号",
      "license_date": "2023-12-27",
      "expire_date": "2029-11-30"
    },
    {
      "name": "旬果屋",
      "name_kana": "シュンカヤ",
      "business_type": "① 飲食店営業",
      "address": "佐賀県鳥栖市元町 佐賀県内一円",
      "lat": 33.372855,
      "lng": 130.508898,
      "geocoding_level": null,
      "phone": "",
      "license_no": "佐賀県指令5鳥保福第32号",
      "license_date": "2023-05-26",
      "expire_date": "2028-11-30"
    },
    {
      "name": "肉ざんまい",
      "name_kana": "ニクザンマイ",
      "business_type": "⑨ 食肉処理業",
      "address": "佐賀県鳥栖市真木町字巻上１５１２",
      "lat": 33.359457,
      "lng": 130.51017,
      "geocoding_level": null,
      "phone": "0942-85-8881",
      "license_no": "佐賀県指令3鳥保福第20号",
      "license_date": "2021-07-05",
      "expire_date": "2028-05-31"
    },
    {
      "name": "肉ざんまい　お肉研究所",
      "name_kana": "ニクザンマイオニクケンキュウジョ",
      "business_type": "① 飲食店営業",
      "address": "佐賀県鳥栖市真木町字巻上1512",
      "lat": 33.359457,
      "lng": 130.51017,
      "geocoding_level": null,
      "phone": "0942-85-1200",
      "license_no": "佐賀県指令３鳥保福第128号",
      "license_date": "2021-09-15",
      "expire_date": "2028-05-31"
    },
    {
      "name": "肉ざんまい　お肉研究所",
      "name_kana": "ニクザンマイオニクケンキュウジョ",
      "business_type": "⑪ 菓子製造業",
      "address": "佐賀県鳥栖市真木町字巻上1512",
      "lat": 33.359457,
      "lng": 130.51017,
      "geocoding_level": null,
      "phone": "0942-85-1200",
      "license_no": "佐賀県指令３鳥保福第129号",
      "license_date": "2021-09-15",
      "expire_date": "2028-05-31"
    },
    {
      "name": "岩田屋フード株式会社鳥栖工房",
      "name_kana": "イワタヤフードカブシキガイシャキトスコウボウ",
      "business_type": "⑮ 食肉製品製造業",
      "address": "佐賀県鳥栖市真木町字巻上1512",
      "lat": 33.346208,
      "lng": 130.514835,
      "geocoding_level": null,
      "phone": "0942858881",
      "license_no": "佐賀県指令7鳥保福第68号",
      "license_date": "2025-05-31",
      "expire_date": "2031-05-31"
    },
    {
      "name": "岩田屋フード株式会社　鳥栖工場",
      "name_kana": "イワタヤフードカブシキカイシャ　トスコウジョウ",
      "business_type": "⑨ 食肉処理業",
      "address": "佐賀県鳥栖市真木町巻上1513",
      "lat": 33.359457,
      "lng": 130.51017,
      "geocoding_level": null,
      "phone": "0942-85-8881",
      "license_no": "佐賀県指令8鳥保福第87号",
      "license_date": "2026-05-31",
      "expire_date": "2032-05-31"
    },
    {
      "name": "インド料理ビスヌ鳥栖店",
      "name_kana": "インドリョウリビスヌトステン",
      "business_type": "① 飲食店営業",
      "address": "佐賀県鳥栖市真木町1798-1",
      "lat": 33.357044,
      "lng": 130.512617,
      "geocoding_level": null,
      "phone": "0942375727",
      "license_no": "佐賀県指令7鳥保福第58号",
      "license_date": "2025-05-31",
      "expire_date": "2031-05-31"
    },
    {
      "name": "(株)坂本ストアー",
      "name_kana": "サカモトストアー",
      "business_type": "① 飲食店営業",
      "address": "佐賀県鳥栖市元町 県内一円",
      "lat": 33.372855,
      "lng": 130.508898,
      "geocoding_level": null,
      "phone": "",
      "license_no": "佐賀県指令３鳥保福第175号",
      "license_date": "2021-11-30",
      "expire_date": "2026-11-30"
    },
    {
      "name": "サンドラッグ弥生が丘店",
      "name_kana": "サンドラッグヤヨイガオカテン",
      "business_type": "⑪ 百貨店、総合スーパー",
      "address": "佐賀県鳥栖市弥生が丘1-32",
      "lat": 33.403271,
      "lng": 130.526061,
      "geocoding_level": null,
      "phone": "0942-81-3361",
      "license_no": "",
      "license_date": null,
      "expire_date": null
    },
    {
      "name": "sunny kitchen",
      "name_kana": "サニーキッチン",
      "business_type": "① 飲食店営業",
      "address": "佐賀県鳥栖市元町 県内一円",
      "lat": 33.372855,
      "lng": 130.508898,
      "geocoding_level": null,
      "phone": "080-7981-8637",
      "license_no": "佐賀県指令4鳥保福第140号",
      "license_date": "2022-09-05",
      "expire_date": "2027-11-30"
    },
    {
      "name": "ミニストップ鳥栖藤木町店",
      "name_kana": "ミニストップトスフジノキマチテン",
      "business_type": "① 飲食店営業",
      "address": "佐賀県鳥栖市藤木町若桜3-19",
      "lat": 33.362847,
      "lng": 130.525431,
      "geocoding_level": null,
      "phone": "0942-84-6051",
      "license_no": "佐賀県指令３鳥保福第306号",
      "license_date": "2022-03-22",
      "expire_date": "2028-05-31"
    },
    {
      "name": "ミニストップ鳥栖藤木町店",
      "name_kana": "ミニストップトスフジノキマチテン",
      "business_type": "⑩ コンビニエンスストア",
      "address": "佐賀県鳥栖市藤木町若桜3-19",
      "lat": 33.362847,
      "lng": 130.525431,
      "geocoding_level": null,
      "phone": "0942-84-6051",
      "license_no": "",
      "license_date": null,
      "expire_date": null
    },
    {
      "name": "ミニストップ鳥栖藤木町店",
      "name_kana": "ミニストップトスフジノキマチテン",
      "business_type": "⑩ コンビニエンスストア",
      "address": "佐賀県鳥栖市藤木町若桜3-19",
      "lat": 35.34019,
      "lng": 134.400976,
      "geocoding_level": null,
      "phone": "0942-84-6051",
      "license_no": "",
      "license_date": null,
      "expire_date": null
    },
    {
      "name": "株式会社カミチク",
      "name_kana": "カブシキガイシャカミチク",
      "business_type": "㉙ その他",
      "address": "佐賀県鳥栖市姫方町1653番地",
      "lat": 33.382674,
      "lng": 130.532319,
      "geocoding_level": null,
      "phone": "092-710-6330",
      "license_no": "",
      "license_date": null,
      "expire_date": null
    },
    {
      "name": "おとどけ号39号車",
      "name_kana": "オトドケゴウサンジュウキュウゴウシャ",
      "business_type": "① 飲食店営業",
      "address": "佐賀県鳥栖市元町佐賀県内一円",
      "lat": 33.372855,
      "lng": 130.508898,
      "geocoding_level": null,
      "phone": "070-2458-6361",
      "license_no": "佐賀県指令４鳥保福 第219号",
      "license_date": "2022-10-17",
      "expire_date": "2027-11-30"
    },
    {
      "name": "ピザーラケータリングカー46号車",
      "name_kana": "ピザーラケータリングカーヨンジュウロクゴウシャ",
      "business_type": "① 飲食店営業",
      "address": "佐賀県鳥栖市元町 県内一円",
      "lat": 33.372855,
      "lng": 130.508898,
      "geocoding_level": null,
      "phone": "",
      "license_no": "佐賀県指令4鳥保福第533号",
      "license_date": "2023-03-06",
      "expire_date": "2028-11-30"
    },
    {
      "name": "ピザーラ八幡店",
      "name_kana": "ピザーラヤハタテン",
      "business_type": "① 飲食店営業",
      "address": "佐賀県鳥栖市佐賀県内一円",
      "lat": 33.377879,
      "lng": 130.506243,
      "geocoding_level": null,
      "phone": "",
      "license_no": "佐賀県指令5鳥保福第219号",
      "license_date": "2023-09-29",
      "expire_date": "2028-11-30"
    },
    {
      "name": "ピザポケット鳥栖店",
      "name_kana": "ピザポケットトステン",
      "business_type": "① 飲食店営業",
      "address": "佐賀県鳥栖市本町2丁目1448-1 中央ビル1F",
      "lat": 33.377071,
      "lng": 130.509594,
      "geocoding_level": null,
      "phone": "0942-87-5111",
      "license_no": "佐賀県指令6鳥保福第223号",
      "license_date": "2024-08-31",
      "expire_date": "2030-08-31"
    },
    {
      "name": "キユーピータマゴ株式会社　鳥栖工場",
      "name_kana": "キユーピータマゴトスコウジョウ",
      "business_type": "⑱ 液卵製造業",
      "address": "佐賀県鳥栖市田代外町701",
      "lat": 33.386657,
      "lng": 130.514761,
      "geocoding_level": null,
      "phone": "0942-84-6805",
      "license_no": "佐賀県指令3鳥保福第122号",
      "license_date": "2021-09-13",
      "expire_date": "2028-08-31"
    },
    {
      "name": "キユーピータマゴ株式会社　鳥栖工場",
      "name_kana": "キユーピータマゴ　トスコウジョウ",
      "business_type": "㉖ 複合型そうざい製造業",
      "address": "佐賀県鳥栖市田代外町701",
      "lat": 33.386515,
      "lng": 130.514449,
      "geocoding_level": null,
      "phone": "0942846805",
      "license_no": "佐賀県指令7鳥保福第154号",
      "license_date": "2025-08-31",
      "expire_date": "2031-08-31"
    },
    {
      "name": "899：366896：久光製薬（株）鳥栖工場　東門",
      "name_kana": "ヒサミツセイヤクトスコウジョウ",
      "business_type": "⑫ 自動販売機による販売業（コップ式自動販売機（自動洗浄・屋内設置）及び営業許可の対象となる自動販売機を除く）",
      "address": "佐賀県鳥栖市田代大官町４０８番地",
      "lat": 33.388551,
      "lng": 130.520196,
      "geocoding_level": null,
      "phone": "",
      "license_no": "",
      "license_date": null,
      "expire_date": null
    },
    {
      "name": "1477：41526062：ＣＯＤＯ外語観光専⾨学校",
      "name_kana": "コウドウガイゴカンコウセンモンガッコウ",
      "business_type": "⑬ その他の食料・飲料販売業",
      "address": "佐賀県鳥栖市桜町1461",
      "lat": 33.384251,
      "lng": 130.522965,
      "geocoding_level": null,
      "phone": "",
      "license_no": "",
      "license_date": null,
      "expire_date": null
    },
    {
      "name": "1498：80092935：エムシークロップ＆ライフ化成株式会社",
      "name_kana": "エムシークロップアンドライフカセイカブシキガイシャ",
      "business_type": "⑬ その他の食料・飲料販売業",
      "address": "佐賀県鳥栖市姫方町526-1",
      "lat": 33.396029,
      "lng": 130.529731,
      "geocoding_level": null,
      "phone": "",
      "license_no": "",
      "license_date": null,
      "expire_date": null
    },
    {
      "name": "1538：100003612：久光製薬㈱九州工場",
      "name_kana": "ヒサミツセイヤクカブキュウシュウコウジョウ",
      "business_type": "⑬ その他の食料・飲料販売業",
      "address": "佐賀県鳥栖市田代大官町408",
      "lat": 33.388551,
      "lng": 130.520196,
      "geocoding_level": null,
      "phone": "",
      "license_no": "",
      "license_date": null,
      "expire_date": null
    },
    {
      "name": "梅梅　鳥栖プレミアム・アウトレット",
      "name_kana": "メイメイ　トスプレミアム・アウトレット",
      "business_type": "① 飲食店営業",
      "address": "佐賀県鳥栖市弥生が丘8-1　310区",
      "lat": 33.406797,
      "lng": 130.510726,
      "geocoding_level": null,
      "phone": "0942-87-7277",
      "license_no": "佐賀県指令4鳥保福第151号",
      "license_date": "2022-08-31",
      "expire_date": "2028-08-31"
    },
    {
      "name": "みつせ鶏本舗いち羽鳥栖プレミアムアウトレット店",
      "name_kana": "ミツセトリホンポイチワトスプレミアムアウトレットテン",
      "business_type": "① 飲食店営業",
      "address": "佐賀県鳥栖市弥生が丘8-1",
      "lat": 33.406797,
      "lng": 130.510726,
      "geocoding_level": null,
      "phone": "0942-50-5155",
      "license_no": "佐賀県指令6鳥保福第222号",
      "license_date": "2024-08-31",
      "expire_date": "2030-08-31"
    },
    {
      "name": "クロクマコーヒー",
      "name_kana": "クロクマコーヒー",
      "business_type": "⑯ コーヒー製造・加工業（飲料の製造を除く。）",
      "address": "佐賀県鳥栖市弥生が丘4丁目111",
      "lat": 33.406777,
      "lng": 130.520801,
      "geocoding_level": null,
      "phone": "09010873347",
      "license_no": "",
      "license_date": null,
      "expire_date": null
    },
    {
      "name": "株式会社花一",
      "name_kana": "カブシキガイシャ　ハナイチ",
      "business_type": "① 飲食店営業",
      "address": "佐賀県鳥栖市神辺町95-3",
      "lat": 33.38962,
      "lng": 130.514544,
      "geocoding_level": null,
      "phone": "0942878712",
      "license_no": "佐賀県指令３鳥保福第86号",
      "license_date": "2021-08-31",
      "expire_date": "2027-08-31"
    },
    {
      "name": "（株）山下屋酒店",
      "name_kana": "ヤマシタヤサケテン",
      "business_type": "① 飲食店営業",
      "address": "佐賀県鳥栖市県内一円",
      "lat": 33.377879,
      "lng": 130.506243,
      "geocoding_level": null,
      "phone": "",
      "license_no": "佐賀県指令7鳥保福第37号",
      "license_date": "2025-05-01",
      "expire_date": "2030-11-30"
    },
    {
      "name": "（有）山下屋",
      "name_kana": "ヤマシタヤ",
      "business_type": "① 飲食店営業",
      "address": "佐賀県鳥栖市曽根崎町1557-1",
      "lat": 33.378722,
      "lng": 130.526284,
      "geocoding_level": null,
      "phone": "",
      "license_no": "佐賀県指令7鳥保福第453号",
      "license_date": "2026-02-28",
      "expire_date": "2032-02-29"
    },
    {
      "name": "中村植物園",
      "name_kana": "ナカムラショクブツエン",
      "business_type": "① 飲食店営業",
      "address": "佐賀県鳥栖市佐賀県内一円",
      "lat": 33.377879,
      "lng": 130.506243,
      "geocoding_level": null,
      "phone": "",
      "license_no": "佐賀県指令６鳥保福第415号",
      "license_date": "2025-01-20",
      "expire_date": "2030-11-30"
    },
    {
      "name": "中村植物園",
      "name_kana": "ナカムラショクブツエン",
      "business_type": "① 飲食店営業",
      "address": "佐賀県鳥栖市佐賀県内一円",
      "lat": 33.377879,
      "lng": 130.506243,
      "geocoding_level": null,
      "phone": "",
      "license_no": "佐賀県指令６鳥保福第416号",
      "license_date": "2025-01-20",
      "expire_date": "2030-11-30"
    },
    {
      "name": "47754事業所",
      "name_kana": "ヨンナナナナゴヨンジギョウショ",
      "business_type": "① 飲食店営業",
      "address": "佐賀県鳥栖市轟木町1564番地",
      "lat": 33.367365,
      "lng": 130.506523,
      "geocoding_level": null,
      "phone": "",
      "license_no": "佐賀県指令3鳥保福第134号",
      "license_date": "2021-09-29",
      "expire_date": "2028-05-31"
    },
    {
      "name": "4611事業所",
      "name_kana": "ヨンロクイチイチジギョウショ",
      "business_type": "① 飲食店営業",
      "address": "佐賀県鳥栖市蔵上２丁目123番地",
      "lat": 33.374261,
      "lng": 130.498125,
      "geocoding_level": null,
      "phone": "",
      "license_no": "佐賀県指令３鳥保福第176号",
      "license_date": "2021-11-30",
      "expire_date": "2027-11-30"
    },
    {
      "name": "138　サンリブ鳥栖店",
      "name_kana": "イチサンハチサンリブトステン",
      "business_type": "① 飲食店営業",
      "address": "佐賀県鳥栖市本鳥栖町537-1",
      "lat": 33.377155,
      "lng": 130.51626,
      "geocoding_level": null,
      "phone": "0942-81-5151",
      "license_no": "佐賀県指令5鳥保福第429号",
      "license_date": "2024-02-29",
      "expire_date": "2030-02-28"
    },
    {
      "name": "グランドハウスまごころ",
      "name_kana": "グランドハウスマゴコロ",
      "business_type": "㉖ 集団給食施設",
      "address": "佐賀県鳥栖市鳥栖市平田町3106番地23",
      "lat": 33.368757,
      "lng": 130.474307,
      "geocoding_level": null,
      "phone": "0942505088",
      "license_no": "",
      "license_date": null,
      "expire_date": null
    },
    {
      "name": "やきとり竜鳳1968",
      "name_kana": "ヤキトリリュウホウイチキュウロクハチ",
      "business_type": "① 飲食店営業",
      "address": "佐賀県鳥栖市元町 県内一円",
      "lat": 33.372855,
      "lng": 130.508898,
      "geocoding_level": null,
      "phone": "",
      "license_no": "佐賀県指令4鳥保福第112号",
      "license_date": "2022-07-19",
      "expire_date": "2027-11-30"
    },
    {
      "name": "やきとり竜鳳2016",
      "name_kana": "ヤキトリリュウホウニーゼロイチロク",
      "business_type": "① 飲食店営業",
      "address": "佐賀県鳥栖市元町 佐賀県内一円",
      "lat": 33.372855,
      "lng": 130.508898,
      "geocoding_level": null,
      "phone": "",
      "license_no": "佐賀県指令４鳥保福 第282号",
      "license_date": "2022-12-06",
      "expire_date": "2028-11-30"
    },
    {
      "name": "やきとり竜鳳1706",
      "name_kana": "ヤキトリリュウホウ",
      "business_type": "① 飲食店営業",
      "address": "佐賀県鳥栖市県内一円",
      "lat": 33.377879,
      "lng": 130.506243,
      "geocoding_level": null,
      "phone": "",
      "license_no": "佐賀県指令7鳥保福第52号",
      "license_date": "2025-05-26",
      "expire_date": "2031-08-31"
    },
    {
      "name": "やきとり竜鳳2274",
      "name_kana": "ヤキトリリュウホウ",
      "business_type": "① 飲食店営業",
      "address": "佐賀県鳥栖市県内一円",
      "lat": 33.377879,
      "lng": 130.506243,
      "geocoding_level": null,
      "phone": "",
      "license_no": "佐賀県指令7鳥保福第206号",
      "license_date": "2025-09-17",
      "expire_date": "2030-11-30"
    },
    {
      "name": "セブン-イレブン鳥栖今泉店",
      "name_kana": "セブンイレブントスイマイズミテン",
      "business_type": "① 飲食店営業",
      "address": "佐賀県鳥栖市今泉町2458",
      "lat": 33.363133,
      "lng": 130.516945,
      "geocoding_level": null,
      "phone": "0942-82-6621",
      "license_no": "佐賀県指令６鳥保福第80号",
      "license_date": "2024-05-31",
      "expire_date": "2030-05-31"
    },
    {
      "name": "ファミリーマート鳥栖轟木町店",
      "name_kana": "ファミリーマートトストドロキマチテン",
      "business_type": "① 飲食店営業",
      "address": "佐賀県鳥栖市轟木町二本松1597-1",
      "lat": 33.363449,
      "lng": 130.499994,
      "geocoding_level": null,
      "phone": "0942-87-7688",
      "license_no": "佐賀県指令8鳥保福第103号",
      "license_date": "2026-05-31",
      "expire_date": "2032-05-31"
    },
    {
      "name": "セブンイレブン鳥栖蔵上2丁目店",
      "name_kana": "セブンイレブントスクラノウエニチョウメテン",
      "business_type": "① 飲食店営業",
      "address": "佐賀県鳥栖市蔵上2丁目185番地",
      "lat": 33.374107,
      "lng": 130.493533,
      "geocoding_level": null,
      "phone": "0942-82-9530",
      "license_no": "佐賀県指令4鳥保福第300号",
      "license_date": "2022-11-30",
      "expire_date": "2028-11-30"
    },
    {
      "name": "ケバブBOX　Laba-Laba",
      "name_kana": "ケバブボックスラバラバ",
      "business_type": "① 飲食店営業",
      "address": "佐賀県鳥栖市元町 県内一円",
      "lat": 33.372855,
      "lng": 130.508898,
      "geocoding_level": null,
      "phone": "",
      "license_no": "佐賀県指令３鳥保福第177号",
      "license_date": "2021-11-30",
      "expire_date": "2026-11-30"
    },
    {
      "name": "梅の花　ブリヂストンカンツリー店",
      "name_kana": "ウメノハナブリヂストンカンツリーテン",
      "business_type": "① 飲食店営業",
      "address": "佐賀県鳥栖市村田町986",
      "lat": 33.360009,
      "lng": 130.485541,
      "geocoding_level": null,
      "phone": "0942-81-3193",
      "license_no": "佐賀県指令６鳥保福第9５号",
      "license_date": "2024-05-31",
      "expire_date": "2030-05-31"
    },
    {
      "name": "スパイダーズキッチン",
      "name_kana": "スパイダーズキッチン",
      "business_type": "① 飲食店営業",
      "address": "佐賀県鳥栖市元町 佐賀県内一円",
      "lat": 33.372855,
      "lng": 130.508898,
      "geocoding_level": null,
      "phone": "",
      "license_no": "佐賀県指令5鳥保福第33号",
      "license_date": "2023-05-31",
      "expire_date": "2028-11-30"
    },
    {
      "name": "OCEAN",
      "name_kana": "オーシャン",
      "business_type": "① 飲食店営業",
      "address": "佐賀県鳥栖市本町１丁目９６５－１",
      "lat": 33.373393,
      "lng": 130.514413,
      "geocoding_level": null,
      "phone": "090-9650-2493",
      "license_no": "佐賀県指令3鳥保福第33号",
      "license_date": "2021-07-29",
      "expire_date": "2027-08-31"
    },
    {
      "name": "山姥",
      "name_kana": "ヤマンバ",
      "business_type": "① 飲食店営業",
      "address": "佐賀県鳥栖市永吉町820",
      "lat": 33.399686,
      "lng": 130.526243,
      "geocoding_level": null,
      "phone": "",
      "license_no": "佐賀県指令4鳥保福第280号",
      "license_date": "2022-12-06",
      "expire_date": "2029-08-31"
    },
    {
      "name": "花やしき別館和食処もみじ庵",
      "name_kana": "ハナヤシキベッカンワショクドコロモミジアン",
      "business_type": "① 飲食店営業",
      "address": "佐賀県鳥栖市柚比町字荻野296番地1",
      "lat": 33.401993,
      "lng": 130.506354,
      "geocoding_level": null,
      "phone": "0942-83-2000",
      "license_no": "佐賀県指令３鳥保福第89号",
      "license_date": "2021-08-31",
      "expire_date": "2027-08-31"
    },
    {
      "name": "和み",
      "name_kana": "ナゴミ",
      "business_type": "① 飲食店営業",
      "address": "佐賀県鳥栖市元町 佐賀県内一円",
      "lat": 33.372855,
      "lng": 130.508898,
      "geocoding_level": null,
      "phone": "",
      "license_no": "佐賀県指令5鳥保福第131号",
      "license_date": "2023-08-17",
      "expire_date": "2028-08-31"
    },
    {
      "name": "セブンイレブン鳥栖養父町店",
      "name_kana": "セブンイレブントスヤブマチテン",
      "business_type": "① 飲食店営業",
      "address": "佐賀県鳥栖市養父町49番3",
      "lat": 33.378942,
      "lng": 130.498523,
      "geocoding_level": null,
      "phone": "0942-84-8135",
      "license_no": "佐賀県指令5鳥保福第312号",
      "license_date": "2023-11-30",
      "expire_date": "2029-11-30"
    },
    {
      "name": "セブンイレブン鳥栖養父町店",
      "name_kana": "セブンイレブントスヤブマチテン",
      "business_type": "⑩ コンビニエンスストア",
      "address": "佐賀県鳥栖市養父町49番3",
      "lat": 33.378942,
      "lng": 130.498523,
      "geocoding_level": null,
      "phone": "0942-84-8135",
      "license_no": "",
      "license_date": null,
      "expire_date": null
    },
    {
      "name": "リンツ ショコラ ブティック＆カフェ 鳥栖プレミアム・アウトレット店",
      "name_kana": "リンツ ショコラ ブティックアンドカフェ トスプレミアム・アウトレットテン",
      "business_type": "① 飲食店営業",
      "address": "佐賀県鳥栖市弥生が丘8-1 鳥栖プレミアム･アウトレット 1140区画",
      "lat": 33.406797,
      "lng": 130.510726,
      "geocoding_level": null,
      "phone": "0942-50-6570",
      "license_no": "佐賀県指令7鳥保福第392号",
      "license_date": "2026-01-13",
      "expire_date": "2032-08-31"
    },
    {
      "name": "ファミリーマート鳥栖弥生が丘店",
      "name_kana": "ファミリーマートトスヤヨイガオカテン",
      "business_type": "① 魚介類販売業（包装済みの魚介類のみの販売）",
      "address": "佐賀県鳥栖市弥生が丘２丁目１７番地",
      "lat": 33.402704,
      "lng": 130.52224,
      "geocoding_level": null,
      "phone": "",
      "license_no": "",
      "license_date": null,
      "expire_date": null
    },
    {
      "name": "ファミリーマート鳥栖弥生が丘店",
      "name_kana": "ファミリーマートトスヤヨイガオカテン",
      "business_type": "② 食肉販売業（包装済みの食肉のみの販売）",
      "address": "佐賀県鳥栖市弥生が丘２丁目１７番地",
      "lat": 33.402704,
      "lng": 130.52224,
      "geocoding_level": null,
      "phone": "",
      "license_no": "",
      "license_date": null,
      "expire_date": null
    },
    {
      "name": "ファミリーマート鳥栖弥生が丘店",
      "name_kana": "ファミリーマートトスヤヨイガオカテン",
      "business_type": "③ 乳類販売業",
      "address": "佐賀県鳥栖市弥生が丘２丁目１７番地",
      "lat": 33.402704,
      "lng": 130.52224,
      "geocoding_level": null,
      "phone": "",
      "license_no": "",
      "license_date": null,
      "expire_date": null
    },
    {
      "name": "ファミリーマート鳥栖弥生が丘店",
      "name_kana": "ファミリーマートトスヤヨイガオカテン",
      "business_type": "⑩ コンビニエンスストア",
      "address": "佐賀県鳥栖市弥生が丘２丁目１７番地",
      "lat": 33.402704,
      "lng": 130.52224,
      "geocoding_level": null,
      "phone": "",
      "license_no": "",
      "license_date": null,
      "expire_date": null
    },
    {
      "name": "セブンイレブン鳥栖村田店",
      "name_kana": "セブンイレブントスムラタテン",
      "business_type": "① 飲食店営業",
      "address": "佐賀県鳥栖市村田町772-4",
      "lat": 33.356668,
      "lng": 130.485462,
      "geocoding_level": null,
      "phone": "0942-84-0031",
      "license_no": "佐賀県指令４鳥保福 第51号",
      "license_date": "2022-05-31",
      "expire_date": "2028-05-31"
    },
    {
      "name": "中央軒",
      "name_kana": "チュウオウケン",
      "business_type": "⑬ その他の食料・飲料販売業",
      "address": "佐賀県鳥栖市原古賀町302-2 JR九州新鳥栖駅",
      "lat": 33.372472,
      "lng": 130.489977,
      "geocoding_level": null,
      "phone": "0942-82-3166",
      "license_no": "",
      "license_date": null,
      "expire_date": null
    },
    {
      "name": "中央軒",
      "name_kana": "チュウオウオケン",
      "business_type": "① 飲食店営業",
      "address": "佐賀県鳥栖市県内一円",
      "lat": 33.377879,
      "lng": 130.506243,
      "geocoding_level": null,
      "phone": "",
      "license_no": "佐賀県指令7鳥保福第216号",
      "license_date": "2025-09-29",
      "expire_date": "2030-11-30"
    },
    {
      "name": "中央軒",
      "name_kana": "チュウオウオケン",
      "business_type": "⑥ 弁当販売業",
      "address": "佐賀県鳥栖市県内一円",
      "lat": 33.377879,
      "lng": 130.506243,
      "geocoding_level": null,
      "phone": "",
      "license_no": "",
      "license_date": null,
      "expire_date": null
    },
    {
      "name": "ミート工房　夢きら・ら鳥栖店",
      "name_kana": "ミートコウボウユメキララトステン",
      "business_type": "③ 食肉販売業",
      "address": "佐賀県鳥栖市田代大官町812-5",
      "lat": 33.389408,
      "lng": 130.517482,
      "geocoding_level": null,
      "phone": "0942-85-8010",
      "license_no": "佐賀県指令3鳥保福第329号",
      "license_date": "2022-03-30",
      "expire_date": "2028-08-31"
    },
    {
      "name": "ミート工房　夢きら・ら鳥栖店",
      "name_kana": "ミートコウボウユメキララトステン",
      "business_type": "① 飲食店営業",
      "address": "佐賀県鳥栖市田代大官町812-5",
      "lat": 33.389408,
      "lng": 130.517482,
      "geocoding_level": null,
      "phone": "0942-85-8010",
      "license_no": "佐賀県指令6鳥保福第197号",
      "license_date": "2024-08-31",
      "expire_date": "2030-08-31"
    },
    {
      "name": "ローソン鳥栖養父町店",
      "name_kana": "ローソントスヤブマチテン",
      "business_type": "① 飲食店営業",
      "address": "佐賀県鳥栖市養父町53-4",
      "lat": 33.379655,
      "lng": 130.499451,
      "geocoding_level": null,
      "phone": "0942-83-0108",
      "license_no": "佐賀県指令4鳥保福第292号",
      "license_date": "2022-11-30",
      "expire_date": "2028-11-30"
    },
    {
      "name": "MGアグリ合同会社",
      "name_kana": "エムジーアグリゴウドウガイシャ",
      "business_type": "⑦ 野菜果物販売業",
      "address": "佐賀県鳥栖市弥生が丘4-195-1",
      "lat": 33.408212,
      "lng": 130.521159,
      "geocoding_level": null,
      "phone": "",
      "license_no": "",
      "license_date": null,
      "expire_date": null
    },
    {
      "name": "マレブル",
      "name_kana": "マレブル",
      "business_type": "⑦ 野菜果物販売業",
      "address": "佐賀県鳥栖市本鳥栖町537-1 フレスポ鳥栖1Fウェルカムコート",
      "lat": 33.376884,
      "lng": 130.516509,
      "geocoding_level": null,
      "phone": "",
      "license_no": "",
      "license_date": null,
      "expire_date": null
    },
    {
      "name": "旬菜舎　さと山",
      "name_kana": "シュンサイヤ　サトヤマ",
      "business_type": "① 飲食店営業",
      "address": "佐賀県鳥栖市京町812番地 駅前不動産スタジアム内売店10番",
      "lat": 33.372508,
      "lng": 130.520424,
      "geocoding_level": null,
      "phone": "0952-57-3101",
      "license_no": "佐賀県指令４鳥保福 第488号",
      "license_date": "2023-02-28",
      "expire_date": "2029-02-28"
    },
    {
      "name": "医療法人正友会　松岡病院事業所",
      "name_kana": "イリョウホウジンセイユウカイマツオカビョウインジギョウショ",
      "business_type": "① 飲食店営業",
      "address": "佐賀県鳥栖市西新町1422",
      "lat": 33.353957,
      "lng": 130.471006,
      "geocoding_level": null,
      "phone": "",
      "license_no": "佐賀県指令４鳥保福 第52号",
      "license_date": "2022-05-31",
      "expire_date": "2028-05-31"
    },
    {
      "name": "公益社団法人鳥栖市シルバー人材センター",
      "name_kana": "コウエキシャダンホウジントスシシルバージンザイセンター",
      "business_type": "⑪ 菓子製造業",
      "address": "佐賀県鳥栖市萱方町116番地2 若葉まちづくり推進センター",
      "lat": 33.387132,
      "lng": 130.507468,
      "geocoding_level": null,
      "phone": "0942-84-6122",
      "license_no": "佐賀県指令３鳥保福第104号",
      "license_date": "2021-08-31",
      "expire_date": "2027-08-31"
    },
    {
      "name": "鳥栖市シルバー人材センター",
      "name_kana": "トスシシルバージンザイセンター",
      "business_type": "① 飲食店営業",
      "address": "佐賀県鳥栖市元町 県内一円",
      "lat": 33.372855,
      "lng": 130.508898,
      "geocoding_level": null,
      "phone": "",
      "license_no": "佐賀県指令4鳥保福第313号",
      "license_date": "2022-11-30",
      "expire_date": "2027-11-30"
    },
    {
      "name": "株式会社フレッシュミート",
      "name_kana": "カブシキガイシャフレッシュミート",
      "business_type": "⑨ 食肉処理業",
      "address": "佐賀県鳥栖市田代本町1306番地1",
      "lat": 33.395242,
      "lng": 130.519907,
      "geocoding_level": null,
      "phone": "0942-83-7577",
      "license_no": "佐賀県指令３鳥保福第107号",
      "license_date": "2021-08-31",
      "expire_date": "2027-08-31"
    },
    {
      "name": "株式会社サラダクラブ鳥栖工場",
      "name_kana": "カブシキガイシャサラダクラブトスコウジョウ",
      "business_type": "㉕ そうざい製造業",
      "address": "佐賀県鳥栖市田代外町701",
      "lat": 33.386515,
      "lng": 130.514449,
      "geocoding_level": null,
      "phone": "0942-83-3324",
      "license_no": "佐賀県指令３鳥保福第108号",
      "license_date": "2021-08-31",
      "expire_date": "2027-08-31"
    },
    {
      "name": "株式会社九食第一工場",
      "name_kana": "キュウショクダイイチコウジョウ",
      "business_type": "⑮ 食肉製品製造業",
      "address": "佐賀県鳥栖市田代大官町764-7",
      "lat": 33.388344,
      "lng": 130.514984,
      "geocoding_level": null,
      "phone": "0942-82-8416",
      "license_no": "佐賀県指令6鳥保福第194号",
      "license_date": "2024-08-31",
      "expire_date": "2030-08-31"
    },
    {
      "name": "九食鳥栖第二工場",
      "name_kana": "キュウショクトスダイニコウジョウ",
      "business_type": "⑨ 食肉処理業",
      "address": "佐賀県鳥栖市藤木町6-5",
      "lat": 33.366019,
      "lng": 130.528295,
      "geocoding_level": null,
      "phone": "",
      "license_no": "佐賀県指令8鳥保福第61号",
      "license_date": "2026-05-31",
      "expire_date": "2032-05-31"
    },
    {
      "name": "九食鳥栖第二工場",
      "name_kana": "キュウショクトスダイニコウジョウ",
      "business_type": "⑮ 食肉製品製造業",
      "address": "佐賀県鳥栖市藤木町6-5",
      "lat": 33.366019,
      "lng": 130.528295,
      "geocoding_level": null,
      "phone": "",
      "license_no": "佐賀県指令8鳥保福第62号",
      "license_date": "2026-05-31",
      "expire_date": "2032-05-31"
    },
    {
      "name": "有限会社鳥栖魚市場",
      "name_kana": "ユウゲンガイシャトスウオイチバ",
      "business_type": "④ 魚介類販売業",
      "address": "佐賀県鳥栖市萱方町180",
      "lat": 33.383177,
      "lng": 130.508461,
      "geocoding_level": null,
      "phone": "0942-82-4668",
      "license_no": "佐賀県指令３鳥保福第114号",
      "license_date": "2021-08-31",
      "expire_date": "2027-08-31"
    },
    {
      "name": "有限会社鳥栖魚市場",
      "name_kana": "ユウゲンガイシャトスウオイチバ",
      "business_type": "⑤ 魚介類競り売り営業",
      "address": "佐賀県鳥栖市萱方町180",
      "lat": 33.383177,
      "lng": 130.508461,
      "geocoding_level": null,
      "phone": "0942-82-4668",
      "license_no": "佐賀県指令３鳥保福第115号",
      "license_date": "2021-08-31",
      "expire_date": "2027-08-31"
    },
    {
      "name": "筑紫庵　本店",
      "name_kana": "チクシアン　ホンテン",
      "business_type": "① 飲食店営業",
      "address": "佐賀県鳥栖市元町 県内一円",
      "lat": 33.372855,
      "lng": 130.508898,
      "geocoding_level": null,
      "phone": "",
      "license_no": "佐賀県指令3鳥保福第137号",
      "license_date": "2021-09-27",
      "expire_date": "2026-11-30"
    },
    {
      "name": "和と印こころのえき",
      "name_kana": "ワトインココロノエキ",
      "business_type": "① 飲食店営業",
      "address": "佐賀県鳥栖市大正町786-6",
      "lat": 33.374918,
      "lng": 130.515079,
      "geocoding_level": null,
      "phone": "0942-85-8199",
      "license_no": "佐賀県指令３鳥保福第118号",
      "license_date": "2021-08-31",
      "expire_date": "2027-08-31"
    },
    {
      "name": "ミスタードーナツ　フレスポ鳥栖ショップ",
      "name_kana": "ミスタードーナツフレスポトスショップ",
      "business_type": "⑬ その他の食料・飲料販売業",
      "address": "佐賀県鳥栖市本鳥栖町537-1",
      "lat": 33.377155,
      "lng": 130.51626,
      "geocoding_level": null,
      "phone": "0942-81-2476",
      "license_no": "",
      "license_date": null,
      "expire_date": null
    },
    {
      "name": "ミスタードーナツフレスポ鳥栖ショップ",
      "name_kana": "ミスタードーナツフレポスポトスショップ",
      "business_type": "① 飲食店営業",
      "address": "佐賀県鳥栖市本鳥栖町537-1",
      "lat": 33.377155,
      "lng": 130.51626,
      "geocoding_level": null,
      "phone": "0942-81-2475",
      "license_no": "佐賀県指令6鳥保福第463号",
      "license_date": "2025-02-28",
      "expire_date": "2031-02-28"
    },
    {
      "name": "ミスタードーナツフレスポ鳥栖ショップ",
      "name_kana": "ミスタードーナツフレポスポトスショップ",
      "business_type": "⑪ 菓子製造業",
      "address": "佐賀県鳥栖市本鳥栖町537-1",
      "lat": 33.377155,
      "lng": 130.51626,
      "geocoding_level": null,
      "phone": "0942-81-2475",
      "license_no": "佐賀県指令6鳥保福第464号",
      "license_date": "2025-02-28",
      "expire_date": "2031-02-28"
    },
    {
      "name": "株式会社ふくや",
      "name_kana": "カブシキガイシャフクヤ",
      "business_type": "① 飲食店営業",
      "address": "佐賀県鳥栖市元町 県内一円",
      "lat": 33.372855,
      "lng": 130.508898,
      "geocoding_level": null,
      "phone": "090-8917-0682",
      "license_no": "佐賀県指令3鳥保福第133号",
      "license_date": "2021-09-21",
      "expire_date": "2026-11-30"
    },
    {
      "name": "(株)ふくや",
      "name_kana": "カブフクヤ",
      "business_type": "① 飲食店営業",
      "address": "佐賀県鳥栖市元町 県内一円",
      "lat": 33.372855,
      "lng": 130.508898,
      "geocoding_level": null,
      "phone": "",
      "license_no": "佐賀県指令３鳥保福第179号",
      "license_date": "2021-11-30",
      "expire_date": "2026-11-30"
    },
    {
      "name": "NAY BARRAGE",
      "name_kana": "ネイ　バラージ",
      "business_type": "① 飲食店営業",
      "address": "佐賀県鳥栖市元町 佐賀県内一円",
      "lat": 33.372855,
      "lng": 130.508898,
      "geocoding_level": null,
      "phone": "",
      "license_no": "佐賀県指令5鳥保福第78号",
      "license_date": "2023-06-05",
      "expire_date": "2028-11-30"
    },
    {
      "name": "炭火やきとり　桜翔",
      "name_kana": "スミビヤキトリ　オウショウ",
      "business_type": "① 飲食店営業",
      "address": "佐賀県鳥栖市本町2丁目1399-6",
      "lat": 33.377782,
      "lng": 130.507407,
      "geocoding_level": null,
      "phone": "0942-84-9276",
      "license_no": "佐賀県指令３鳥保福第119号",
      "license_date": "2021-08-31",
      "expire_date": "2027-08-31"
    },
    {
      "name": "モヒカンらーめん",
      "name_kana": "モヒカンラーメン",
      "business_type": "① 飲食店営業",
      "address": "佐賀県鳥栖市佐賀県内一円",
      "lat": 33.377879,
      "lng": 130.506243,
      "geocoding_level": null,
      "phone": "",
      "license_no": "佐賀県指令5鳥保福第393号",
      "license_date": "2024-01-29",
      "expire_date": "2029-11-30"
    },
    {
      "name": "お米屋さんのサンドイッチ",
      "name_kana": "オコメヤサンノサンドイッチ",
      "business_type": "㉕ そうざい製造業",
      "address": "佐賀県鳥栖市江島町3066番地",
      "lat": 33.341038,
      "lng": 130.480578,
      "geocoding_level": null,
      "phone": "0942-50-6686",
      "license_no": "佐賀県指令6鳥保福第1号",
      "license_date": "2024-04-03",
      "expire_date": "2030-05-31"
    },
    {
      "name": "ふく福米",
      "name_kana": "フクフクマイ",
      "business_type": "⑧ 米穀類販売業",
      "address": "佐賀県鳥栖市江島町3066",
      "lat": 33.341066,
      "lng": 130.480578,
      "geocoding_level": null,
      "phone": "0942811222",
      "license_no": "",
      "license_date": null,
      "expire_date": null
    },
    {
      "name": "乃が美はなれ鳥栖店",
      "name_kana": "ノガミハナレトステン",
      "business_type": "⑬ その他の食料・飲料販売業",
      "address": "佐賀県鳥栖市田代本町1405-2",
      "lat": 33.395727,
      "lng": 130.514522,
      "geocoding_level": null,
      "phone": "0942-50-5628",
      "license_no": "",
      "license_date": null,
      "expire_date": null
    },
    {
      "name": "炭焼きお肉とスパイス　みとなる",
      "name_kana": "スミヤキオニクトスパイスミトナル",
      "business_type": "① 飲食店営業",
      "address": "佐賀県鳥栖市県内一円",
      "lat": 33.377879,
      "lng": 130.506243,
      "geocoding_level": null,
      "phone": "",
      "license_no": "佐賀県指令7鳥保福第224号",
      "license_date": "2025-10-03",
      "expire_date": "2030-11-30"
    },
    {
      "name": "株式会社アスタラビスタ鳥栖店",
      "name_kana": "カブシキガイシャアスタラビスタトステン",
      "business_type": "⑪ 菓子製造業",
      "address": "佐賀県鳥栖市古賀町311",
      "lat": 33.388953,
      "lng": 130.499437,
      "geocoding_level": null,
      "phone": "0942-82-9323",
      "license_no": "佐賀県指令３鳥保福第124号",
      "license_date": "2021-09-14",
      "expire_date": "2028-08-31"
    },
    {
      "name": "XUAN SHOP TOSU",
      "name_kana": "スワンショップトス",
      "business_type": "⑬ その他の食料・飲料販売業",
      "address": "佐賀県鳥栖市本通町1丁目810番26号1F",
      "lat": 33.374019,
      "lng": 130.516697,
      "geocoding_level": null,
      "phone": "",
      "license_no": "",
      "license_date": null,
      "expire_date": null
    },
    {
      "name": "リンガーハット　フレスポ鳥栖店",
      "name_kana": "リンガーハットフレスポトステン",
      "business_type": "㉙ その他",
      "address": "佐賀県鳥栖市本鳥栖町537",
      "lat": 33.376717,
      "lng": 130.518701,
      "geocoding_level": null,
      "phone": "0942-81-5138",
      "license_no": "",
      "license_date": null,
      "expire_date": null
    },
    {
      "name": "リンガーハットフレスポ鳥栖店",
      "name_kana": "リンガーハットフレスポトステン",
      "business_type": "① 飲食店営業",
      "address": "佐賀県鳥栖市本鳥栖町537-1",
      "lat": 33.374557,
      "lng": 130.518237,
      "geocoding_level": null,
      "phone": "0942-81-5138",
      "license_no": "佐賀県指令7鳥保福第435号",
      "license_date": "2026-02-28",
      "expire_date": "2032-02-29"
    },
    {
      "name": "くりーむみっくす本舗",
      "name_kana": "クリームミックスホンポ",
      "business_type": "① 飲食店営業",
      "address": "佐賀県鳥栖市県内一円",
      "lat": 33.377879,
      "lng": 130.506243,
      "geocoding_level": null,
      "phone": "",
      "license_no": "佐賀県指令7鳥保福第347号",
      "license_date": "2025-11-30",
      "expire_date": "2030-11-30"
    },
    {
      "name": "すぱいす・１",
      "name_kana": "スパイスワン",
      "business_type": "① 飲食店営業",
      "address": "佐賀県鳥栖市元町 県内一円",
      "lat": 33.372855,
      "lng": 130.508898,
      "geocoding_level": null,
      "phone": "",
      "license_no": "佐賀県指令３鳥保福第259号",
      "license_date": "2022-02-18",
      "expire_date": "2027-11-30"
    },
    {
      "name": "きくち珈琲",
      "name_kana": "キクチコーヒー",
      "business_type": "⑯ コーヒー製造・加工業（飲料の製造を除く。）",
      "address": "佐賀県鳥栖市山浦町2372-1 ハクモクレン　B102",
      "lat": 33.378393,
      "lng": 130.483712,
      "geocoding_level": null,
      "phone": "08040834411",
      "license_no": "",
      "license_date": null,
      "expire_date": null
    },
    {
      "name": "濱かつ鳥栖バイパス店",
      "name_kana": "ハマカツトスバイパステン",
      "business_type": "⑬ その他の食料・飲料販売業",
      "address": "佐賀県鳥栖市古賀町６２",
      "lat": 33.383416,
      "lng": 130.499636,
      "geocoding_level": null,
      "phone": "0942-84-0965",
      "license_no": "",
      "license_date": null,
      "expire_date": null
    },
    {
      "name": "鳥栖市学校給食センター",
      "name_kana": "トスシガッコウキュウショクセンター",
      "business_type": "㉖ 集団給食施設",
      "address": "佐賀県鳥栖市蔵上町１１７番地３",
      "lat": 33.36901,
      "lng": 130.496084,
      "geocoding_level": null,
      "phone": "0942-85-8050",
      "license_no": "",
      "license_date": null,
      "expire_date": null
    },
    {
      "name": "有料老人ホームいやし",
      "name_kana": "ユウリョウロウジンホームイヤシ",
      "business_type": "㉖ 集団給食施設",
      "address": "佐賀県鳥栖市鳥栖市160番地1",
      "lat": 33.377879,
      "lng": 130.506243,
      "geocoding_level": null,
      "phone": "0942878875",
      "license_no": "",
      "license_date": null,
      "expire_date": null
    },
    {
      "name": "アニメイトカフェ　キッチンカー",
      "name_kana": "アニメイトカフェ　キッチンカー",
      "business_type": "① 飲食店営業",
      "address": "佐賀県鳥栖市元町 県内一円",
      "lat": 33.372855,
      "lng": 130.508898,
      "geocoding_level": null,
      "phone": "",
      "license_no": "佐賀県指令5鳥保福第356号",
      "license_date": "2023-12-11",
      "expire_date": "2029-11-30"
    },
    {
      "name": "アニメイトカフェ　キッチンカー",
      "name_kana": "アニメイトカフェ　キッチンカー",
      "business_type": "① 飲食店営業",
      "address": "佐賀県鳥栖市佐賀県内一円",
      "lat": 33.377879,
      "lng": 130.506243,
      "geocoding_level": null,
      "phone": "",
      "license_no": "佐賀県指令6鳥保福第209号",
      "license_date": "2024-08-26",
      "expire_date": "2029-11-30"
    },
    {
      "name": "ｄｒｉｆｔｅｒｓ",
      "name_kana": "ドリフターズ",
      "business_type": "① 飲食店営業",
      "address": "佐賀県鳥栖市元町 県内一円",
      "lat": 33.372855,
      "lng": 130.508898,
      "geocoding_level": null,
      "phone": "",
      "license_no": "佐賀県指令3鳥保福第132号",
      "license_date": "2021-09-21",
      "expire_date": "2026-11-30"
    },
    {
      "name": "石窯パン工房　クリーブラッツ",
      "name_kana": "イシカマパンコウボウクリーブラッツ",
      "business_type": "⑪ 菓子製造業",
      "address": "佐賀県鳥栖市弥生が丘五丁目14番",
      "lat": 33.402066,
      "lng": 130.520066,
      "geocoding_level": null,
      "phone": "",
      "license_no": "佐賀県指令7鳥保福第172号",
      "license_date": "2025-08-31",
      "expire_date": "2031-08-31"
    },
    {
      "name": "モスバーガー鳥栖バイパス店",
      "name_kana": "モスバーガートスバイパステン",
      "business_type": "① 飲食店営業",
      "address": "佐賀県鳥栖市古賀町330-1",
      "lat": 33.387909,
      "lng": 130.499604,
      "geocoding_level": null,
      "phone": "0942-82-4118",
      "license_no": "佐賀県指令4鳥保福第158号",
      "license_date": "2022-08-31",
      "expire_date": "2028-08-31"
    },
    {
      "name": "焼鳥　康まる",
      "name_kana": "ヤキトリ　ヤスマル",
      "business_type": "① 飲食店営業",
      "address": "佐賀県鳥栖市本通町1-793-1",
      "lat": 33.374264,
      "lng": 130.515158,
      "geocoding_level": null,
      "phone": "0942-91-2077",
      "license_no": "佐賀県指令３鳥保福第181号",
      "license_date": "2021-11-30",
      "expire_date": "2027-11-30"
    },
    {
      "name": "ユーコーラッキー鳥栖",
      "name_kana": "ユーコーラッキートス",
      "business_type": "⑫ 自動販売機による販売業（コップ式自動販売機（自動洗浄・屋内設置）及び営業許可の対象となる自動販売機を除く）",
      "address": "佐賀県鳥栖市元町１３５７",
      "lat": 33.375464,
      "lng": 130.506393,
      "geocoding_level": null,
      "phone": "0120-681-012",
      "license_no": "",
      "license_date": null,
      "expire_date": null
    },
    {
      "name": "ケーズデンキ鳥栖",
      "name_kana": "ケーズデンキトス",
      "business_type": "⑫ 自動販売機による販売業（コップ式自動販売機（自動洗浄・屋内設置）及び営業許可の対象となる自動販売機を除く）",
      "address": "佐賀県鳥栖市轟木町１１９８",
      "lat": 33.363653,
      "lng": 130.504701,
      "geocoding_level": null,
      "phone": "0942-81-3211",
      "license_no": "",
      "license_date": null,
      "expire_date": null
    },
    {
      "name": "ゴールドラッシュ鳥栖",
      "name_kana": "ゴールドラッシュトス",
      "business_type": "⑫ 自動販売機による販売業（コップ式自動販売機（自動洗浄・屋内設置）及び営業許可の対象となる自動販売機を除く）",
      "address": "佐賀県鳥栖市神辺町21-1",
      "lat": 33.386998,
      "lng": 130.512634,
      "geocoding_level": null,
      "phone": "0942-82-9728",
      "license_no": "",
      "license_date": null,
      "expire_date": null
    },
    {
      "name": "株式会社キョーワ鳥栖営業所",
      "name_kana": "カブシキガイシャキョーワトスエイギョウショ",
      "business_type": "㉒ 海藻製造・加工業",
      "address": "佐賀県鳥栖市酒井西町638-10",
      "lat": 33.364952,
      "lng": 130.529961,
      "geocoding_level": null,
      "phone": "0942840224",
      "license_no": "",
      "license_date": null,
      "expire_date": null
    },
    {
      "name": "５５ＤＯＧ",
      "name_kana": "ゴーゴードッグ",
      "business_type": "① 飲食店営業",
      "address": "佐賀県鳥栖市元町 県内一円",
      "lat": 33.372855,
      "lng": 130.508898,
      "geocoding_level": null,
      "phone": "",
      "license_no": "佐賀県指令3鳥保福第295号",
      "license_date": "2022-03-07",
      "expire_date": "2027-11-30"
    },
    {
      "name": "やたい劇場",
      "name_kana": "ヤタイゲキジョウ",
      "business_type": "① 飲食店営業",
      "address": "佐賀県鳥栖市県内一円",
      "lat": 33.377879,
      "lng": 130.506243,
      "geocoding_level": null,
      "phone": "",
      "license_no": "佐賀県指令7鳥保福第339号",
      "license_date": "2025-11-30",
      "expire_date": "2030-11-30"
    },
    {
      "name": "若木園",
      "name_kana": "ワカギエン",
      "business_type": "㉖ 集団給食施設",
      "address": "佐賀県鳥栖市山浦町１８９５番地１",
      "lat": 33.376646,
      "lng": 130.47896,
      "geocoding_level": null,
      "phone": "0942848785",
      "license_no": "",
      "license_date": null,
      "expire_date": null
    },
    {
      "name": "若楠療育園",
      "name_kana": "ワカクスリョウイクエン",
      "business_type": "㉖ 集団給食施設",
      "address": "佐賀県鳥栖市弥生が丘2-134-1",
      "lat": 33.404878,
      "lng": 130.52474,
      "geocoding_level": null,
      "phone": "0942831121",
      "license_no": "",
      "license_date": null,
      "expire_date": null
    },
    {
      "name": "若木園",
      "name_kana": "ワカギエン",
      "business_type": "① 飲食店営業",
      "address": "佐賀県鳥栖市鳥栖市内一円",
      "lat": 33.374234,
      "lng": 130.519848,
      "geocoding_level": null,
      "phone": "",
      "license_no": "佐賀県指令5鳥保福第331号",
      "license_date": "2023-11-30",
      "expire_date": "2028-11-30"
    },
    {
      "name": "デイサービスわかぎ",
      "name_kana": "デイサービスワカギ",
      "business_type": "⑪ 菓子製造業",
      "address": "佐賀県鳥栖市山浦町1895番地1 若木園",
      "lat": 33.376489,
      "lng": 130.479158,
      "geocoding_level": null,
      "phone": "0942-84-8785",
      "license_no": "佐賀県指令5鳥保福第321号",
      "license_date": "2023-11-30",
      "expire_date": "2029-11-30"
    },
    {
      "name": "中央軒",
      "name_kana": "チュウオウケン",
      "business_type": "㉔ 麺類製造業",
      "address": "佐賀県鳥栖市京町７２９番地",
      "lat": 33.373404,
      "lng": 130.518371,
      "geocoding_level": null,
      "phone": "0942823166",
      "license_no": "佐賀県指令３鳥保福第142号",
      "license_date": "2021-10-26",
      "expire_date": "2028-02-29"
    },
    {
      "name": "株式会社中央軒",
      "name_kana": "カブシキガイシャチュウオウケン",
      "business_type": "① 飲食店営業",
      "address": "佐賀県鳥栖市京町729",
      "lat": 33.3734,
      "lng": 130.518414,
      "geocoding_level": null,
      "phone": "0942823166",
      "license_no": "佐賀県指令４鳥保福 第489号",
      "license_date": "2023-02-28",
      "expire_date": "2029-02-28"
    },
    {
      "name": "株式会社中央軒",
      "name_kana": "カブシキガイシャチュウオウケン",
      "business_type": "㉕ そうざい製造業",
      "address": "佐賀県鳥栖市京町729",
      "lat": 33.3734,
      "lng": 130.518414,
      "geocoding_level": null,
      "phone": "0942823166",
      "license_no": "佐賀県指令４鳥保福 第490号",
      "license_date": "2023-02-28",
      "expire_date": "2029-02-28"
    },
    {
      "name": "中央軒　鳥栖駅1・2番ホーム売店",
      "name_kana": "チュウオウケン　トスエキイチニバンホームバイテン",
      "business_type": "① 飲食店営業",
      "address": "佐賀県鳥栖市京町709番地 JR九州鳥栖駅構内",
      "lat": 33.374081,
      "lng": 130.51945,
      "geocoding_level": null,
      "phone": "0942823166",
      "license_no": "佐賀県指令４鳥保福 第491号",
      "license_date": "2023-02-28",
      "expire_date": "2029-02-28"
    },
    {
      "name": "中央軒　鳥栖駅3・4番ホーム売店",
      "name_kana": "チュウオウケン　トスエキサンヨンバンホームバイテン",
      "business_type": "① 飲食店営業",
      "address": "佐賀県鳥栖市京町709番地 JR九州鳥栖駅構内",
      "lat": 33.374081,
      "lng": 130.51945,
      "geocoding_level": null,
      "phone": "0942823166",
      "license_no": "佐賀県指令４鳥保福 第492号",
      "license_date": "2023-02-28",
      "expire_date": "2029-02-28"
    },