{
  "meta": {
    "updated": 1783568789,
    "sources": [
      {
        "source": "厚生労働省 食品衛生申請等システム（オープンデータ）",
        "license": "公共データ利用規約（第1.0版, PDL1.0）"
      }
    ]
  },
  "data": [
    {
      "name": "水戸ヤクルト販売㈱大洗センター",
      "name_kana": "ミトヤクルトハンバイカブシキガイシャオオアライセンター",
      "business_type": "⑬ その他の食料・飲料販売業",
      "address": "茨城県東茨城郡大洗町磯浜町5362",
      "lat": 36.31903,
      "lng": 140.578344,
      "geocoding_level": null,
      "phone": "029-266-3350",
      "license_no": "",
      "license_date": null,
      "expire_date": null
    },
    {
      "name": "株式会社セイミヤ大洗店",
      "name_kana": "カブシキガイシャセイミヤオオアライテン",
      "business_type": "⑪ 百貨店、総合スーパー",
      "address": "茨城県東茨城郡大洗町港中央11-3",
      "lat": 36.309912,
      "lng": 140.569969,
      "geocoding_level": null,
      "phone": "0292291501",
      "license_no": "",
      "license_date": null,
      "expire_date": null
    },
    {
      "name": "さんふらわあかむい",
      "name_kana": "サンフラワアカムイ",
      "business_type": "⑫ 自動販売機による販売業（コップ式自動販売機（自動洗浄・屋内設置）及び営業許可の対象となる自動販売機を除く）",
      "address": "茨城県東茨城郡大洗町港中央１",
      "lat": 36.309223,
      "lng": 140.574386,
      "geocoding_level": null,
      "phone": "0292674133",
      "license_no": "",
      "license_date": null,
      "expire_date": null
    },
    {
      "name": "大洗観光おもてなし推進協議会",
      "name_kana": "オオアライカンコウオモテナシスイシンキョウギカイ",
      "business_type": "⑤ コップ式自動販売機（自動洗浄・屋内設置）",
      "address": "茨城県東茨城郡大洗町桜道301 うみまちテラス",
      "lat": 36.315042,
      "lng": 140.562942,
      "geocoding_level": null,
      "phone": "0293522715",
      "license_no": "",
      "license_date": null,
      "expire_date": null
    },
    {
      "name": "Good price",
      "name_kana": "グッドプライス",
      "business_type": "㉔ その他の食料品製造・加工業",
      "address": "茨城県東茨城郡大洗町磯浜町8226",
      "lat": 36.328848,
      "lng": 140.586474,
      "geocoding_level": null,
      "phone": "09069102759",
      "license_no": "",
      "license_date": null,
      "expire_date": null
    },
    {
      "name": "なぎさ農園",
      "name_kana": "ナギサノウエン",
      "business_type": "⑦ 野菜果物販売業",
      "address": "茨城県東茨城郡大洗町桜道東茨城郡大洗町, 桜道456-2",
      "lat": 36.317978,
      "lng": 140.561536,
      "geocoding_level": null,
      "phone": "0292675149",
      "license_no": "",
      "license_date": null,
      "expire_date": null
    },
    {
      "name": "なぎさ農園",
      "name_kana": "ナギサノウエン",
      "business_type": "⑰ 農産保存食料品製造・加工業",
      "address": "茨城県東茨城郡大洗町桜道東茨城郡大洗町, 桜道456-2",
      "lat": 36.317978,
      "lng": 140.561536,
      "geocoding_level": null,
      "phone": "0292675149",
      "license_no": "",
      "license_date": null,
      "expire_date": null
    },
    {
      "name": "JA大洗直売所販売",
      "name_kana": "ジェイエイオオアライチョクバイジョハンバイ",
      "business_type": "⑬ その他の食料・飲料販売業",
      "address": "茨城県東茨城郡大洗町磯浜町8253-18",
      "lat": 36.311489,
      "lng": 140.581811,
      "geocoding_level": null,
      "phone": "029-226-0831",
      "license_no": "",
      "license_date": null,
      "expire_date": null
    },
    {
      "name": "JA大洗直売所販売",
      "name_kana": "ジェイエイオオアライチョクバイジョハンバイ",
      "business_type": "⑬ その他の食料・飲料販売業",
      "address": "茨城県東茨城郡大洗町磯浜町8253-18",
      "lat": 36.311489,
      "lng": 140.581811,
      "geocoding_level": null,
      "phone": "029-226-0831",
      "license_no": "",
      "license_date": null,
      "expire_date": null
    },
    {
      "name": "JA水戸大洗地区農産物直売所",
      "name_kana": "ジェイエイミトオオアライチクノウサンブツチョクバイジョ",
      "business_type": "⑬ その他の食料・飲料販売業",
      "address": "茨城県東茨城郡大洗町磯浜町8253-18",
      "lat": 36.311489,
      "lng": 140.581811,
      "geocoding_level": null,
      "phone": "",
      "license_no": "",
      "license_date": null,
      "expire_date": null
    },
    {
      "name": "大洗町立第一保育所",
      "name_kana": "オオアライチョウリツダイイチホイクショ",
      "business_type": "㉖ 集団給食施設",
      "address": "茨城県東茨城郡大洗町磯浜町6823",
      "lat": 36.314146,
      "lng": 140.579857,
      "geocoding_level": null,
      "phone": "0292672671",
      "license_no": "",
      "license_date": null,
      "expire_date": null
    },
    {
      "name": "ウエルシア大洗磯浜店",
      "name_kana": "ウエルシアオオアライイソハマテン",
      "business_type": "⑪ 百貨店、総合スーパー",
      "address": "茨城県東茨城郡大洗町磯浜町3465番地1",
      "lat": 36.318721,
      "lng": 140.570306,
      "geocoding_level": null,
      "phone": "029-267-3188",
      "license_no": "",
      "license_date": null,
      "expire_date": null
    },
    {
      "name": "日本原子力研究開発機構大洗研究所南売店",
      "name_kana": "ニホンゲンシリョクケンキュウカイハツキコウオオアライケンキュウジョ",
      "business_type": "⑬ その他の食料・飲料販売業",
      "address": "茨城県東茨城郡大洗町成田町4002",
      "lat": 36.261863,
      "lng": 140.545768,
      "geocoding_level": null,
      "phone": "029-267-6621",
      "license_no": "",
      "license_date": null,
      "expire_date": null
    },
    {
      "name": "日本原子力研究開発機構大洗研究所北売店",
      "name_kana": "ニホンゲンシリョクケンキュウカイハツキコウオオアラ",
      "business_type": "⑬ その他の食料・飲料販売業",
      "address": "茨城県東茨城郡大洗町成田町4002",
      "lat": 36.261863,
      "lng": 140.545768,
      "geocoding_level": null,
      "phone": "029-266-7227",
      "license_no": "",
      "license_date": null,
      "expire_date": null
    },
    {
      "name": "株式会社芋國屋",
      "name_kana": "カブシキガイシャイモクニヤ",
      "business_type": "㉔ その他の食料品製造・加工業",
      "address": "茨城県東茨城郡大洗町磯浜町8226",
      "lat": 36.328848,
      "lng": 140.586474,
      "geocoding_level": null,
      "phone": "09069102759",
      "license_no": "",
      "license_date": null,
      "expire_date": null
    },
    {
      "name": "キッチンカーニバル",
      "name_kana": "キッチンカーニバル",
      "business_type": "① 飲食店営業",
      "address": "茨城県東茨城郡大洗町茨城県内一円",
      "lat": 36.313398,
      "lng": 140.574878,
      "geocoding_level": null,
      "phone": "080-5548-0115",
      "license_no": "中保指令法第240462号",
      "license_date": "2024-08-01",
      "expire_date": "2029-08-31"
    },
    {
      "name": "特別養護老人ホームうみべの家",
      "name_kana": "トクベツヨウゴロウジンホームウミベノイエ",
      "business_type": "① 飲食店営業",
      "address": "茨城県東茨城郡大洗町大貫町255-5",
      "lat": 36.301403,
      "lng": 140.561364,
      "geocoding_level": null,
      "phone": "",
      "license_no": "中保指令法第230509号",
      "license_date": "2023-09-29",
      "expire_date": "2029-09-30"
    },
    {
      "name": "お弁当物語大洗ホテル店",
      "name_kana": "オベントウモノガタリオオアライホテルテン",
      "business_type": "⑥ 弁当販売業",
      "address": "茨城県東茨城郡大洗町磯浜町6881",
      "lat": 36.312285,
      "lng": 140.570204,
      "geocoding_level": null,
      "phone": "",
      "license_no": "",
      "license_date": null,
      "expire_date": null
    },
    {
      "name": "GREEN　POT　COFFEE",
      "name_kana": "グリーン　ポット　コーヒー",
      "business_type": "⑯ コーヒー製造・加工業（飲料の製造を除く。）",
      "address": "茨城県東茨城郡大洗町磯道131-2",
      "lat": 36.322204,
      "lng": 140.579229,
      "geocoding_level": null,
      "phone": "08010949327",
      "license_no": "",
      "license_date": null,
      "expire_date": null
    },
    {
      "name": "ＨＯＷ大洗海岸病院売店",
      "name_kana": "ハウオオアライカイガンビョウインバイテン",
      "business_type": "⑩ コンビニエンスストア",
      "address": "茨城県東茨城郡大洗町大貫町915",
      "lat": 36.301626,
      "lng": 140.558734,
      "geocoding_level": null,
      "phone": "029-266-0902",
      "license_no": "",
      "license_date": null,
      "expire_date": null
    },
    {
      "name": "株式会社PlusUltra",
      "name_kana": "カブシキカイシャプラスウルトラ",
      "business_type": "⑨ 通信販売・訪問販売による販売業",
      "address": "茨城県東茨城郡大洗町一円",
      "lat": 36.313398,
      "lng": 140.574878,
      "geocoding_level": null,
      "phone": "0249-83-6620",
      "license_no": "",
      "license_date": null,
      "expire_date": null
    },
    {
      "name": "大洗パークホテル",
      "name_kana": "オオアライパークホテル",
      "business_type": "⑬ その他の食料・飲料販売業",
      "address": "茨城県東茨城郡大洗町磯浜町8249-10",
      "lat": 36.330384,
      "lng": 140.591901,
      "geocoding_level": null,
      "phone": "",
      "license_no": "",
      "license_date": null,
      "expire_date": null
    },
    {
      "name": "ココス大洗店",
      "name_kana": "ココスオオアライテン",
      "business_type": "⑬ その他の食料・飲料販売業",
      "address": "茨城県東茨城郡大洗町磯道145－1",
      "lat": 36.321668,
      "lng": 140.578752,
      "geocoding_level": null,
      "phone": "050-3333-8572",
      "license_no": "",
      "license_date": null,
      "expire_date": null
    },
    {
      "name": "かに弥",
      "name_kana": "カニヤ",
      "business_type": "⑬ その他の食料・飲料販売業",
      "address": "茨城県東茨城郡大洗町磯浜町8253-22",
      "lat": 36.311457,
      "lng": 140.581315,
      "geocoding_level": null,
      "phone": "",
      "license_no": "",
      "license_date": null,
      "expire_date": null
    },
    {
      "name": "トーホー工業株式会社　常磐営業所",
      "name_kana": "トーホーコウギョウ　ジョウバン",
      "business_type": "㉗ 器具、容器包装の製造・加工業（合成樹脂が使用された器具又は容器包装の製造、加工に限る。）",
      "address": "茨城県東茨城郡大洗町五反田497",
      "lat": 36.32356,
      "lng": 140.573982,
      "geocoding_level": null,
      "phone": "",
      "license_no": "",
      "license_date": null,
      "expire_date": null
    },
    {
      "name": "=COFFEE",
      "name_kana": "イコールコーヒー",
      "business_type": "⑯ コーヒー製造・加工業（飲料の製造を除く。）",
      "address": "茨城県東茨城郡大洗町磯浜町5520",
      "lat": 36.320242,
      "lng": 140.579715,
      "geocoding_level": null,
      "phone": "08090318953",
      "license_no": "",
      "license_date": null,
      "expire_date": null
    },
    {
      "name": "株式会社ステージネット",
      "name_kana": "ステージネット",
      "business_type": "⑦ 野菜果物販売業",
      "address": "茨城県東茨城郡大洗町磯浜町６８８１番地 大洗ホテル内",
      "lat": 36.312285,
      "lng": 140.570204,
      "geocoding_level": null,
      "phone": "029-212-8311",
      "license_no": "",
      "license_date": null,
      "expire_date": null
    }
  ]
}
