{
  "meta": {
    "updated": 1783568789,
    "sources": [
      {
        "source": "厚生労働省 食品衛生申請等システム（オープンデータ）",
        "license": "公共データ利用規約（第1.0版, PDL1.0）"
      }
    ]
  },
  "data": [
    {
      "name": "大五水産",
      "name_kana": "ダイゴスイサン",
      "business_type": "⑯ 水産製品製造業",
      "address": "和歌山県日高郡由良町阿戸1001-12",
      "lat": 33.956127,
      "lng": 135.113923,
      "geocoding_level": null,
      "phone": "0738-65-2740",
      "license_no": "6-21-1-16-017",
      "license_date": "2021-06-28",
      "expire_date": "2027-07-31"
    },
    {
      "name": "株式会社ゆらちょう",
      "name_kana": "カブシキカイシャユラチョウ",
      "business_type": "㉔ その他の食料品製造・加工業",
      "address": "和歌山県日高郡由良町神谷213",
      "lat": 33.958562,
      "lng": 135.084721,
      "geocoding_level": null,
      "phone": "08040151829",
      "license_no": "",
      "license_date": null,
      "expire_date": null
    },
    {
      "name": "中嶋",
      "name_kana": "ナカシマ",
      "business_type": "① 飲食店営業",
      "address": "和歌山県日高郡由良町衣奈765",
      "lat": 33.988525,
      "lng": 135.10661,
      "geocoding_level": null,
      "phone": "",
      "license_no": "6-21-1-01-029",
      "license_date": "2021-07-19",
      "expire_date": "2027-07-31"
    },
    {
      "name": "Locanda conca d'oro",
      "name_kana": "ロカンダ　コンカ　ドーロ",
      "business_type": "① 飲食店営業",
      "address": "和歌山県日高郡由良町小引614－7",
      "lat": 33.986024,
      "lng": 135.090797,
      "geocoding_level": null,
      "phone": "",
      "license_no": "6-21-1-01-030",
      "license_date": "2021-07-19",
      "expire_date": "2027-07-31"
    },
    {
      "name": "Locanda conca d'oro",
      "name_kana": "ロカンダ　コンカ　ドーロ",
      "business_type": "⑪ 菓子製造業",
      "address": "和歌山県日高郡由良町小引614番地の7",
      "lat": 33.98609,
      "lng": 135.091084,
      "geocoding_level": null,
      "phone": "0738-70-0380",
      "license_no": "6-24-1-11-137",
      "license_date": "2025-02-27",
      "expire_date": "2031-04-30"
    },
    {
      "name": "原長",
      "name_kana": "ハラチョウ",
      "business_type": "① 飲食店営業",
      "address": "和歌山県日高郡由良町里35-2",
      "lat": 33.961448,
      "lng": 135.118518,
      "geocoding_level": null,
      "phone": "0738650076",
      "license_no": "6-21-1-01-035",
      "license_date": "2021-07-29",
      "expire_date": "2027-07-31"
    },
    {
      "name": "紀州日高漁業協同組合　衣奈浦支所",
      "name_kana": "キシュウヒダカギョギョウキョウドウクミアイ　エナウラシショ",
      "business_type": "㉕ そうざい製造業",
      "address": "和歌山県日高郡由良町衣奈831-3",
      "lat": 33.988539,
      "lng": 135.109706,
      "geocoding_level": null,
      "phone": "",
      "license_no": "6-23-1-25-002",
      "license_date": "2023-04-07",
      "expire_date": "2029-04-30"
    },
    {
      "name": "三菱重工由良基地社員食堂",
      "name_kana": "ミツビシジュウコウユラキチシャインショクドウ",
      "business_type": "① 飲食店営業",
      "address": "和歌山県日高郡由良町阿戸708",
      "lat": 33.959338,
      "lng": 135.117549,
      "geocoding_level": null,
      "phone": "0738650056",
      "license_no": "6-21-1-01-044",
      "license_date": "2021-07-30",
      "expire_date": "2027-07-31"
    },
    {
      "name": "愛島",
      "name_kana": "アイシマ",
      "business_type": "① 飲食店営業",
      "address": "和歌山県日高郡由良町衣奈１０６９",
      "lat": 33.993155,
      "lng": 135.112243,
      "geocoding_level": null,
      "phone": "0738704593",
      "license_no": "6-21-1-01-054",
      "license_date": "2021-08-06",
      "expire_date": "2027-10-31"
    },
    {
      "name": "BALORICCO",
      "name_kana": "バロリッコ",
      "business_type": "① 飲食店営業",
      "address": "和歌山県日高郡由良町衣奈１０６９",
      "lat": 33.993155,
      "lng": 135.112243,
      "geocoding_level": null,
      "phone": "",
      "license_no": "6-22-1-01-001",
      "license_date": "2022-04-11",
      "expire_date": "2028-04-30"
    },
    {
      "name": "山口",
      "name_kana": "ヤマグチ",
      "business_type": "㉔ その他の食料品製造・加工業",
      "address": "和歌山県日高郡由良町三尾川69",
      "lat": 33.995872,
      "lng": 135.134851,
      "geocoding_level": null,
      "phone": "0738660425",
      "license_no": "",
      "license_date": null,
      "expire_date": null
    },
    {
      "name": "干物や",
      "name_kana": "ヒモノヤ",
      "business_type": "① 飲食店営業",
      "address": "和歌山県日高郡由良町大引960-1",
      "lat": 33.977065,
      "lng": 135.069429,
      "geocoding_level": null,
      "phone": "",
      "license_no": "6-21-1-01-056",
      "license_date": "2021-08-06",
      "expire_date": "2026-10-31"
    },
    {
      "name": "ライスショップ　スマイル",
      "name_kana": "ライスショップ　スマイル",
      "business_type": "⑧ 米穀類販売業",
      "address": "和歌山県日高郡由良町衣奈575-1",
      "lat": 33.984397,
      "lng": 135.110925,
      "geocoding_level": null,
      "phone": "0738660014",
      "license_no": "",
      "license_date": null,
      "expire_date": null
    },
    {
      "name": "清水農園",
      "name_kana": "シミズノウエン",
      "business_type": "㉔ その他の食料品製造・加工業",
      "address": "和歌山県日高郡由良町三尾川113",
      "lat": 33.997497,
      "lng": 135.133244,
      "geocoding_level": null,
      "phone": "0738660781",
      "license_no": "",
      "license_date": null,
      "expire_date": null
    },
    {
      "name": "特別養護老人ホーム　ゆら博愛園",
      "name_kana": "トクベツヨウゴロウジンホーム　ユラハクアイエン",
      "business_type": "㉖ 集団給食施設",
      "address": "和歌山県日高郡由良町吹井910-1",
      "lat": 33.969446,
      "lng": 135.106631,
      "geocoding_level": null,
      "phone": "0738352500",
      "license_no": "",
      "license_date": null,
      "expire_date": null
    },
    {
      "name": "山和",
      "name_kana": "ヤマカズ",
      "business_type": "① 飲食店営業",
      "address": "和歌山県日高郡由良町阿戸1001-15",
      "lat": 33.956188,
      "lng": 135.114187,
      "geocoding_level": null,
      "phone": "0738652400",
      "license_no": "6-21-1-01-069",
      "license_date": "2021-09-21",
      "expire_date": "2027-10-31"
    },
    {
      "name": "錦花堂",
      "name_kana": "キンカドウ",
      "business_type": "⑪ 菓子製造業",
      "address": "和歌山県日高郡由良町里1356",
      "lat": 33.960321,
      "lng": 135.118707,
      "geocoding_level": null,
      "phone": "0738650072",
      "license_no": "6-21-1-11-070",
      "license_date": "2021-09-21",
      "expire_date": "2027-10-31"
    },
    {
      "name": "平佐館",
      "name_kana": "ヒラサカン",
      "business_type": "① 飲食店営業",
      "address": "和歌山県日高郡由良町吹井７１５",
      "lat": 33.962816,
      "lng": 135.09942,
      "geocoding_level": null,
      "phone": "0738-65-1023",
      "license_no": "6-21-1-01-072",
      "license_date": "2021-09-29",
      "expire_date": "2027-10-31"
    },
    {
      "name": "平佐館",
      "name_kana": "ヒラサカン",
      "business_type": "㉚ 密封包装食品製造業",
      "address": "和歌山県日高郡由良町吹井７１５",
      "lat": 33.962816,
      "lng": 135.09942,
      "geocoding_level": null,
      "phone": "0738-65-1023",
      "license_no": "6-21-1-30-072",
      "license_date": "2021-09-29",
      "expire_date": "2027-10-31"
    },
    {
      "name": "みよし",
      "name_kana": "ミヨシ",
      "business_type": "① 飲食店営業",
      "address": "和歌山県日高郡由良町里63",
      "lat": 33.961593,
      "lng": 135.119236,
      "geocoding_level": null,
      "phone": "0738651096",
      "license_no": "6-21-1-01-075",
      "license_date": "2021-10-05",
      "expire_date": "2027-10-31"
    },
    {
      "name": "魚政商店",
      "name_kana": "ウオマサショウテン",
      "business_type": "⑯ 水産製品製造業",
      "address": "和歌山県日高郡由良町網代201-17",
      "lat": 33.961012,
      "lng": 135.115749,
      "geocoding_level": null,
      "phone": "0738650061",
      "license_no": "6-21-1-16-076",
      "license_date": "2021-10-05",
      "expire_date": "2027-10-31"
    },
    {
      "name": "魚政商店",
      "name_kana": "ウオマサショウテン",
      "business_type": "⑯ 水産製品製造業",
      "address": "和歌山県日高郡由良町里320-1",
      "lat": 33.962354,
      "lng": 135.123711,
      "geocoding_level": null,
      "phone": "0738652974",
      "license_no": "6-21-1-16-077",
      "license_date": "2021-10-05",
      "expire_date": "2027-10-31"
    },
    {
      "name": "喫茶ホット",
      "name_kana": "キッサホット",
      "business_type": "① 飲食店営業",
      "address": "和歌山県日高郡由良町里1215",
      "lat": 33.959319,
      "lng": 135.119008,
      "geocoding_level": null,
      "phone": "0738650975",
      "license_no": "6-21-1-01-092",
      "license_date": "2021-10-13",
      "expire_date": "2027-10-31"
    },
    {
      "name": "濵野水産",
      "name_kana": "ハマノスイサン",
      "business_type": "④ 魚介類販売業",
      "address": "和歌山県日高郡由良町網代193-23",
      "lat": 33.96024,
      "lng": 135.112717,
      "geocoding_level": null,
      "phone": "0738651358",
      "license_no": "6-21-1-04-108",
      "license_date": "2021-10-27",
      "expire_date": "2027-10-31"
    },
    {
      "name": "リングスリー",
      "name_kana": "リングスリー",
      "business_type": "① 飲食店営業",
      "address": "和歌山県日高郡由良町阿戸976-3",
      "lat": 33.954465,
      "lng": 135.122669,
      "geocoding_level": null,
      "phone": "",
      "license_no": "6-21-1-01-109",
      "license_date": "2021-10-27",
      "expire_date": "2027-10-31"
    },
    {
      "name": "由良町立　ゆらこども園",
      "name_kana": "ユラチョウリツ　ユラコドモエン",
      "business_type": "㉖ 集団給食施設",
      "address": "和歌山県日高郡由良町畑162-3",
      "lat": 33.979028,
      "lng": 135.145275,
      "geocoding_level": null,
      "phone": "0738652050",
      "license_no": "",
      "license_date": null,
      "expire_date": null
    },
    {
      "name": "小浦",
      "name_kana": "オウラ",
      "business_type": "㉔ その他の食料品製造・加工業",
      "address": "和歌山県日高郡由良町小引４９２",
      "lat": 33.981917,
      "lng": 135.091016,
      "geocoding_level": null,
      "phone": "09059734747",
      "license_no": "",
      "license_date": null,
      "expire_date": null
    },
    {
      "name": "大江",
      "name_kana": "オオエ",
      "business_type": "㉔ その他の食料品製造・加工業",
      "address": "和歌山県日高郡由良町衣奈53",
      "lat": 33.989668,
      "lng": 135.104889,
      "geocoding_level": null,
      "phone": "0738660437",
      "license_no": "",
      "license_date": null,
      "expire_date": null
    },
    {
      "name": "浜口商店",
      "name_kana": "ハマグチショウテン",
      "business_type": "③ 乳類販売業",
      "address": "和歌山県日高郡由良町里26-1",
      "lat": 33.960476,
      "lng": 135.118816,
      "geocoding_level": null,
      "phone": "0738650066",
      "license_no": "",
      "license_date": null,
      "expire_date": null
    },
    {
      "name": "浜口商店",
      "name_kana": "ハマグチショウテン",
      "business_type": "⑦ 野菜果物販売業",
      "address": "和歌山県日高郡由良町里26-1",
      "lat": 33.960476,
      "lng": 135.118816,
      "geocoding_level": null,
      "phone": "0738650066",
      "license_no": "",
      "license_date": null,
      "expire_date": null
    },
    {
      "name": "かね長　浜口商店",
      "name_kana": "カネチョウ　ハマグチショウテン",
      "business_type": "④ 魚介類販売業",
      "address": "和歌山県日高郡由良町里26-1",
      "lat": 33.960476,
      "lng": 135.118816,
      "geocoding_level": null,
      "phone": "0738-65-0066",
      "license_no": "6-24-1-04-086",
      "license_date": "2024-10-24",
      "expire_date": "2030-10-31"
    },
    {
      "name": "マルワ商店",
      "name_kana": "マルワショウテン",
      "business_type": "⑦ 野菜果物販売業",
      "address": "和歌山県日高郡由良町畑34",
      "lat": 33.977454,
      "lng": 135.143803,
      "geocoding_level": null,
      "phone": "09065532797",
      "license_no": "",
      "license_date": null,
      "expire_date": null
    },
    {
      "name": "柳瀬牛乳販売店",
      "name_kana": "ヤナセギュウニュウハンバイテン",
      "business_type": "③ 乳類販売業",
      "address": "和歌山県日高郡由良町里348-1",
      "lat": 33.962373,
      "lng": 135.128404,
      "geocoding_level": null,
      "phone": "0738-65-0260",
      "license_no": "",
      "license_date": null,
      "expire_date": null
    },
    {
      "name": "加藤販売所",
      "name_kana": "カトウハンバイショ",
      "business_type": "③ 乳類販売業",
      "address": "和歌山県日高郡由良町吹井252-34",
      "lat": 33.967937,
      "lng": 135.10381,
      "geocoding_level": null,
      "phone": "0738-65-3211",
      "license_no": "",
      "license_date": null,
      "expire_date": null
    },
    {
      "name": "株式会社関西流通システム",
      "name_kana": "カブシキガイシャカンサイリュウツウシステム",
      "business_type": "③ 乳類販売業",
      "address": "和歌山県日高郡由良町江ノ駒69",
      "lat": 33.962687,
      "lng": 135.113904,
      "geocoding_level": null,
      "phone": "0738-65-1017",
      "license_no": "",
      "license_date": null,
      "expire_date": null
    },
    {
      "name": "株式会社関西流通システム",
      "name_kana": "カブシキガイシャカンサイリュウツウシステム",
      "business_type": "① 魚介類販売業（包装済みの魚介類のみの販売）",
      "address": "和歌山県日高郡由良町江ノ駒69",
      "lat": 33.962687,
      "lng": 135.113904,
      "geocoding_level": null,
      "phone": "0738-65-1017",
      "license_no": "",
      "license_date": null,
      "expire_date": null
    },
    {
      "name": "株式会社関西流通システム",
      "name_kana": "カブシキガイシャカンサイリュウツウシステム",
      "business_type": "② 食肉販売業（包装済みの食肉のみの販売）",
      "address": "和歌山県日高郡由良町江ノ駒69",
      "lat": 33.962687,
      "lng": 135.113904,
      "geocoding_level": null,
      "phone": "0738-65-1017",
      "license_no": "",
      "license_date": null,
      "expire_date": null
    },
    {
      "name": "株式会社関西流通システム",
      "name_kana": "カブシキガイシャカンサイリュウツウシステム",
      "business_type": "③ 乳類販売業",
      "address": "和歌山県日高郡由良町江ノ駒69",
      "lat": 33.962687,
      "lng": 135.113904,
      "geocoding_level": null,
      "phone": "0738-65-1017",
      "license_no": "",
      "license_date": null,
      "expire_date": null
    },
    {
      "name": "ローソン由良町門前店",
      "name_kana": "ローソンユラチョウモンゼンテン",
      "business_type": "③ 乳類販売業",
      "address": "和歌山県日高郡由良町門前431－1",
      "lat": 33.970409,
      "lng": 135.129697,
      "geocoding_level": null,
      "phone": "0738-65-1551",
      "license_no": "",
      "license_date": null,
      "expire_date": null
    },
    {
      "name": "長浜牛乳店",
      "name_kana": "ナガハマギュウニュウテン",
      "business_type": "③ 乳類販売業",
      "address": "和歌山県日高郡由良町里220",
      "lat": 33.96013,
      "lng": 135.120085,
      "geocoding_level": null,
      "phone": "0738-65-0372",
      "license_no": "",
      "license_date": null,
      "expire_date": null
    },
    {
      "name": "由良町役場2Ｆ自販機",
      "name_kana": "ユラチョウヤクバ　ニカイジハンキ",
      "business_type": "③ 乳類販売業",
      "address": "和歌山県日高郡由良町里1220－1",
      "lat": 33.961332,
      "lng": 135.124222,
      "geocoding_level": null,
      "phone": "0738-65-0200",
      "license_no": "",
      "license_date": null,
      "expire_date": null
    },
    {
      "name": "由良みのり園　自販機",
      "name_kana": "ユラミノリエン　ジハンキ",
      "business_type": "⑫ 自動販売機による販売業（コップ式自動販売機（自動洗浄・屋内設置）及び営業許可の対象となる自動販売機を除く）",
      "address": "和歌山県日高郡由良町吹井949",
      "lat": 33.970129,
      "lng": 135.110399,
      "geocoding_level": null,
      "phone": "0738-65-2660",
      "license_no": "",
      "license_date": null,
      "expire_date": null
    },
    {
      "name": "きになる yone。",
      "name_kana": "キニナルヨネ",
      "business_type": "⑪ 菓子製造業",
      "address": "和歌山県日高郡由良町大引787－91",
      "lat": 33.964794,
      "lng": 135.087852,
      "geocoding_level": null,
      "phone": "",
      "license_no": "6-21-1-11-142",
      "license_date": "2022-01-28",
      "expire_date": "2028-01-31"
    },
    {
      "name": "三井造船株式会社",
      "name_kana": "ミツイゾウセンカブシキガイシャ",
      "business_type": "① 飲食店営業",
      "address": "和歌山県日高郡由良町江ノ駒193‐13 シーサイド由良2F",
      "lat": 33.966477,
      "lng": 135.115548,
      "geocoding_level": null,
      "phone": "",
      "license_no": "6-23-1-01-047",
      "license_date": "2023-07-28",
      "expire_date": "2029-07-31"
    },
    {
      "name": "里村商店",
      "name_kana": "サトムラショウテン",
      "business_type": "⑬ その他の食料・飲料販売業",
      "address": "和歌山県日高郡由良町里242",
      "lat": 33.959932,
      "lng": 135.119072,
      "geocoding_level": null,
      "phone": "0738-65-0174",
      "license_no": "",
      "license_date": null,
      "expire_date": null
    },
    {
      "name": "ローソン由良町門前店",
      "name_kana": "ローソンユラチョウモンゼンテン",
      "business_type": "① 飲食店営業",
      "address": "和歌山県日高郡由良町門前431-1",
      "lat": 33.97033,
      "lng": 135.129616,
      "geocoding_level": null,
      "phone": "0738-52-7755",
      "license_no": "6-26-1-01-006",
      "license_date": "2026-04-09",
      "expire_date": "2032-04-30"
    },
    {
      "name": "ローソン由良町門前店",
      "name_kana": "ローソンユラチョウモンゼンテン",
      "business_type": "⑩ コンビニエンスストア",
      "address": "和歌山県日高郡由良町門前431-1",
      "lat": 33.97033,
      "lng": 135.129616,
      "geocoding_level": null,
      "phone": "0738-52-7755",
      "license_no": "",
      "license_date": null,
      "expire_date": null
    },
    {
      "name": "有限会社　クレセル",
      "name_kana": "ユウゲンガイシャ　クレセル",
      "business_type": "⑪ 菓子製造業",
      "address": "和歌山県日高郡由良町吹井949-18",
      "lat": 33.968879,
      "lng": 135.107571,
      "geocoding_level": null,
      "phone": "",
      "license_no": "6-22-1-11-091",
      "license_date": "2022-10-31",
      "expire_date": "2028-10-31"
    },
    {
      "name": "（有）クレセル",
      "name_kana": "ユウゲンガイシャクレセル",
      "business_type": "① 飲食店営業",
      "address": "和歌山県日高郡由良町吹井949-18",
      "lat": 33.968879,
      "lng": 135.107571,
      "geocoding_level": null,
      "phone": "",
      "license_no": "6-22-1-01-124",
      "license_date": "2023-01-31",
      "expire_date": "2029-01-31"
    },
    {
      "name": "髙垣旅館",
      "name_kana": "タカガキリョカン",
      "business_type": "① 飲食店営業",
      "address": "和歌山県日高郡由良町阿戸219",
      "lat": 33.955713,
      "lng": 135.114196,
      "geocoding_level": null,
      "phone": "0738-65-1306",
      "license_no": "6-21-1-01-181",
      "license_date": "2022-04-01",
      "expire_date": "2028-04-30"
    },
    {
      "name": "由良みのり園厨房",
      "name_kana": "ユラミノリエンチュウボウ",
      "business_type": "① 飲食店営業",
      "address": "和歌山県日高郡由良町吹井949",
      "lat": 33.970129,
      "lng": 135.110399,
      "geocoding_level": null,
      "phone": "0738-65-1619",
      "license_no": "6-21-1-01-182",
      "license_date": "2022-04-01",
      "expire_date": "2028-04-30"
    },
    {
      "name": "あかつき園厨房",
      "name_kana": "アカツキエンチュウボウ",
      "business_type": "① 飲食店営業",
      "address": "和歌山県日高郡由良町吹井130",
      "lat": 33.971342,
      "lng": 135.112474,
      "geocoding_level": null,
      "phone": "",
      "license_no": "6-24-1-01-144",
      "license_date": "2025-03-17",
      "expire_date": "2032-04-30"
    },
    {
      "name": "ＪＡ紀州Ａコープゆら店",
      "name_kana": "ジェイエーキシュウコープユラテン",
      "business_type": "⑤ コップ式自動販売機（自動洗浄・屋内設置）",
      "address": "和歌山県日高郡由良町里２７９－１",
      "lat": 33.960153,
      "lng": 135.122158,
      "geocoding_level": null,
      "phone": "0738-65-3121",
      "license_no": "",
      "license_date": null,
      "expire_date": null
    },
    {
      "name": "（株）檜屋",
      "name_kana": "ヒノキヤ",
      "business_type": "⑳ みそ又はしょうゆ製造業",
      "address": "和歌山県日高郡由良町門前554-3",
      "lat": 33.970785,
      "lng": 135.129226,
      "geocoding_level": null,
      "phone": "0738-65-3007",
      "license_no": "6-22-1-20-031",
      "license_date": "2022-06-28",
      "expire_date": "2028-07-31"
    },
    {
      "name": "平林農園",
      "name_kana": "ヒラバヤシノウエン",
      "business_type": "㉔ その他の食料品製造・加工業",
      "address": "和歌山県日高郡由良町吹井372",
      "lat": 33.969193,
      "lng": 135.10054,
      "geocoding_level": null,
      "phone": "0738-65-1563",
      "license_no": "",
      "license_date": null,
      "expire_date": null
    },
    {
      "name": "江の駒食堂",
      "name_kana": "エノコマショクドウ",
      "business_type": "① 飲食店営業",
      "address": "和歌山県日高郡由良町吹井910-5",
      "lat": 33.968963,
      "lng": 135.106327,
      "geocoding_level": null,
      "phone": "0738-65-1504",
      "license_no": "6-22-1-01-068",
      "license_date": "2022-09-28",
      "expire_date": "2028-10-31"
    },
    {
      "name": "民宿　うしお",
      "name_kana": "ミンシュク　ウシオ",
      "business_type": "⑪ 菓子製造業",
      "address": "和歌山県日高郡由良町神谷228-1",
      "lat": 33.958936,
      "lng": 135.084581,
      "geocoding_level": null,
      "phone": "0738-65-1570",
      "license_no": "6-22-1-11-123",
      "license_date": "2023-01-31",
      "expire_date": "2029-01-31"
    },
    {
      "name": "古民家民宿　うしお",
      "name_kana": "コミンカミンシュク　ウシオ",
      "business_type": "① 飲食店営業",
      "address": "和歌山県日高郡由良町神谷228-1",
      "lat": 33.958936,
      "lng": 135.084581,
      "geocoding_level": null,
      "phone": "0738-65-1570",
      "license_no": "6-23-1-01-119",
      "license_date": "2024-01-22",
      "expire_date": "2030-01-31"
    },
    {
      "name": "底物屋",
      "name_kana": "ソコモノヤ",
      "business_type": "⑯ 水産製品製造業",
      "address": "和歌山県日高郡由良町戸津井84",
      "lat": 33.988586,
      "lng": 135.094697,
      "geocoding_level": null,
      "phone": "",
      "license_no": "6-22-1-16-134",
      "license_date": "2023-03-06",
      "expire_date": "2029-04-30"
    },
    {
      "name": "Cafe　Promenade",
      "name_kana": "カフェ　プロムナード",
      "business_type": "① 飲食店営業",
      "address": "和歌山県日高郡由良町中232-8",
      "lat": 33.959285,
      "lng": 135.118236,
      "geocoding_level": null,
      "phone": "",
      "license_no": "6-22-1-01-142",
      "license_date": "2023-03-17",
      "expire_date": "2029-04-30"
    },
    {
      "name": "空とぶからあげ　113号",
      "name_kana": "ソラトブカラアゲ　ヒャクジュウサンゴウ",
      "business_type": "① 飲食店営業",
      "address": "和歌山県日高郡由良町里293-5 カーサグローリアⅠ　101号",
      "lat": 33.962373,
      "lng": 135.128404,
      "geocoding_level": null,
      "phone": "",
      "license_no": "6-22-1-01-143",
      "license_date": "2023-03-17",
      "expire_date": "2029-04-30"
    },
    {
      "name": "観光旅館　美奈都",
      "name_kana": "カンコウリョカン　ミナト",
      "business_type": "① 飲食店営業",
      "address": "和歌山県日高郡由良町衣奈862-2",
      "lat": 33.989712,
      "lng": 135.11146,
      "geocoding_level": null,
      "phone": "0738-66-0052",
      "license_no": "6-22-1-01-146",
      "license_date": "2023-03-22",
      "expire_date": "2029-04-30"
    },
    {
      "name": "白崎海洋公園",
      "name_kana": "シラサキカイヨウコウエン",
      "business_type": "① 飲食店営業",
      "address": "和歌山県日高郡由良町大引960-1",
      "lat": 33.977065,
      "lng": 135.069429,
      "geocoding_level": null,
      "phone": "0738-65-0125",
      "license_no": "6-22-1-01-153",
      "license_date": "2023-03-30",
      "expire_date": "2029-04-30"
    },
    {
      "name": "白崎海洋公園",
      "name_kana": "シラサキカイヨウコウエン",
      "business_type": "⑦ 野菜果物販売業",
      "address": "和歌山県日高郡由良町大引960-1",
      "lat": 33.977065,
      "lng": 135.069429,
      "geocoding_level": null,
      "phone": "0738-65-0125",
      "license_no": "",
      "license_date": null,
      "expire_date": null
    },
    {
      "name": "白崎海洋公園",
      "name_kana": "シラサキカイヨウコウエン",
      "business_type": "⑬ その他の食料・飲料販売業",
      "address": "和歌山県日高郡由良町大引960-1",
      "lat": 33.977065,
      "lng": 135.069429,
      "geocoding_level": null,
      "phone": "0738-65-0125",
      "license_no": "",
      "license_date": null,
      "expire_date": null
    },
    {
      "name": "ストロベリーファーム　白崎",
      "name_kana": "ストロベリーファーム　シラサキ",
      "business_type": "① 飲食店営業",
      "address": "和歌山県日高郡由良町大引845-4",
      "lat": 33.968886,
      "lng": 135.093626,
      "geocoding_level": null,
      "phone": "0738-65-3120",
      "license_no": "6-23-1-01-027",
      "license_date": "2023-06-21",
      "expire_date": "2029-07-31"
    },
    {
      "name": "片山農園",
      "name_kana": "カタヤマノウエン",
      "business_type": "⑳ みそ又はしょうゆ製造業",
      "address": "和歌山県日高郡由良町門前711",
      "lat": 33.973873,
      "lng": 135.126446,
      "geocoding_level": null,
      "phone": "",
      "license_no": "6-23-1-20-043",
      "license_date": "2023-07-24",
      "expire_date": "2029-07-31"
    },
    {
      "name": "お好み焼 ソロ",
      "name_kana": "オコノミヤキ ソロ",
      "business_type": "① 飲食店営業",
      "address": "和歌山県日高郡由良町里424-4",
      "lat": 33.968068,
      "lng": 135.126223,
      "geocoding_level": null,
      "phone": "",
      "license_no": "6-23-1-01-058",
      "license_date": "2023-09-21",
      "expire_date": "2029-10-31"
    },
    {
      "name": "北村商店",
      "name_kana": "キタムラショウテン",
      "business_type": "⑪ 菓子製造業",
      "address": "和歌山県日高郡由良町里6-1",
      "lat": 33.961193,
      "lng": 135.117959,
      "geocoding_level": null,
      "phone": "0738-65-0223",
      "license_no": "6-23-1-11-077",
      "license_date": "2023-10-13",
      "expire_date": "2028-10-31"
    },
    {
      "name": "梅万本舗",
      "name_kana": "ウメヨロズホンポ",
      "business_type": "① 飲食店営業",
      "address": "和歌山県日高郡由良町門前404-16",
      "lat": 33.970274,
      "lng": 135.131422,
      "geocoding_level": null,
      "phone": "",
      "license_no": "6-23-1-01-084",
      "license_date": "2023-10-25",
      "expire_date": "2028-10-31"
    },
    {
      "name": "スクーバサポートサービス",
      "name_kana": "スクーバサポートサービス",
      "business_type": "① 飲食店営業",
      "address": "和歌山県日高郡由良町大引3-2",
      "lat": 33.966681,
      "lng": 135.086241,
      "geocoding_level": null,
      "phone": "0738-65-3331",
      "license_no": "6-23-1-01-088",
      "license_date": "2023-11-10",
      "expire_date": "2030-01-31"
    },
    {
      "name": "みなみ",
      "name_kana": "ミナミ",
      "business_type": "① 飲食店営業",
      "address": "和歌山県日高郡由良町阿戸708番地35",
      "lat": 33.959432,
      "lng": 135.117611,
      "geocoding_level": null,
      "phone": "",
      "license_no": "6-23-1-01-101",
      "license_date": "2023-12-21",
      "expire_date": "2029-01-31"
    },
    {
      "name": "Garlio Shrimp",
      "name_kana": "ガリオ　シュリンプ",
      "business_type": "① 飲食店営業",
      "address": "和歌山県日高郡由良町小引425-1",
      "lat": 33.982375,
      "lng": 135.092233,
      "geocoding_level": null,
      "phone": "",
      "license_no": "6-23-1-01-125",
      "license_date": "2024-02-05",
      "expire_date": "2029-04-30"
    },
    {
      "name": "和",
      "name_kana": "ワ",
      "business_type": "㉔ その他の食料品製造・加工業",
      "address": "和歌山県日高郡由良町畑233",
      "lat": 33.980393,
      "lng": 135.145448,
      "geocoding_level": null,
      "phone": "",
      "license_no": "",
      "license_date": null,
      "expire_date": null
    },
    {
      "name": "和洋食堂　しらしょう",
      "name_kana": "ワヨウショクドウ　シラショウ",
      "business_type": "① 飲食店営業",
      "address": "和歌山県日高郡由良町大引64",
      "lat": 33.967688,
      "lng": 135.087597,
      "geocoding_level": null,
      "phone": "0738-65-1123",
      "license_no": "6-23-1-01-154",
      "license_date": "2024-03-28",
      "expire_date": "2030-04-30"
    },
    {
      "name": "和洋食堂　しらしょう",
      "name_kana": "ワヨウショクドウ　シラショウ",
      "business_type": "④ 魚介類販売業",
      "address": "和歌山県日高郡由良町大引64",
      "lat": 33.967688,
      "lng": 135.087597,
      "geocoding_level": null,
      "phone": "0738-65-1123",
      "license_no": "6-23-1-04-154",
      "license_date": "2024-03-28",
      "expire_date": "2030-04-30"
    },
    {
      "name": "和洋食堂　しらしょう",
      "name_kana": "ワヨウショクドウ　シラショウ",
      "business_type": "⑪ 菓子製造業",
      "address": "和歌山県日高郡由良町大引64",
      "lat": 33.967688,
      "lng": 135.087597,
      "geocoding_level": null,
      "phone": "0738-65-1123",
      "license_no": "6-23-1-11-154",
      "license_date": "2024-03-28",
      "expire_date": "2030-04-30"
    },
    {
      "name": "和洋食堂　しらしょう",
      "name_kana": "ワヨウショクドウ　シラショウ",
      "business_type": "㉕ そうざい製造業",
      "address": "和歌山県日高郡由良町大引64",
      "lat": 33.967688,
      "lng": 135.087597,
      "geocoding_level": null,
      "phone": "0738-65-1123",
      "license_no": "6-23-1-25-154",
      "license_date": "2024-03-28",
      "expire_date": "2030-04-30"
    },
    {
      "name": "和洋食堂　しらしょう",
      "name_kana": "ワヨウショクドウ　シラショウ",
      "business_type": "㉚ 密封包装食品製造業",
      "address": "和歌山県日高郡由良町大引64",
      "lat": 33.967688,
      "lng": 135.087597,
      "geocoding_level": null,
      "phone": "0738-65-1123",
      "license_no": "6-23-1-30-154",
      "license_date": "2024-03-28",
      "expire_date": "2030-04-30"
    },
    {
      "name": "特定非営利活動法人由良わくわく塾　そば処わくわく",
      "name_kana": "トクテイヒエイリカツドウホウジンユラワクワクジュク　ソバドコロワクワク",
      "business_type": "① 飲食店営業",
      "address": "和歌山県日高郡由良町中257-1",
      "lat": 33.974704,
      "lng": 135.138481,
      "geocoding_level": null,
      "phone": "",
      "license_no": "6-24-1-01-010",
      "license_date": "2024-04-25",
      "expire_date": "2030-04-30"
    },
    {
      "name": "たこまる",
      "name_kana": "タコマル",
      "business_type": "① 飲食店営業",
      "address": "和歌山県日高郡由良町神谷465-1",
      "lat": 33.958032,
      "lng": 135.094336,
      "geocoding_level": null,
      "phone": "",
      "license_no": "6-24-1-01-035",
      "license_date": "2024-07-05",
      "expire_date": "2030-07-31"
    },
    {
      "name": "錦花堂",
      "name_kana": "キンカドウ",
      "business_type": "⑪ 菓子製造業",
      "address": "和歌山県日高郡由良町里392-1",
      "lat": 33.962373,
      "lng": 135.128404,
      "geocoding_level": null,
      "phone": "0738-65-0072",
      "license_no": "6-23-1-11-086",
      "license_date": "2023-10-30",
      "expire_date": "2029-10-31"
    },
    {
      "name": "常石由良ドック（株）",
      "name_kana": "ツネイシユラドック　カブ",
      "business_type": "① 飲食店営業",
      "address": "和歌山県日高郡由良町網代193-13",
      "lat": 33.961678,
      "lng": 135.112498,
      "geocoding_level": null,
      "phone": "0738-65-1111",
      "license_no": "6-25-1-01-069",
      "license_date": "2025-08-25",
      "expire_date": "2031-10-31"
    },
    {
      "name": "(株)駒井ハルテック和歌山工場　社員食堂",
      "name_kana": "カブシキガイシャコマイハルテックワカヤマコウジョウ　シャインショクドウ",
      "business_type": "① 飲食店営業",
      "address": "和歌山県日高郡由良町神谷805-2",
      "lat": 33.957403,
      "lng": 135.082515,
      "geocoding_level": null,
      "phone": "0738-65-1234",
      "license_no": "6-25-1-01-086",
      "license_date": "2025-10-06",
      "expire_date": "2031-10-31"
    },
    {
      "name": "MOGMOG　ベビーカステラ　2号店",
      "name_kana": "モグモグ　ベビーカステラ　ニゴウテン",
      "business_type": "① 飲食店営業",
      "address": "和歌山県日高郡由良町里293-5 カーサグローリアⅠ　101号",
      "lat": 33.961257,
      "lng": 135.123978,
      "geocoding_level": null,
      "phone": "",
      "license_no": "6-22-1-01-125",
      "license_date": "2023-01-31",
      "expire_date": "2029-01-31"
    },
    {
      "name": "ハヤマヤパン工房",
      "name_kana": "ハヤマヤパンコウボウ",
      "business_type": "⑪ 菓子製造業",
      "address": "和歌山県日高郡由良町里2-3",
      "lat": 33.96034,
      "lng": 135.118196,
      "geocoding_level": null,
      "phone": "",
      "license_no": "6-24-1-11-094",
      "license_date": "2024-11-18",
      "expire_date": "2031-01-31"
    },
    {
      "name": "ハヤマヤパンコーボー",
      "name_kana": "ハヤマヤパンコーボー",
      "business_type": "⑬ その他の食料・飲料販売業",
      "address": "和歌山県日高郡由良町里360-2",
      "lat": 33.962373,
      "lng": 135.128404,
      "geocoding_level": null,
      "phone": "",
      "license_no": "",
      "license_date": null,
      "expire_date": null
    },
    {
      "name": "シーサイド由良",
      "name_kana": "シーサイドユラ",
      "business_type": "① 飲食店営業",
      "address": "和歌山県日高郡由良町網代193-13",
      "lat": 33.961678,
      "lng": 135.112498,
      "geocoding_level": null,
      "phone": "0738-65-1994",
      "license_no": "6-24-1-01-121",
      "license_date": "2025-01-21",
      "expire_date": "2031-01-31"
    },
    {
      "name": "ホテル三紀",
      "name_kana": "ホテルサンキ",
      "business_type": "① 飲食店営業",
      "address": "和歌山県日高郡由良町吹井968-1",
      "lat": 33.967189,
      "lng": 135.102304,
      "geocoding_level": null,
      "phone": "0738-65-0505",
      "license_no": "6-24-1-01-122",
      "license_date": "2025-01-21",
      "expire_date": "2031-01-31"
    },
    {
      "name": "人夢可酒",
      "name_kana": "ヒトムカシ",
      "business_type": "① 飲食店営業",
      "address": "和歌山県日高郡由良町網代193",
      "lat": 33.960418,
      "lng": 135.112339,
      "geocoding_level": null,
      "phone": "0738-65-2099",
      "license_no": "6-24-1-01-126",
      "license_date": "2025-01-29",
      "expire_date": "2031-01-31"
    },
    {
      "name": "Boat cafe　衣奈マリーナ",
      "name_kana": "ボートカフェ　エナマリーナ",
      "business_type": "⑳ みそ又はしょうゆ製造業",
      "address": "和歌山県日高郡由良町小引425-1",
      "lat": 33.982375,
      "lng": 135.092233,
      "geocoding_level": null,
      "phone": "0738-0324",
      "license_no": "6-25-1-20-014",
      "license_date": "2025-04-10",
      "expire_date": "2031-04-30"
    },
    {
      "name": "Boat cafe　衣奈マリーナ",
      "name_kana": "ボートカフェ　エナマリーナ",
      "business_type": "㉚ 密封包装食品製造業",
      "address": "和歌山県日高郡由良町小引425-1",
      "lat": 33.982375,
      "lng": 135.092233,
      "geocoding_level": null,
      "phone": "0738-0324",
      "license_no": "6-25-1-30-014",
      "license_date": "2025-04-10",
      "expire_date": "2031-04-30"
    },
    {
      "name": "Ａコープ　ゆら",
      "name_kana": "エーコープ　ユラ",
      "business_type": "③ 乳類販売業",
      "address": "和歌山県日高郡由良町里279-1",
      "lat": 33.960153,
      "lng": 135.122158,
      "geocoding_level": null,
      "phone": "0738653121",
      "license_no": "",
      "license_date": null,
      "expire_date": null
    },
    {
      "name": "Ａコープ　ゆら",
      "name_kana": "エーコープ　ユラ",
      "business_type": "⑪ 百貨店、総合スーパー",
      "address": "和歌山県日高郡由良町里279-1",
      "lat": 33.960153,
      "lng": 135.122158,
      "geocoding_level": null,
      "phone": "0738653121",
      "license_no": "",
      "license_date": null,
      "expire_date": null
    },
    {
      "name": "移動スーパ－、とくし丸",
      "name_kana": "イドウスーパー　トクシマル",
      "business_type": "① 魚介類販売業（包装済みの魚介類のみの販売）",
      "address": "和歌山県日高郡由良町里279－1",
      "lat": 33.960153,
      "lng": 135.122158,
      "geocoding_level": null,
      "phone": "0738-65-3121",
      "license_no": "",
      "license_date": null,
      "expire_date": null
    },
    {
      "name": "移動スーパ－、とくし丸",
      "name_kana": "イドウスーパー　トクシマル",
      "business_type": "② 食肉販売業（包装済みの食肉のみの販売）",
      "address": "和歌山県日高郡由良町里279－1",
      "lat": 33.960153,
      "lng": 135.122158,
      "geocoding_level": null,
      "phone": "0738-65-3121",
      "license_no": "",
      "license_date": null,
      "expire_date": null
    },
    {
      "name": "移動スーパ－、とくし丸",
      "name_kana": "イドウスーパー　トクシマル",
      "business_type": "③ 乳類販売業",
      "address": "和歌山県日高郡由良町里279－1",
      "lat": 33.960153,
      "lng": 135.122158,
      "geocoding_level": null,
      "phone": "0738-65-3121",
      "license_no": "",
      "license_date": null,
      "expire_date": null
    },
    {
      "name": "あめ政",
      "name_kana": "アメマサ",
      "business_type": "② 食肉販売業（包装済みの食肉のみの販売）",
      "address": "和歌山県日高郡由良町衣奈745",
      "lat": 33.987811,
      "lng": 135.107506,
      "geocoding_level": null,
      "phone": "0738-66-0012",
      "license_no": "",
      "license_date": null,
      "expire_date": null
    },
    {
      "name": "池田養蜂場",
      "name_kana": "イケダヨウホウジョウ",
      "business_type": "㉔ その他の食料品製造・加工業",
      "address": "和歌山県日高郡由良町門前528",
      "lat": 33.975755,
      "lng": 135.128404,
      "geocoding_level": null,
      "phone": "",
      "license_no": "",
      "license_date": null,
      "expire_date": null
    },
    {
      "name": "みどり",
      "name_kana": "ミドリ",
      "business_type": "① 飲食店営業",
      "address": "和歌山県日高郡由良町里841-1",
      "lat": 33.962043,
      "lng": 135.125499,
      "geocoding_level": null,
      "phone": "",
      "license_no": "6-25-1-01-034",
      "license_date": "2025-06-20",
      "expire_date": "2031-07-31"
    },
    {
      "name": "民宿カンナ荘（神無そう）",
      "name_kana": "ミンシュクカンナソウ",
      "business_type": "① 飲食店営業",
      "address": "和歌山県日高郡由良町江ノ駒332",
      "lat": 33.965393,
      "lng": 135.116333,
      "geocoding_level": null,
      "phone": "0738-65-1188",
      "license_no": "6-25-1-01-049",
      "license_date": "2025-07-10",
      "expire_date": "2031-07-31"
    },
    {
      "name": "寺井旅館ハーバービュー",
      "name_kana": "テライリョカンハーバービュー",
      "business_type": "① 飲食店営業",
      "address": "和歌山県日高郡由良町戸津井202",
      "lat": 33.987599,
      "lng": 135.09501,
      "geocoding_level": null,
      "phone": "",
      "license_no": "6-25-1-01-080",
      "license_date": "2025-10-02",
      "expire_date": "2031-10-31"
    },
    {
      "name": "（有）クレセル　グラフミューラー",
      "name_kana": "ユウ　クレセル　グラフミューラー",
      "business_type": "① 飲食店営業",
      "address": "和歌山県日高郡由良町吹井949-18",
      "lat": 33.968879,
      "lng": 135.107571,
      "geocoding_level": null,
      "phone": "",
      "license_no": "6-25-1-01-089",
      "license_date": "2025-10-06",
      "expire_date": "2031-10-31"
    },
    {
      "name": "孫悟空",
      "name_kana": "ソンゴクウ",
      "business_type": "① 飲食店営業",
      "address": "和歌山県日高郡由良町里287-8",
      "lat": 33.960797,
      "lng": 135.123109,
      "geocoding_level": null,
      "phone": "0738-65-1085",
      "license_no": "6-25-1-01-118",
      "license_date": "2026-01-09",
      "expire_date": "2032-01-31"
    },
    {
      "name": "釣楽荘",
      "name_kana": "チョウラクソウ",
      "business_type": "① 飲食店営業",
      "address": "和歌山県日高郡由良町戸津井287",
      "lat": 33.988063,
      "lng": 135.094179,
      "geocoding_level": null,
      "phone": "0738-66-0217",
      "license_no": "6-25-1-01-134",
      "license_date": "2026-01-16",
      "expire_date": "2032-01-31"
    },
    {
      "name": "湯川　裕美",
      "name_kana": "ユカワ　ヒロミ",
      "business_type": "⑰ 農産保存食料品製造・加工業",
      "address": "和歌山県日高郡由良町衣奈1154-9",
      "lat": 33.9834,
      "lng": 135.11366,
      "geocoding_level": null,
      "phone": "090-1482-9022",
      "license_no": "",
      "license_date": null,
      "expire_date": null
    },
    {
      "name": "民宿いわさき",
      "name_kana": "ミンシュクイワサキ",
      "business_type": "① 飲食店営業",
      "address": "和歌山県日高郡由良町大引335-2",
      "lat": 33.968093,
      "lng": 135.087419,
      "geocoding_level": null,
      "phone": "0738-65-1039",
      "license_no": "6-26-1-01-015",
      "license_date": "2026-04-13",
      "expire_date": "2032-04-30"
    },
    {
      "name": "地域福祉センター",
      "name_kana": "チイキフクシセンター",
      "business_type": "㉖ 集団給食施設",
      "address": "和歌山県日高郡由良町吹井80番地の88",
      "lat": 33.970312,
      "lng": 135.108981,
      "geocoding_level": null,
      "phone": "0738-65-3500",
      "license_no": "",
      "license_date": null,
      "expire_date": null
    }
  ]
}
