{
  "meta": {
    "updated": 1783568789,
    "sources": [
      {
        "source": "厚生労働省 食品衛生申請等システム（オープンデータ）",
        "license": "公共データ利用規約（第1.0版, PDL1.0）"
      }
    ]
  },
  "data": [
    {
      "name": "ペースアラウンド",
      "name_kana": "ペースアラウンド",
      "business_type": "㉕ そうざい製造業",
      "address": "長野県北佐久郡御代田町大字塩野４００－１５８",
      "lat": 36.345727,
      "lng": 138.506749,
      "geocoding_level": null,
      "phone": "0267-32-7007",
      "license_no": "01262241",
      "license_date": "2022-10-21",
      "expire_date": "2029-01-31"
    },
    {
      "name": "funnel coffee roasters",
      "name_kana": "ファネルコーヒーロースターズ",
      "business_type": "① 飲食店営業",
      "address": "長野県北佐久郡御代田町塩野４００−１５８",
      "lat": 36.345727,
      "lng": 138.506749,
      "geocoding_level": null,
      "phone": "0267-32-7007",
      "license_no": "01266235",
      "license_date": "2023-08-04",
      "expire_date": "2028-08-31"
    },
    {
      "name": "ミネベアベアリングオフィース",
      "name_kana": "ミネベアベアリングオフィース",
      "business_type": "⑤ コップ式自動販売機（自動洗浄・屋内設置）",
      "address": "長野県北佐久郡御代田町御代田4106－73",
      "lat": 36.316328,
      "lng": 138.523255,
      "geocoding_level": null,
      "phone": "",
      "license_no": "",
      "license_date": null,
      "expire_date": null
    },
    {
      "name": "ミネベアロッドエンド東",
      "name_kana": "ミネベアロッドエンドヒガシ",
      "business_type": "⑤ コップ式自動販売機（自動洗浄・屋内設置）",
      "address": "長野県北佐久郡御代田町御代田4106－73",
      "lat": 36.316328,
      "lng": 138.523255,
      "geocoding_level": null,
      "phone": "",
      "license_no": "",
      "license_date": null,
      "expire_date": null
    },
    {
      "name": "ミネベア機械入口",
      "name_kana": "ミネベアキカイイリグチ",
      "business_type": "⑤ コップ式自動販売機（自動洗浄・屋内設置）",
      "address": "長野県北佐久郡御代田町御代田4106－73",
      "lat": 36.316328,
      "lng": 138.523255,
      "geocoding_level": null,
      "phone": "",
      "license_no": "",
      "license_date": null,
      "expire_date": null
    },
    {
      "name": "ミネベアロッドエンド西奥",
      "name_kana": "ムネベアロッドエンドニシオク",
      "business_type": "⑤ コップ式自動販売機（自動洗浄・屋内設置）",
      "address": "長野県北佐久郡御代田町御代田4106－73",
      "lat": 36.316328,
      "lng": 138.523255,
      "geocoding_level": null,
      "phone": "",
      "license_no": "",
      "license_date": null,
      "expire_date": null
    },
    {
      "name": "ミネベアロッドエンド西",
      "name_kana": "ミネベアロッドエンドニシ",
      "business_type": "⑤ コップ式自動販売機（自動洗浄・屋内設置）",
      "address": "長野県北佐久郡御代田町御代田4106－73",
      "lat": 36.316328,
      "lng": 138.523255,
      "geocoding_level": null,
      "phone": "",
      "license_no": "",
      "license_date": null,
      "expire_date": null
    },
    {
      "name": "ミネベア新熱処理",
      "name_kana": "ミネベアシンネツショリ",
      "business_type": "⑤ コップ式自動販売機（自動洗浄・屋内設置）",
      "address": "長野県北佐久郡御代田町御代田4106－73",
      "lat": 36.316328,
      "lng": 138.523255,
      "geocoding_level": null,
      "phone": "",
      "license_no": "",
      "license_date": null,
      "expire_date": null
    },
    {
      "name": "ミネベア研削",
      "name_kana": "ミネベアケンサク",
      "business_type": "⑤ コップ式自動販売機（自動洗浄・屋内設置）",
      "address": "長野県北佐久郡御代田町御代田4106－73",
      "lat": 36.316328,
      "lng": 138.523255,
      "geocoding_level": null,
      "phone": "",
      "license_no": "",
      "license_date": null,
      "expire_date": null
    },
    {
      "name": "アメリカンドラッグ御代田店",
      "name_kana": "アメリカンドラッグミヨタテン",
      "business_type": "③ 乳類販売業",
      "address": "長野県北佐久郡御代田町馬瀬口1861-1",
      "lat": 36.320156,
      "lng": 138.505771,
      "geocoding_level": null,
      "phone": "0267-31-2630",
      "license_no": "",
      "license_date": null,
      "expire_date": null
    },
    {
      "name": "natura Asamakoji",
      "name_kana": "ナチュラ　アサマコウジ",
      "business_type": "⑪ 菓子製造業",
      "address": "長野県北佐久郡御代田町草越430-2",
      "lat": 36.31569,
      "lng": 138.543481,
      "geocoding_level": null,
      "phone": "",
      "license_no": "01256757",
      "license_date": "2021-06-04",
      "expire_date": "2028-01-31"
    },
    {
      "name": "JA佐久浅間　野菜加工開発センター",
      "name_kana": "ジェイエイサクアサマ　ヤサイカコウセンター",
      "business_type": "⑰ 農産保存食料品製造・加工業",
      "address": "長野県北佐久郡御代田町馬瀬口631-1",
      "lat": 36.32504,
      "lng": 138.496221,
      "geocoding_level": null,
      "phone": "",
      "license_no": "",
      "license_date": null,
      "expire_date": null
    },
    {
      "name": "JA佐久浅間　野菜加工センター",
      "name_kana": "ジェイエイサクアサマ　ヤサイカコウセンター",
      "business_type": "⑰ 農産保存食料品製造・加工業",
      "address": "長野県北佐久郡御代田町馬瀬口953-3",
      "lat": 36.32796,
      "lng": 138.489911,
      "geocoding_level": null,
      "phone": "0267-31-1551",
      "license_no": "",
      "license_date": null,
      "expire_date": null
    },
    {
      "name": "西軽井沢ホテル atelier blå（アトリエ・ブルゥ）by  LONGINGHOUSE",
      "name_kana": "ニシカルイザワホテル　アトリエ　ブルゥ　バイ　ロンギングハウス",
      "business_type": "① 飲食店営業",
      "address": "長野県北佐久郡御代田町馬瀬口１４７１－３",
      "lat": 36.330104,
      "lng": 138.506005,
      "geocoding_level": null,
      "phone": "0267-32-6355",
      "license_no": "01275519",
      "license_date": "2025-07-25",
      "expire_date": "2032-01-31"
    },
    {
      "name": "御代田町学校給食共同調理場",
      "name_kana": "ミヨタマチガッコウキュウショクキョウドウチョウリジョウ",
      "business_type": "㉖ 集団給食施設",
      "address": "長野県北佐久郡御代田町御代田2718番地1",
      "lat": 36.315326,
      "lng": 138.510114,
      "geocoding_level": null,
      "phone": "0267-41-0237",
      "license_no": "",
      "license_date": null,
      "expire_date": null
    },
    {
      "name": "株式会社ツルヤ　御代田店",
      "name_kana": "カブシキガイシャツルヤ　ミヨタテン",
      "business_type": "⑪ 百貨店、総合スーパー",
      "address": "長野県北佐久郡御代田町馬瀬口1743-1",
      "lat": 36.325263,
      "lng": 138.50958,
      "geocoding_level": null,
      "phone": "0267-32-7811",
      "license_no": "",
      "license_date": null,
      "expire_date": null
    },
    {
      "name": "ツルヤ　御代田店",
      "name_kana": "ツルヤ　ミヨタテン",
      "business_type": "① 飲食店営業",
      "address": "長野県北佐久郡御代田町馬瀬口１７４３－１",
      "lat": 36.325263,
      "lng": 138.50958,
      "geocoding_level": null,
      "phone": "0267-32-7811",
      "license_no": "01252560",
      "license_date": "2026-01-30",
      "expire_date": "2031-01-31"
    },
    {
      "name": "ツルヤ　御代田店",
      "name_kana": "ツルヤ　ミヨタテン",
      "business_type": "⑫ 自動販売機による販売業（コップ式自動販売機（自動洗浄・屋内設置）及び営業許可の対象となる自動販売機を除く）",
      "address": "長野県北佐久郡御代田町馬瀬口１７４３－１",
      "lat": 36.325263,
      "lng": 138.50958,
      "geocoding_level": null,
      "phone": "0267-32-7811",
      "license_no": "",
      "license_date": null,
      "expire_date": null
    },
    {
      "name": "（株）メンハウスフードシステムＣ・Ｋ",
      "name_kana": "カブシキガイシャメンハウスフードシステムシーケー",
      "business_type": "㉕ そうざい製造業",
      "address": "長野県北佐久郡御代田町御代田４１２０－５５ 軽井沢ウエストビル１Ｆ",
      "lat": 36.332198,
      "lng": 138.523541,
      "geocoding_level": null,
      "phone": "0267-32-6835",
      "license_no": "01205442",
      "license_date": "2023-01-31",
      "expire_date": "2029-01-31"
    },
    {
      "name": "コープながの　佐久センター",
      "name_kana": "コープナガノ　サクセンター",
      "business_type": "① 飲食店営業",
      "address": "長野県北佐久郡御代田町御代田１０６２－２",
      "lat": 36.29482,
      "lng": 138.486886,
      "geocoding_level": null,
      "phone": "0267-32-8868",
      "license_no": "01137281",
      "license_date": "2022-01-31",
      "expire_date": "2027-01-31"
    },
    {
      "name": "コープながの　佐久センター",
      "name_kana": "コープナガノ　サクセンター",
      "business_type": "① 飲食店営業",
      "address": "長野県北佐久郡御代田町御代田１０６２－２",
      "lat": 36.29482,
      "lng": 138.486886,
      "geocoding_level": null,
      "phone": "0267-32-8868",
      "license_no": "01137298",
      "license_date": "2022-01-31",
      "expire_date": "2027-01-31"
    },
    {
      "name": "カラオケ本舗　まねきねこ　西軽井沢店",
      "name_kana": "カラオケホンポ　マネキネコ　ニシカルイザワテン",
      "business_type": "① 飲食店営業",
      "address": "長野県北佐久郡御代田町馬瀬口２０９４",
      "lat": 36.323829,
      "lng": 138.501369,
      "geocoding_level": null,
      "phone": "0267-32-6818",
      "license_no": "01202695",
      "license_date": "2022-01-31",
      "expire_date": "2028-01-31"
    },
    {
      "name": "株式会社西友　御代田店",
      "name_kana": "カブシキガイシャセイユウ　ミヨタテン",
      "business_type": "④ 魚介類販売業",
      "address": "長野県北佐久郡御代田町御代田字小田井2763-1",
      "lat": 36.303494,
      "lng": 138.491846,
      "geocoding_level": null,
      "phone": "0267-32-8838",
      "license_no": "01168888",
      "license_date": "2024-01-31",
      "expire_date": "2030-01-31"
    },
    {
      "name": "株式会社西友　御代田店",
      "name_kana": "カブシキガイシャセイユウ　ミヨタテン",
      "business_type": "⑪ 百貨店、総合スーパー",
      "address": "長野県北佐久郡御代田町御代田字小田井2763-1",
      "lat": 36.303494,
      "lng": 138.491846,
      "geocoding_level": null,
      "phone": "0267-32-8838",
      "license_no": "",
      "license_date": null,
      "expire_date": null
    },
    {
      "name": "株式会社西友　御代田店　若菜",
      "name_kana": "カブシキガイシャセイユウ　ミヨタテン　ワカナ",
      "business_type": "① 飲食店営業",
      "address": "長野県北佐久郡御代田町御代田小田井２７６３－１",
      "lat": 36.308316,
      "lng": 138.494806,
      "geocoding_level": null,
      "phone": "",
      "license_no": "01206520",
      "license_date": "2023-01-31",
      "expire_date": "2029-01-31"
    },
    {
      "name": "株式会社西友　御代田店　若菜",
      "name_kana": "カブシキガイシャセイユウ　ミヨタテン　ワカナ",
      "business_type": "① 飲食店営業",
      "address": "長野県北佐久郡御代田町御代田上小田井2763-1 西友御代田店内",
      "lat": 36.308316,
      "lng": 138.494806,
      "geocoding_level": null,
      "phone": "0267-32-8838",
      "license_no": "01177595",
      "license_date": "2026-01-30",
      "expire_date": "2032-01-31"
    },
    {
      "name": "シチズンファインデバイス株式会社　御代田事業所",
      "name_kana": "シチズンファインデバイスカブシキガイシャ　ミヨタジギョウショ",
      "business_type": "① 飲食店営業",
      "address": "長野県北佐久郡御代田町御代田４１０７－５",
      "lat": 36.315296,
      "lng": 138.517765,
      "geocoding_level": null,
      "phone": "",
      "license_no": "01238481",
      "license_date": "2024-01-31",
      "expire_date": "2030-01-31"
    },
    {
      "name": "ステーキハウス　フゥ",
      "name_kana": "ステーキハウス　フゥ",
      "business_type": "① 飲食店営業",
      "address": "長野県北佐久郡御代田町馬瀬口１７９４－１ MMoP　ラウンジ棟２F",
      "lat": 36.322332,
      "lng": 138.507743,
      "geocoding_level": null,
      "phone": "0267-31-5164",
      "license_no": "01259529",
      "license_date": "2022-04-15",
      "expire_date": "2029-01-31"
    },
    {
      "name": "株式会社ベジアーツ",
      "name_kana": "カブシキガイシャベジアーツ",
      "business_type": "⑦ 野菜果物販売業",
      "address": "長野県北佐久郡御代田町馬瀬口94-4",
      "lat": 36.316481,
      "lng": 138.495068,
      "geocoding_level": null,
      "phone": "0267322212",
      "license_no": "",
      "license_date": null,
      "expire_date": null
    },
    {
      "name": "ファミリーマート　御代田ミネベアミツミ前店",
      "name_kana": "ファミリーマート　ミヨタミネベアミツミマエテン",
      "business_type": "⑩ コンビニエンスストア",
      "address": "長野県北佐久郡御代田町大字御代田字大林4106-6",
      "lat": 36.315779,
      "lng": 138.52301,
      "geocoding_level": null,
      "phone": "0267-31-4019",
      "license_no": "",
      "license_date": null,
      "expire_date": null
    },
    {
      "name": "ファミリーマート　御代田ミネベア前店",
      "name_kana": "ファミリーマート　ミヨタミネベアマエテン",
      "business_type": "① 飲食店営業",
      "address": "長野県北佐久郡御代田町御代田大林４１０６",
      "lat": 36.311537,
      "lng": 138.518341,
      "geocoding_level": null,
      "phone": "0267314019",
      "license_no": "01207233",
      "license_date": "2022-01-31",
      "expire_date": "2027-01-31"
    },
    {
      "name": "幸せぶくろ",
      "name_kana": "シアワセブクロ",
      "business_type": "⑦ 野菜果物販売業",
      "address": "長野県北佐久郡御代田町馬瀬口1901-1 エコールみよた大会議室",
      "lat": 36.321635,
      "lng": 138.506212,
      "geocoding_level": null,
      "phone": "",
      "license_no": "",
      "license_date": null,
      "expire_date": null
    },
    {
      "name": "たま２",
      "name_kana": "タマニ",
      "business_type": "① 飲食店営業",
      "address": "長野県北佐久郡御代田町草越向原1173-535",
      "lat": 36.31326,
      "lng": 138.52687,
      "geocoding_level": null,
      "phone": "",
      "license_no": "01258142",
      "license_date": "2021-10-29",
      "expire_date": "2028-01-31"
    },
    {
      "name": "ニチイケアセンターみよた",
      "name_kana": "ニチイケアセンターミヨタ",
      "business_type": "㉖ 集団給食施設",
      "address": "長野県北佐久郡御代田町馬瀬口1712-1",
      "lat": 36.32605,
      "lng": 138.51065,
      "geocoding_level": null,
      "phone": "",
      "license_no": "",
      "license_date": null,
      "expire_date": null
    },
    {
      "name": "たんぽぽ保育園",
      "name_kana": "タンポポホイクエン",
      "business_type": "㉖ 集団給食施設",
      "address": "長野県北佐久郡御代田町草越１１７３－１７８６",
      "lat": 36.313833,
      "lng": 138.527144,
      "geocoding_level": null,
      "phone": "0267-32-5396",
      "license_no": "",
      "license_date": null,
      "expire_date": null
    },
    {
      "name": "CASADOCOFFEE/カサドコーヒー",
      "name_kana": "カサドコーヒー　カサドコーヒー",
      "business_type": "① 飲食店営業",
      "address": "長野県北佐久郡御代田町大字草越１１７３－１８７１",
      "lat": 36.31453,
      "lng": 138.529879,
      "geocoding_level": null,
      "phone": "",
      "license_no": "01264387",
      "license_date": "2023-05-12",
      "expire_date": "2028-05-31"
    },
    {
      "name": "ＣＡＳＡＤＯＣＯＦＦＥＥ/カサドコーヒー",
      "name_kana": "カサドコーヒー　カサドコーヒー",
      "business_type": "① 飲食店営業",
      "address": "長野県北佐久郡御代田町大字草越１１７３－１８７１",
      "lat": 36.31453,
      "lng": 138.529879,
      "geocoding_level": null,
      "phone": "",
      "license_no": "01264370",
      "license_date": "2023-05-12",
      "expire_date": "2030-01-31"
    },
    {
      "name": "カサドコーヒー/Casa do Coffee",
      "name_kana": "カサドコーヒー",
      "business_type": "⑯ コーヒー製造・加工業（飲料の製造を除く。）",
      "address": "長野県北佐久郡御代田町草越11731871",
      "lat": 36.319122,
      "lng": 138.546237,
      "geocoding_level": null,
      "phone": "09022495168",
      "license_no": "",
      "license_date": null,
      "expire_date": null
    },
    {
      "name": "THE　HIRAMATSU　軽井沢　御代田",
      "name_kana": "ザ　ヒラマツ　カルイザワ　ミヨタ",
      "business_type": "① 飲食店営業",
      "address": "長野県北佐久郡御代田町大字塩野375番地723",
      "lat": 36.344209,
      "lng": 138.4955,
      "geocoding_level": null,
      "phone": "0267-31-5680",
      "license_no": "01258263",
      "license_date": "2021-11-10",
      "expire_date": "2026-11-30"
    },
    {
      "name": "THE　HIRAMATSU　軽井沢　御代田",
      "name_kana": "ザ　ヒラマツ　カルイザワ　ミヨタ",
      "business_type": "① 飲食店営業",
      "address": "長野県北佐久郡御代田町大字塩野375番地723",
      "lat": 36.344209,
      "lng": 138.4955,
      "geocoding_level": null,
      "phone": "0267-31-5680",
      "license_no": "01261708",
      "license_date": "2022-09-08",
      "expire_date": "2027-09-30"
    },
    {
      "name": "marma mi",
      "name_kana": "マーマ　ミー",
      "business_type": "⑬ その他の食料・飲料販売業",
      "address": "長野県北佐久郡御代田町御代田２３３９－１０",
      "lat": 36.314784,
      "lng": 138.50163,
      "geocoding_level": null,
      "phone": "0267315960",
      "license_no": "",
      "license_date": null,
      "expire_date": null
    },
    {
      "name": "シチズンファインデバイス株式会社御代田事業所従業員食堂",
      "name_kana": "シチズンファインデバイスカブシキガイシャミヨタジギョウショシャインショクドウ",
      "business_type": "① 飲食店営業",
      "address": "長野県北佐久郡御代田町大字御代田４１０７－５",
      "lat": 36.315020993,
      "lng": 138.517358974,
      "geocoding_level": 8,
      "phone": "0267-32-3232",
      "license_no": "01277185",
      "license_date": "2026-02-27",
      "expire_date": "2033-01-31"
    },
    {
      "name": "飯山中央市場株式会社　北佐久営業所",
      "name_kana": "イイヤマチュウオウイチバカブシキカイシャ　キタサクエイギョウショ",
      "business_type": "⑦ 野菜果物販売業",
      "address": "長野県北佐久郡御代田町塩野菖蒲沢1623-1",
      "lat": 36.361967,
      "lng": 138.50372,
      "geocoding_level": null,
      "phone": "",
      "license_no": "",
      "license_date": null,
      "expire_date": null
    },
    {
      "name": "土屋養蜂",
      "name_kana": "ツチヤヨウホウ",
      "business_type": "⑰ 農産保存食料品製造・加工業",
      "address": "長野県北佐久郡御代田町大字御代田3915",
      "lat": 36.315708,
      "lng": 138.514644,
      "geocoding_level": null,
      "phone": "",
      "license_no": "",
      "license_date": null,
      "expire_date": null
    },
    {
      "name": "ｐｏｒｃｏ",
      "name_kana": "ポルコ",
      "business_type": "⑮ 食肉製品製造業",
      "address": "長野県北佐久郡御代田町草越443",
      "lat": 36.315242,
      "lng": 138.545114,
      "geocoding_level": null,
      "phone": "080-6731-6531",
      "license_no": "01258473",
      "license_date": "2021-12-03",
      "expire_date": "2028-01-31"
    },
    {
      "name": "Restaurant＆Bar　ＣＯＵＬＥＭＰＳ",
      "name_kana": "レストランアンドバー　クランプス",
      "business_type": "① 飲食店営業",
      "address": "長野県北佐久郡御代田町塩野482-107",
      "lat": 36.339382,
      "lng": 138.50154,
      "geocoding_level": null,
      "phone": "070-8311-5680",
      "license_no": "01258570",
      "license_date": "2021-12-17",
      "expire_date": "2028-01-31"
    },
    {
      "name": "沢井屋（沢井豆腐店）",
      "name_kana": "サワイヤ　サワイトウフテン",
      "business_type": "㉒ 豆腐製造業",
      "address": "長野県北佐久郡御代田町御代田１７６７－１",
      "lat": 36.309057,
      "lng": 138.499335,
      "geocoding_level": null,
      "phone": "0267323373",
      "license_no": "01208261",
      "license_date": "2022-01-31",
      "expire_date": "2027-01-31"
    },
    {
      "name": "御代田町商工会　青年部",
      "name_kana": "ミヨタマチショウコウカイ　セイネンブ",
      "business_type": "① 飲食店営業",
      "address": "長野県北佐久郡御代田町町内一円",
      "lat": 36.308518,
      "lng": 138.513608,
      "geocoding_level": null,
      "phone": "000000000000",
      "license_no": "01181272",
      "license_date": "2022-01-31",
      "expire_date": "2027-01-31"
    },
    {
      "name": "みよた商工フェスティバル（商工祭）特設会場（臨時）",
      "name_kana": "ミヨタショウコウフェスティバル　ショウコウサイ　トクセツカイジョウ　リンジ",
      "business_type": "① 飲食店営業",
      "address": "長野県北佐久郡御代田町馬瀬口１９０１－１ 複合文化施設まなびの館　エコールみよた内",
      "lat": 36.321635,
      "lng": 138.506212,
      "geocoding_level": null,
      "phone": "0267-32-2770",
      "license_no": "01262468",
      "license_date": "2022-11-11",
      "expire_date": "2028-01-31"
    },
    {
      "name": "元祖　おにかけ食堂",
      "name_kana": "ガンソ　オニカケショクドウ",
      "business_type": "① 飲食店営業",
      "address": "長野県北佐久郡御代田町御代田２４２２－２８",
      "lat": 36.317675,
      "lng": 138.505839,
      "geocoding_level": null,
      "phone": "0267-32-5435",
      "license_no": "01178213",
      "license_date": "2026-01-30",
      "expire_date": "2031-01-31"
    },
    {
      "name": "佐々木商店",
      "name_kana": "ササキショウテン",
      "business_type": "① 飲食店営業",
      "address": "長野県北佐久郡御代田町馬瀬口入郷戸１８９５－１４",
      "lat": 36.320288,
      "lng": 138.493258,
      "geocoding_level": null,
      "phone": "090-5304-8275",
      "license_no": "01208513",
      "license_date": "2022-01-31",
      "expire_date": "2027-01-31"
    },
    {
      "name": "蕎蔵兎月",
      "name_kana": "ソバクラ　トゲツ",
      "business_type": "① 飲食店営業",
      "address": "長野県北佐久郡御代田町御代田２５６８－１０５",
      "lat": 36.329001,
      "lng": 138.523944,
      "geocoding_level": null,
      "phone": "090-7224-0015",
      "license_no": "01231572",
      "license_date": "2022-01-31",
      "expire_date": "2028-01-31"
    },
    {
      "name": "ｎｅｉｇｅ　ｃａｆｅ",
      "name_kana": "ネイジュ　カフェ",
      "business_type": "① 飲食店営業",
      "address": "長野県北佐久郡御代田町馬瀬口１５９７－１９９",
      "lat": 36.331871,
      "lng": 138.517828,
      "geocoding_level": null,
      "phone": "090-3140-7340",
      "license_no": "01233406",
      "license_date": "2022-01-31",
      "expire_date": "2027-01-31"
    },
    {
      "name": "スナック　トマト",
      "name_kana": "スナック　トマト",
      "business_type": "① 飲食店営業",
      "address": "長野県北佐久郡御代田町大字御代田栄町２４２２－３６",
      "lat": 36.31658,
      "lng": 138.507264,
      "geocoding_level": null,
      "phone": "0267-32-6935",
      "license_no": "01237520",
      "license_date": "2022-01-31",
      "expire_date": "2027-01-31"
    },
    {
      "name": "楽・食・間　ＮＯＲＯ",
      "name_kana": "ラクウカン　ノロ",
      "business_type": "① 飲食店営業",
      "address": "長野県北佐久郡御代田町塩野４０５－４５",
      "lat": 36.344266,
      "lng": 138.52011,
      "geocoding_level": null,
      "phone": "0267-31-2422",
      "license_no": "01165778",
      "license_date": "2022-01-31",
      "expire_date": "2028-01-31"
    },
    {
      "name": "スナック　酔恋華",
      "name_kana": "スイレンカ",
      "business_type": "① 飲食店営業",
      "address": "長野県北佐久郡御代田町大字馬瀬口２０８４番地５",
      "lat": 36.322238,
      "lng": 138.500364,
      "geocoding_level": null,
      "phone": "000000000000",
      "license_no": "01236474",
      "license_date": "2022-01-31",
      "expire_date": "2027-01-31"
    },
    {
      "name": "ドッグラン　カフェ＆アメリカンダイナー・ジェニー",
      "name_kana": "ドッグラン　カフェアンドアメリカンダイナー　ジェニー",
      "business_type": "① 飲食店営業",
      "address": "長野県北佐久郡御代田町馬瀬口清万１５８１番３３",
      "lat": 36.340143,
      "lng": 138.517192,
      "geocoding_level": null,
      "phone": "0267410451",
      "license_no": "01236595",
      "license_date": "2022-01-31",
      "expire_date": "2027-01-31"
    },
    {
      "name": "ル・パステ",
      "name_kana": "ル　パステ",
      "business_type": "⑪ 菓子製造業",
      "address": "長野県北佐久郡御代田町塩野４５０－２５",
      "lat": 36.337346,
      "lng": 138.505052,
      "geocoding_level": null,
      "phone": "0267-31-0788",
      "license_no": "01199385",
      "license_date": "2022-01-31",
      "expire_date": "2028-01-31"
    },
    {
      "name": "ル・パステ",
      "name_kana": "ル　パステ",
      "business_type": "① 飲食店営業",
      "address": "長野県北佐久郡御代田町塩野４５０－２５",
      "lat": 36.337346,
      "lng": 138.505052,
      "geocoding_level": null,
      "phone": "0267-31-0788",
      "license_no": "01199378",
      "license_date": "2022-01-31",
      "expire_date": "2028-01-31"
    },
    {
      "name": "スナック　Ｓｍｉｌｅ",
      "name_kana": "スナック　スマイル",
      "business_type": "① 飲食店営業",
      "address": "長野県北佐久郡御代田町大字馬瀬口５９３－２",
      "lat": 36.321593,
      "lng": 138.500555,
      "geocoding_level": null,
      "phone": "08020144633",
      "license_no": "01234561",
      "license_date": "2022-01-31",
      "expire_date": "2027-01-31"
    },
    {
      "name": "スナック　メビウス",
      "name_kana": "スナック　メビウス",
      "business_type": "① 飲食店営業",
      "address": "長野県北佐久郡御代田町馬瀬口２０８４－５平山ビル３号",
      "lat": 36.322238,
      "lng": 138.500364,
      "geocoding_level": null,
      "phone": "",
      "license_no": "01234943",
      "license_date": "2022-01-31",
      "expire_date": "2027-01-31"
    },
    {
      "name": "軽井沢鹿工房",
      "name_kana": "カルイザワシカコウボウ",
      "business_type": "⑨ 食肉処理業",
      "address": "長野県北佐久郡御代田町大字草越179-14",
      "lat": 36.316787,
      "lng": 138.549423,
      "geocoding_level": null,
      "phone": "0267-44-3955",
      "license_no": "01259010",
      "license_date": "2022-03-03",
      "expire_date": "2029-01-31"
    },
    {
      "name": "キャボットコーヴ　MUSEUM　TERRACE",
      "name_kana": "キャボットコーヴ　ミュージアム　テラス",
      "business_type": "① 飲食店営業",
      "address": "長野県北佐久郡御代田町馬瀬口１７９４－１",
      "lat": 36.322681,
      "lng": 138.507715,
      "geocoding_level": null,
      "phone": "0267-31-5950",
      "license_no": "01259486",
      "license_date": "2022-04-08",
      "expire_date": "2029-01-31"
    },
    {
      "name": "サンガコーヒー",
      "name_kana": "サンガコーヒー",
      "business_type": "⑯ コーヒー製造・加工業（飲料の製造を除く。）",
      "address": "長野県北佐久郡御代田町御代田１９７２－１",
      "lat": 36.308925,
      "lng": 138.493861,
      "geocoding_level": null,
      "phone": "0267-32-6718",
      "license_no": "",
      "license_date": null,
      "expire_date": null
    },
    {
      "name": "ＥＲＩＫＡ　ＣＡＦＥ",
      "name_kana": "エリカ　カフェ",
      "business_type": "① 飲食店営業",
      "address": "長野県北佐久郡御代田町大字御代田字大林４１０８－１７９２",
      "lat": 36.303494,
      "lng": 138.491846,
      "geocoding_level": null,
      "phone": "0267-78-5430",
      "license_no": "01259746",
      "license_date": "2022-04-22",
      "expire_date": "2029-01-31"
    },
    {
      "name": "ＥＲＩＫＡ　ＣＡＦＥ",
      "name_kana": "エリカ　カフェ",
      "business_type": "⑬ その他の食料・飲料販売業",
      "address": "長野県北佐久郡御代田町大字御代田字大林４１０８－１７９２",
      "lat": 36.303494,
      "lng": 138.491846,
      "geocoding_level": null,
      "phone": "0267-78-5430",
      "license_no": "",
      "license_date": null,
      "expire_date": null
    },
    {
      "name": "トワザン",
      "name_kana": "トワザン",
      "business_type": "① 飲食店営業",
      "address": "長野県北佐久郡御代田町塩野１６０３－１",
      "lat": 36.336801,
      "lng": 138.483404,
      "geocoding_level": null,
      "phone": "090-6714-2712",
      "license_no": "01259867",
      "license_date": "2022-04-28",
      "expire_date": "2029-01-31"
    },
    {
      "name": "小田井宿　豊庵",
      "name_kana": "オタイジュク　ユタカアン",
      "business_type": "① 飲食店営業",
      "address": "長野県北佐久郡御代田町大字御代田１６８８－１",
      "lat": 36.305739,
      "lng": 138.496073,
      "geocoding_level": null,
      "phone": "0267-31-6504",
      "license_no": "01260022",
      "license_date": "2022-05-13",
      "expire_date": "2029-01-31"
    },
    {
      "name": "八坂庵",
      "name_kana": "ヤサカアン",
      "business_type": "① 飲食店営業",
      "address": "長野県北佐久郡御代田町馬瀬口１５９７－４",
      "lat": 36.328843,
      "lng": 138.515186,
      "geocoding_level": null,
      "phone": "0267-41-0611",
      "license_no": "01260151",
      "license_date": "2022-05-20",
      "expire_date": "2029-01-31"
    },
    {
      "name": "株式会社ブルボン　御代田工場",
      "name_kana": "カブシキガイシャブルボン　ミヨタコウジョウ",
      "business_type": "⑪ 菓子製造業",
      "address": "長野県北佐久郡御代田町御代田４１０８ー８",
      "lat": 36.315547,
      "lng": 138.519152,
      "geocoding_level": null,
      "phone": "0267-32-3156",
      "license_no": "01260314",
      "license_date": "2022-06-10",
      "expire_date": "2029-01-31"
    },
    {
      "name": "natura Asamakoji",
      "name_kana": "ナチュラ　アサマコウジ",
      "business_type": "① 飲食店営業",
      "address": "長野県北佐久郡御代田町馬瀬口４５１－６　アンベリール御代田１－A",
      "lat": 36.314335,
      "lng": 138.499841,
      "geocoding_level": null,
      "phone": "080-1242-8525",
      "license_no": "01260353",
      "license_date": "2022-06-10",
      "expire_date": "2029-01-31"
    },
    {
      "name": "natura Asamakoji",
      "name_kana": "ナチュラ　アサマコウジ",
      "business_type": "⑪ 菓子製造業",
      "address": "長野県北佐久郡御代田町馬瀬口４５１－６　アンベリール御代田１－A",
      "lat": 36.314335,
      "lng": 138.499841,
      "geocoding_level": null,
      "phone": "080-1242-8525",
      "license_no": "01260361",
      "license_date": "2022-06-10",
      "expire_date": "2029-01-31"
    },
    {
      "name": "natura Asamakoji",
      "name_kana": "ナチュラ　アサマコウジ",
      "business_type": "㉔ その他の食料品製造・加工業",
      "address": "長野県北佐久郡御代田町馬瀬口４５１－６ アンベリール１－Ａ",
      "lat": 36.32504,
      "lng": 138.496221,
      "geocoding_level": null,
      "phone": "",
      "license_no": "",
      "license_date": null,
      "expire_date": null
    },
    {
      "name": "アシカのこむらがえり",
      "name_kana": "アシカノコムラガエリ",
      "business_type": "① 飲食店営業",
      "address": "長野県北佐久郡御代田町草越１１９０－７９",
      "lat": 36.311159,
      "lng": 138.52677,
      "geocoding_level": null,
      "phone": "080-1275-1040",
      "license_no": "01260385",
      "license_date": "2022-06-13",
      "expire_date": "2027-06-30"
    },
    {
      "name": "PIZZA＆BAR　viiv",
      "name_kana": "ピザアンドバー　ヴィーヴ",
      "business_type": "① 飲食店営業",
      "address": "長野県北佐久郡御代田町大字草越１１７３－１０８９",
      "lat": 36.317277,
      "lng": 138.531638,
      "geocoding_level": null,
      "phone": "",
      "license_no": "01261583",
      "license_date": "2022-09-02",
      "expire_date": "2027-09-30"
    },
    {
      "name": "GAFLO　Cafe",
      "name_kana": "ガフロ　カフェ",
      "business_type": "⑪ 菓子製造業",
      "address": "長野県北佐久郡御代田町馬瀬口１６０４－３",
      "lat": 36.329823,
      "lng": 138.518142,
      "geocoding_level": null,
      "phone": "",
      "license_no": "01262451",
      "license_date": "2022-11-11",
      "expire_date": "2029-01-31"
    },
    {
      "name": "コードマーク御代田",
      "name_kana": "コードマークミヨタ",
      "business_type": "① 飲食店営業",
      "address": "長野県北佐久郡御代田町大字面替９９５",
      "lat": 36.296601,
      "lng": 138.520773,
      "geocoding_level": null,
      "phone": "080-7628-1815",
      "license_no": "01260691",
      "license_date": "2022-07-01",
      "expire_date": "2029-01-31"
    },
    {
      "name": "コードマーク御代田",
      "name_kana": "コードマークミヨタ",
      "business_type": "㉚ 密封包装食品製造業",
      "address": "長野県北佐久郡御代田町大字面替９９５",
      "lat": 36.296601,
      "lng": 138.520773,
      "geocoding_level": null,
      "phone": "080-7628-1815",
      "license_no": "01260702",
      "license_date": "2022-07-01",
      "expire_date": "2029-01-31"
    },
    {
      "name": "ファームベコ",
      "name_kana": "ファームベコ",
      "business_type": "⑰ 農産保存食料品製造・加工業",
      "address": "長野県北佐久郡御代田町御代田１７０４",
      "lat": 36.304814,
      "lng": 138.495036,
      "geocoding_level": null,
      "phone": "",
      "license_no": "",
      "license_date": null,
      "expire_date": null
    },
    {
      "name": "和漢薬膳料理塾　平田幾子",
      "name_kana": "ワカンヤクゼンリョウリジュク　ヒラタイクコ",
      "business_type": "㉔ その他の食料品製造・加工業",
      "address": "長野県北佐久郡御代田町塩野３１８０－５５４",
      "lat": 36.335742,
      "lng": 138.508779,
      "geocoding_level": null,
      "phone": "",
      "license_no": "",
      "license_date": null,
      "expire_date": null
    },
    {
      "name": "otto  the  spices",
      "name_kana": "オットー　ザ　スパイス",
      "business_type": "① 飲食店営業",
      "address": "長野県北佐久郡御代田町大字草越１１７３－１１６２",
      "lat": 36.313833,
      "lng": 138.527144,
      "geocoding_level": null,
      "phone": "080-1055-2289",
      "license_no": "01261011",
      "license_date": "2022-07-19",
      "expire_date": "2027-07-31"
    },
    {
      "name": "otto  the  spices",
      "name_kana": "オットー　ザ　スパイス",
      "business_type": "⑬ その他の食料・飲料販売業",
      "address": "長野県北佐久郡御代田町大字草越１１７３－１１６２",
      "lat": 36.313833,
      "lng": 138.527144,
      "geocoding_level": null,
      "phone": "080-1055-2289",
      "license_no": "",
      "license_date": null,
      "expire_date": null
    },
    {
      "name": "ｏｔｔｏ　ｔｈｅ　ｓｐｉｃｅｓ",
      "name_kana": "オットー　ザ　スパイス",
      "business_type": "① 飲食店営業",
      "address": "長野県北佐久郡御代田町大字草越１１７３－１１６２",
      "lat": 36.316772,
      "lng": 138.531494,
      "geocoding_level": null,
      "phone": "080-1055-2289",
      "license_no": "01271500",
      "license_date": "2024-08-22",
      "expire_date": "2029-08-31"
    },
    {
      "name": "ｏｔｔｏ　ｔｈｅ　ｓｐｉｃｅｓ",
      "name_kana": "オットー　ザ　スパイス",
      "business_type": "① 飲食店営業",
      "address": "長野県北佐久郡御代田町大字草越１１７３－１１６２",
      "lat": 36.316772,
      "lng": 138.531494,
      "geocoding_level": null,
      "phone": "080-1055-2289",
      "license_no": "01271517",
      "license_date": "2024-08-23",
      "expire_date": "2031-01-31"
    },
    {
      "name": "ｏｔｔｏ　ｔｈｅ　ｓｐｉｃｅｓ",
      "name_kana": "オットー　ザ　スパイス",
      "business_type": "⑪ 菓子製造業",
      "address": "長野県北佐久郡御代田町大字草越１１７３－１１６２",
      "lat": 36.316772,
      "lng": 138.531494,
      "geocoding_level": null,
      "phone": "080-1055-2289",
      "license_no": "01271524",
      "license_date": "2024-08-23",
      "expire_date": "2031-01-31"
    },
    {
      "name": "ｏｔｔｏ　ｔｈｅ　ｓｐｉｃｅｓ",
      "name_kana": "オットー　ザ　スパイス",
      "business_type": "㉕ そうざい製造業",
      "address": "長野県北佐久郡御代田町大字草越１１７３－１１６２",
      "lat": 36.316772,
      "lng": 138.531494,
      "geocoding_level": null,
      "phone": "080-1055-2289",
      "license_no": "01271531",
      "license_date": "2024-08-23",
      "expire_date": "2031-01-31"
    },
    {
      "name": "やきとり　力ちゃん",
      "name_kana": "ヤキトリ　リキチャン",
      "business_type": "① 飲食店営業",
      "address": "長野県北佐久郡御代田町大字馬瀬口５９３－５",
      "lat": 36.321193,
      "lng": 138.500146,
      "geocoding_level": null,
      "phone": "080-1957-0228",
      "license_no": "01261277",
      "license_date": "2022-08-05",
      "expire_date": "2029-01-31"
    },
    {
      "name": "大浅間ゴルフクラブ",
      "name_kana": "ダイアサマゴルフクラブ",
      "business_type": "⑬ その他の食料・飲料販売業",
      "address": "長野県北佐久郡御代田町大字塩野４００－１",
      "lat": 36.344506,
      "lng": 138.507588,
      "geocoding_level": null,
      "phone": "0267-32-3131",
      "license_no": "",
      "license_date": null,
      "expire_date": null
    },
    {
      "name": "社会福祉法人軽井沢会　特別養護老人ホーム　きらく苑",
      "name_kana": "シャカイフクシホウジンカルイザワカイ　トクベツヨウゴロウジンホーム　キラクエン",
      "business_type": "㉖ 集団給食施設",
      "address": "長野県北佐久郡御代田町御代田４１０８－１３７４",
      "lat": 36.328411,
      "lng": 138.526463,
      "geocoding_level": null,
      "phone": "0267-32-2525",
      "license_no": "",
      "license_date": null,
      "expire_date": null
    },
    {
      "name": "みよたの喫茶",
      "name_kana": "ミヨタノキッサ",
      "business_type": "① 飲食店営業",
      "address": "長野県北佐久郡御代田町馬瀬口1851",
      "lat": 36.321764,
      "lng": 138.508545,
      "geocoding_level": null,
      "phone": "",
      "license_no": "01261505",
      "license_date": "2022-08-26",
      "expire_date": "2027-08-31"
    },
    {
      "name": "ＧｏｋａＬｏｂ．Ｃａｆｅ",
      "name_kana": "ゴカラボ　カフェ",
      "business_type": "⑬ その他の食料・飲料販売業",
      "address": "長野県北佐久郡御代田町草越１２０７－２３",
      "lat": 36.312074,
      "lng": 138.53031,
      "geocoding_level": null,
      "phone": "0267-31-0661",
      "license_no": "",
      "license_date": null,
      "expire_date": null
    },
    {
      "name": "かえる亭",
      "name_kana": "カエルテイ",
      "business_type": "① 飲食店営業",
      "address": "長野県北佐久郡御代田町御代田２５６８－１３５ 大原ハイツＦ",
      "lat": 36.32845,
      "lng": 138.523216,
      "geocoding_level": null,
      "phone": "",
      "license_no": "01261747",
      "license_date": "2022-09-13",
      "expire_date": "2027-09-30"
    },
    {
      "name": "かえる亭",
      "name_kana": "カエルテイ",
      "business_type": "① 飲食店営業",
      "address": "長野県北佐久郡御代田町塩野１４９４－３",
      "lat": 36.332862,
      "lng": 138.490106,
      "geocoding_level": null,
      "phone": "0267-46-9485",
      "license_no": "01263285",
      "license_date": "2023-03-10",
      "expire_date": "2030-01-31"
    },
    {
      "name": "西軽井沢ホテルアトリエブルゥｂｙＬｏｎｇｉｎｇｈｏｕｓｅ　１階　蒸汽８",
      "name_kana": "ニシカルイザワホテルアトリエブルゥバイロンギングハウス　イッカイ　スチームエイト",
      "business_type": "① 飲食店営業",
      "address": "長野県北佐久郡御代田町大字馬瀬口字雀ヶ谷１４７１－３",
      "lat": 36.329555,
      "lng": 138.508342,
      "geocoding_level": null,
      "phone": "080-1053-5884",
      "license_no": "01276813",
      "license_date": "2025-12-19",
      "expire_date": "2032-01-31"
    },
    {
      "name": "Tiny Cabin TATEGU01",
      "name_kana": "タイニーキャビンタテグ",
      "business_type": "② 食肉販売業（包装済みの食肉のみの販売）",
      "address": "長野県北佐久郡御代田町御代田豊昇字黒岩3-19",
      "lat": 36.331568,
      "lng": 138.523554,
      "geocoding_level": null,
      "phone": "",
      "license_no": "",
      "license_date": null,
      "expire_date": null
    },
    {
      "name": "Tiny Cabin TATEGU02",
      "name_kana": "タイニーキャビンタテグ",
      "business_type": "② 食肉販売業（包装済みの食肉のみの販売）",
      "address": "長野県北佐久郡御代田町豊昇字黒岩3-55",
      "lat": 36.293576,
      "lng": 138.533729,
      "geocoding_level": null,
      "phone": "",
      "license_no": "",
      "license_date": null,
      "expire_date": null
    },
    {
      "name": "Ｒｏｍ",
      "name_kana": "ロム",
      "business_type": "㉚ 密封包装食品製造業",
      "address": "長野県北佐久郡御代田町御代田１７８１",
      "lat": 36.308458,
      "lng": 138.498555,
      "geocoding_level": null,
      "phone": "080-5021-6026",
      "license_no": "01262817",
      "license_date": "2023-01-13",
      "expire_date": "2029-01-31"
    },
    {
      "name": "Ｒｏｍ",
      "name_kana": "ロム",
      "business_type": "⑱ 調味料製造・加工業",
      "address": "長野県北佐久郡御代田町御代田１７８１",
      "lat": 36.308458,
      "lng": 138.498555,
      "geocoding_level": null,
      "phone": "080-5021-6026",
      "license_no": "",
      "license_date": null,
      "expire_date": null
    },
    {
      "name": "ドラッグストアマツモトキヨシ御代田店",
      "name_kana": "ドラッグストアマツモトキヨシミヨタテン",
      "business_type": "⑬ その他の食料・飲料販売業",
      "address": "長野県北佐久郡御代田町馬瀬口1850",
      "lat": 36.321975,
      "lng": 138.508887,
      "geocoding_level": null,
      "phone": "",
      "license_no": "",
      "license_date": null,
      "expire_date": null
    },
    {
      "name": "株式会社キョウショク",
      "name_kana": "カブシキガイシャキョウショク",
      "business_type": "㉙ 漬物製造業",
      "address": "長野県北佐久郡御代田町大字馬瀬口雀ヶ谷１４９８",
      "lat": 36.329555,
      "lng": 138.508342,
      "geocoding_level": null,
      "phone": "0267-32-6155",
      "license_no": "01262945",
      "license_date": "2023-02-10",
      "expire_date": "2030-01-31"
    },
    {
      "name": "株式会社キョウショク",
      "name_kana": "カブシキガイシャキョウショク",
      "business_type": "⑫ アイスクリーム類製造業",
      "address": "長野県北佐久郡御代田町大字馬瀬口雀ヶ谷１４９８",
      "lat": 36.329555,
      "lng": 138.508342,
      "geocoding_level": null,
      "phone": "0267-32-6155",
      "license_no": "01262952",
      "license_date": "2023-02-10",
      "expire_date": "2030-01-31"
    },
    {
      "name": "株式会社キョウショク",
      "name_kana": "カブシキガイシャキョウショク",
      "business_type": "㉕ そうざい製造業",
      "address": "長野県北佐久郡御代田町大字馬瀬口雀ヶ谷１４９８",
      "lat": 36.329555,
      "lng": 138.508342,
      "geocoding_level": null,
      "phone": "0267-32-6155",
      "license_no": "01175167",
      "license_date": "2023-01-31",
      "expire_date": "2029-01-31"
    },
    {
      "name": "UOVO",
      "name_kana": "ウォーヴォ",
      "business_type": "① 飲食店営業",
      "address": "長野県北佐久郡御代田町大字馬瀬口雀ヶ谷1498",
      "lat": 36.329555,
      "lng": 138.508342,
      "geocoding_level": null,
      "phone": "",
      "license_no": "01267287",
      "license_date": "2023-09-29",
      "expire_date": "2028-09-30"
    },
    {
      "name": "ファインコスト　メッツゲライ　カタヤマ",
      "name_kana": "ファインコスト　メッツゲライ　カタヤマ",
      "business_type": "⑮ 食肉製品製造業",
      "address": "長野県北佐久郡御代田町馬瀬口４５６－２",
      "lat": 36.313536,
      "lng": 138.499384,
      "geocoding_level": null,
      "phone": "0267-32-3539",
      "license_no": "01171763",
      "license_date": "2023-01-31",
      "expire_date": "2029-01-31"
    },
    {
      "name": "ファインコスト　メッツゲライ　カタヤマ",
      "name_kana": "ファインコスト　メッツゲライ　カタヤマ",
      "business_type": "① 飲食店営業",
      "address": "長野県北佐久郡御代田町馬瀬口４５６－２",
      "lat": 36.313536,
      "lng": 138.499384,
      "geocoding_level": null,
      "phone": "0267-32-3539",
      "license_no": "01171771",
      "license_date": "2023-01-31",
      "expire_date": "2029-01-31"
    },
    {
      "name": "すみか",
      "name_kana": "スミカ",
      "business_type": "① 飲食店営業",
      "address": "長野県北佐久郡御代田町馬瀬口１５０８－７０",
      "lat": 36.331776,
      "lng": 138.511046,
      "geocoding_level": null,
      "phone": "080-6938-8137",
      "license_no": "01238143",
      "license_date": "2023-01-31",
      "expire_date": "2028-01-31"
    },
    {
      "name": "コパ",
      "name_kana": "コパ",
      "business_type": "① 飲食店営業",
      "address": "長野県北佐久郡御代田町御代田２４２２－７８",
      "lat": 36.318723,
      "lng": 138.505764,
      "geocoding_level": null,
      "phone": "090-2205-5170",
      "license_no": "01238307",
      "license_date": "2023-01-31",
      "expire_date": "2028-01-31"
    },
    {
      "name": "味工房「みよた」",
      "name_kana": "アジコウボウ　ミヨタ",
      "business_type": "㉔ その他の食料品製造・加工業",
      "address": "長野県北佐久郡御代田町草越１２０７－２３",
      "lat": 36.312074,
      "lng": 138.53031,
      "geocoding_level": null,
      "phone": "080-1140-6888",
      "license_no": "",
      "license_date": null,
      "expire_date": null
    },
    {
      "name": "ＣＯＲＮＥＲ　ＳＨＯＰ　ＭＩＹＯＴＡ",
      "name_kana": "コーナー　ショップ　ミヨタ",
      "business_type": "① 飲食店営業",
      "address": "長野県北佐久郡御代田町御代田２４２２－５５",
      "lat": 36.31816,
      "lng": 138.506044,
      "geocoding_level": null,
      "phone": "080-1191-0907",
      "license_no": "01263883",
      "license_date": "2023-04-13",
      "expire_date": "2030-01-31"
    },
    {
      "name": "ＣＯＲＮＥＲ  ＳＨＯＰ  ＭＩＹＯＴＡ",
      "name_kana": "コーナー　ショップ　ミヨタ",
      "business_type": "① 飲食店営業",
      "address": "長野県北佐久郡御代田町馬瀬口１５９７－４８５",
      "lat": 36.335952,
      "lng": 138.519445,
      "geocoding_level": null,
      "phone": "",
      "license_no": "01266922",
      "license_date": "2023-09-12",
      "expire_date": "2028-09-30"
    },
    {
      "name": "ＣＯＲＮＥＲ  ＳＨＯＰ  ＭＩＹＯＴＡ",
      "name_kana": "コーナー　ショップ　ミヨタ",
      "business_type": "① 飲食店営業",
      "address": "長野県北佐久郡御代田町馬瀬口１５９７－４８５",
      "lat": 36.335936,
      "lng": 138.519434,
      "geocoding_level": null,
      "phone": "",
      "license_no": "01272641",
      "license_date": "2024-11-11",
      "expire_date": "2029-11-30"
    },
    {
      "name": "ＣＯＲＮＥＲ  ＳＨＯＰ  ＭＩＹＯＴＡ",
      "name_kana": "コーナー　ショップ　ミヨタ",
      "business_type": "① 飲食店営業",
      "address": "長野県北佐久郡御代田町馬瀬口１５９７－４８５",
      "lat": 36.335936,
      "lng": 138.519434,
      "geocoding_level": null,
      "phone": "",
      "license_no": "01272658",
      "license_date": "2024-11-11",
      "expire_date": "2029-11-30"
    },
    {
      "name": "御代田町観光協会",
      "name_kana": "ミヨタマチカンコウキョウカイ",
      "business_type": "① 飲食店営業",
      "address": "長野県北佐久郡御代田町塩野１２８－１０１真楽寺子育て地蔵前",
      "lat": 36.340478,
      "lng": 138.481473,
      "geocoding_level": null,
      "phone": "",
      "license_no": "01263972",
      "license_date": "2023-04-21",
      "expire_date": "2029-01-31"
    },
    {
      "name": "御代田町観光協会",
      "name_kana": "ミヨタマチカンコウキョウカイ",
      "business_type": "① 飲食店営業",
      "address": "長野県北佐久郡御代田町御代田２５０５－２龍神の杜公園",
      "lat": 36.317145,
      "lng": 138.50956,
      "geocoding_level": null,
      "phone": "",
      "license_no": "01264394",
      "license_date": "2023-05-12",
      "expire_date": "2029-01-31"
    },
    {
      "name": "塩野中山間直売所「ひだまり」",
      "name_kana": "シオノチュウサンカンチョクバイジョ　ヒダマリ",
      "business_type": "⑦ 野菜果物販売業",
      "address": "長野県北佐久郡御代田町大字塩野４９６－１",
      "lat": 36.339163,
      "lng": 138.5009,
      "geocoding_level": null,
      "phone": "0267-32-8270",
      "license_no": "",
      "license_date": null,
      "expire_date": null
    },
    {
      "name": "主水",
      "name_kana": "モンド",
      "business_type": "① 飲食店営業",
      "address": "長野県北佐久郡御代田町大字御代田神明１８６５－１",
      "lat": 36.308104,
      "lng": 138.494983,
      "geocoding_level": null,
      "phone": "",
      "license_no": "01266826",
      "license_date": "2023-09-08",
      "expire_date": "2030-01-31"
    },
    {
      "name": "主水",
      "name_kana": "モンド",
      "business_type": "㉕ そうざい製造業",
      "address": "長野県北佐久郡御代田町大字御代田神明１８６５－１",
      "lat": 36.308104,
      "lng": 138.494983,
      "geocoding_level": null,
      "phone": "",
      "license_no": "01266833",
      "license_date": "2023-09-08",
      "expire_date": "2030-01-31"
    },
    {
      "name": "主水",
      "name_kana": "モンド",
      "business_type": "㉔ 麺類製造業",
      "address": "長野県北佐久郡御代田町大字御代田神明１８６５－１",
      "lat": 36.308104,
      "lng": 138.494983,
      "geocoding_level": null,
      "phone": "",
      "license_no": "01266841",
      "license_date": "2023-09-08",
      "expire_date": "2030-01-31"
    },
    {
      "name": "ひだか",
      "name_kana": "ヒダカ",
      "business_type": "① 飲食店営業",
      "address": "長野県北佐久郡御代田町大字一里塚２４８０番１4",
      "lat": 36.320227,
      "lng": 138.510639,
      "geocoding_level": null,
      "phone": "090-9660-3137",
      "license_no": "01265230",
      "license_date": "2023-06-23",
      "expire_date": "2030-01-31"
    },
    {
      "name": "医療法人社団軽井沢西部総合病院",
      "name_kana": "イリョウホウジンシャダンカルイザワセイブソウゴウビョウイン",
      "business_type": "① 飲食店営業",
      "address": "長野県北佐久郡御代田町御代田４１０７－４０",
      "lat": 36.311661,
      "lng": 138.515362,
      "geocoding_level": null,
      "phone": "0267-32-4711",
      "license_no": "01265329",
      "license_date": "2023-06-30",
      "expire_date": "2030-01-31"
    },
    {
      "name": "加藤商店",
      "name_kana": "カトウショウテン",
      "business_type": "① 飲食店営業",
      "address": "長野県北佐久郡御代田町草越１１９０－１９７",
      "lat": 36.308808,
      "lng": 138.523153,
      "geocoding_level": null,
      "phone": "090-3145-8482",
      "license_no": "01166168",
      "license_date": "2023-05-31",
      "expire_date": "2028-05-31"
    },
    {
      "name": "加藤商店",
      "name_kana": "カトウショウテン",
      "business_type": "① 飲食店営業",
      "address": "長野県北佐久郡御代田町草越１１９０－１９７",
      "lat": 36.308808,
      "lng": 138.523153,
      "geocoding_level": null,
      "phone": "090-3145-8482",
      "license_no": "01166306",
      "license_date": "2023-05-31",
      "expire_date": "2028-05-31"
    },
    {
      "name": "風靡",
      "name_kana": "フウビ",
      "business_type": "① 飲食店営業",
      "address": "長野県北佐久郡御代田町御代田２４２２－２８",
      "lat": 36.317675,
      "lng": 138.505839,
      "geocoding_level": null,
      "phone": "",
      "license_no": "01270739",
      "license_date": "2024-07-12",
      "expire_date": "2030-01-31"
    },
    {
      "name": "戸塚酒造株式会社　御代田蒸留所",
      "name_kana": "トツカシュゾウカブシキガイシャ　ミヨタジョウリュウジョ",
      "business_type": "㉑ 酒類製造業",
      "address": "長野県北佐久郡御代田町馬瀬口９５３－４",
      "lat": 36.32828,
      "lng": 138.489152,
      "geocoding_level": null,
      "phone": "",
      "license_no": "01266281",
      "license_date": "2023-08-08",
      "expire_date": "2030-01-31"
    },
    {
      "name": "ラメール",
      "name_kana": "ラメール",
      "business_type": "① 飲食店営業",
      "address": "長野県北佐久郡御代田町御代田２４９６",
      "lat": 36.318004,
      "lng": 138.509238,
      "geocoding_level": null,
      "phone": "090-4017-7748",
      "license_no": "01265902",
      "license_date": "2023-07-19",
      "expire_date": "2028-07-31"
    },
    {
      "name": "ラメール",
      "name_kana": "ラメール",
      "business_type": "① 飲食店営業",
      "address": "長野県北佐久郡御代田町御代田２４９６",
      "lat": 36.318004,
      "lng": 138.509238,
      "geocoding_level": null,
      "phone": "090-4017-7748",
      "license_no": "01265910",
      "license_date": "2023-07-19",
      "expire_date": "2028-07-31"
    },
    {
      "name": "ラメール",
      "name_kana": "ラメール",
      "business_type": "① 飲食店営業",
      "address": "長野県北佐久郡御代田町御代田２４９６",
      "lat": 36.318004,
      "lng": 138.509238,
      "geocoding_level": null,
      "phone": "090-4017-7748",
      "license_no": "01265927",
      "license_date": "2023-07-19",
      "expire_date": "2028-07-31"
    },
    {
      "name": "ラメール",
      "name_kana": "ラメール",
      "business_type": "① 飲食店営業",
      "address": "長野県北佐久郡御代田町御代田２４９６",
      "lat": 36.318004,
      "lng": 138.509238,
      "geocoding_level": null,
      "phone": "090-4017-7748",
      "license_no": "01265934",
      "license_date": "2023-07-19",
      "expire_date": "2028-07-31"
    },
    {
      "name": "蕎麦　つぼ井",
      "name_kana": "ソバ　ツボイ",
      "business_type": "① 飲食店営業",
      "address": "長野県北佐久郡御代田町大字御代田２４５２－１８",
      "lat": 36.319849,
      "lng": 138.508185,
      "geocoding_level": null,
      "phone": "",
      "license_no": "01265941",
      "license_date": "2023-07-21",
      "expire_date": "2030-01-31"
    },
    {
      "name": "キッチンカー　ＡＳＡＭＡ－ＧＯ",
      "name_kana": "キッチンカー　アサマ　ゴウ",
      "business_type": "① 飲食店営業",
      "address": "長野県北佐久郡御代田町御代田２０１３－１６",
      "lat": 36.312603,
      "lng": 138.497383,
      "geocoding_level": null,
      "phone": "",
      "license_no": "01266114",
      "license_date": "2023-08-01",
      "expire_date": "2028-08-31"
    },
    {
      "name": "レストランバロン",
      "name_kana": "レストランバロン",
      "business_type": "① 飲食店営業",
      "address": "長野県北佐久郡御代田町大字御代田２０１３－１６",
      "lat": 36.312603,
      "lng": 138.497383,
      "geocoding_level": null,
      "phone": "0267-32-0087",
      "license_no": "01244712",
      "license_date": "2024-01-31",
      "expire_date": "2029-01-31"
    },
    {
      "name": "ＴＲＡＩＴＥＵＲ　Ｃａｐｒｉｃｉｅｕｘ",
      "name_kana": "トレトゥール　カプリス",
      "business_type": "㉕ そうざい製造業",
      "address": "長野県北佐久郡御代田町御代田４１０８－１８２６",
      "lat": 36.324256,
      "lng": 138.523217,
      "geocoding_level": null,
      "phone": "090-4442-7076",
      "license_no": "01276432",
      "license_date": "2025-10-24",
      "expire_date": "2032-01-31"
    },
    {
      "name": "ｌａｇｏｍ",
      "name_kana": "ラーゴム",
      "business_type": "① 飲食店営業",
      "address": "長野県北佐久郡御代田町馬瀬口１７９９－１",
      "lat": 36.322387,
      "lng": 138.507724,
      "geocoding_level": null,
      "phone": "090-7197-4853",
      "license_no": "01266363",
      "license_date": "2023-08-14",
      "expire_date": "2030-01-31"
    },
    {
      "name": "そばの実ｅｎｉｓｈｉ",
      "name_kana": "ソバノミエニシ",
      "business_type": "① 飲食店営業",
      "address": "長野県北佐久郡御代田町大字御代田２５５４番地５",
      "lat": 36.32886,
      "lng": 138.519929,
      "geocoding_level": null,
      "phone": "0267-46-9948",
      "license_no": "01266961",
      "license_date": "2023-09-22",
      "expire_date": "2030-01-31"
    },
    {
      "name": "株式会社くるまや",
      "name_kana": "カブシキガイシャクルマヤ",
      "business_type": "㉙ 漬物製造業",
      "address": "長野県北佐久郡御代田町馬瀬口８７６",
      "lat": 36.321873,
      "lng": 138.484309,
      "geocoding_level": null,
      "phone": "",
      "license_no": "01267110",
      "license_date": "2023-09-26",
      "expire_date": "2030-01-31"
    },
    {
      "name": "（株）くるまや",
      "name_kana": "カブシキガイシャクルマヤ",
      "business_type": "㉕ そうざい製造業",
      "address": "長野県北佐久郡御代田町馬瀬口８７６",
      "lat": 36.321873,
      "lng": 138.484309,
      "geocoding_level": null,
      "phone": "0267-32-4468",
      "license_no": "01268340",
      "license_date": "2024-01-30",
      "expire_date": "2030-01-31"
    },
    {
      "name": "（株）くるまや",
      "name_kana": "カブシキガイシャクルマヤ",
      "business_type": "⑬ 乳製品製造業",
      "address": "長野県北佐久郡御代田町馬瀬口８７６",
      "lat": 36.321873,
      "lng": 138.484309,
      "geocoding_level": null,
      "phone": "0267-32-4468",
      "license_no": "01220483",
      "license_date": "2024-01-31",
      "expire_date": "2029-01-31"
    },
    {
      "name": "ｐｏｒｃｏ",
      "name_kana": "ポルコ",
      "business_type": "① 飲食店営業",
      "address": "長野県北佐久郡御代田町草越４４３",
      "lat": 36.315242,
      "lng": 138.545114,
      "geocoding_level": null,
      "phone": "090-2565-1188",
      "license_no": "01267141",
      "license_date": "2023-09-26",
      "expire_date": "2028-09-30"
    },
    {
      "name": "ＧＲＡＣＩＡ",
      "name_kana": "グラシア",
      "business_type": "① 飲食店営業",
      "address": "長野県北佐久郡御代田町馬瀬口５９３－１　Ｐ．Ｋビル１Ｆ.２",
      "lat": 36.322014,
      "lng": 138.500555,
      "geocoding_level": null,
      "phone": "0267-41-6544",
      "license_no": "01267839",
      "license_date": "2023-11-17",
      "expire_date": "2030-01-31"
    },
    {
      "name": "Ｌｕｃｉａ",
      "name_kana": "ルシア",
      "business_type": "① 飲食店営業",
      "address": "長野県北佐久郡御代田町大字御代田２４２２－５２",
      "lat": 36.318155,
      "lng": 138.506201,
      "geocoding_level": null,
      "phone": "0267-32-3122",
      "license_no": "01267846",
      "license_date": "2023-11-17",
      "expire_date": "2030-01-31"
    },
    {
      "name": "hakko cooking ＆ coffee roaster ouchigohan",
      "name_kana": "ハッコウ　クッキング　アンド　ロースター　オウチゴハン",
      "business_type": "⑬ その他の食料・飲料販売業",
      "address": "長野県北佐久郡御代田町大字御代田４１０８－２３８７",
      "lat": 36.315442,
      "lng": 138.519109,
      "geocoding_level": null,
      "phone": "",
      "license_no": "",
      "license_date": null,
      "expire_date": null
    },
    {
      "name": "hakko cooking ＆ coffee roaster ouchigohan",
      "name_kana": "ハッコウ　クッキング　アンド　ロースター　オウチゴハン",
      "business_type": "⑯ コーヒー製造・加工業（飲料の製造を除く。）",
      "address": "長野県北佐久郡御代田町大字御代田４１０８－２３８７",
      "lat": 36.315442,
      "lng": 138.519109,
      "geocoding_level": null,
      "phone": "",
      "license_no": "",
      "license_date": null,
      "expire_date": null
    },
    {
      "name": "ほっともっと御代田店",
      "name_kana": "ホットモットミヨタテン",
      "business_type": "⑬ その他の食料・飲料販売業",
      "address": "長野県北佐久郡御代田町大字馬瀬口１８４３－１",
      "lat": 36.32244,
      "lng": 138.508824,
      "geocoding_level": null,
      "phone": "0267-31-4021",
      "license_no": "",
      "license_date": null,
      "expire_date": null
    },
    {
      "name": "酒処 あすなろ",
      "name_kana": "サケドコロ　アスナロ",
      "business_type": "① 飲食店営業",
      "address": "長野県北佐久郡御代田町御代田２４２２－７０",
      "lat": 36.318054,
      "lng": 138.506888,
      "geocoding_level": null,
      "phone": "0267-28-9019",
      "license_no": "01242483",
      "license_date": "2024-01-31",
      "expire_date": "2030-01-31"
    },
    {
      "name": "Ｆｕｎ　Ｆｕｎ",
      "name_kana": "ファン　ファン",
      "business_type": "① 飲食店営業",
      "address": "長野県北佐久郡御代田町馬瀬口５９３－２",
      "lat": 36.321593,
      "lng": 138.500555,
      "geocoding_level": null,
      "phone": "",
      "license_no": "01244566",
      "license_date": "2024-01-31",
      "expire_date": "2029-01-31"
    },
    {
      "name": "スナック　ルパン",
      "name_kana": "スナック　ルパン",
      "business_type": "① 飲食店営業",
      "address": "長野県北佐久郡御代田町大字馬瀬口５９３－２",
      "lat": 36.321637,
      "lng": 138.500615,
      "geocoding_level": null,
      "phone": "090-9359-3480",
      "license_no": "01246193",
      "license_date": "2024-01-31",
      "expire_date": "2029-01-31"
    },
    {
      "name": "御代田駅前倶楽部",
      "name_kana": "ミヨタエキマエクラブ",
      "business_type": "① 飲食店営業",
      "address": "長野県北佐久郡御代田町御代田２４２２－４９　窪田ビル１Ｆ",
      "lat": 36.318129,
      "lng": 138.506297,
      "geocoding_level": null,
      "phone": "0267-31-2502",
      "license_no": "01223141",
      "license_date": "2024-01-31",
      "expire_date": "2029-01-31"
    },
    {
      "name": "ひょうたん",
      "name_kana": "ヒョウタン",
      "business_type": "① 飲食店営業",
      "address": "長野県北佐久郡御代田町馬瀬口２０８５",
      "lat": 36.322147,
      "lng": 138.49874,
      "geocoding_level": null,
      "phone": "0267-32-2391",
      "license_no": "01175830",
      "license_date": "2024-01-31",
      "expire_date": "2030-01-31"
    },
    {
      "name": "食事処　辨慶",
      "name_kana": "ショクジドコロ　ベンケイ",
      "business_type": "① 飲食店営業",
      "address": "長野県北佐久郡御代田町馬瀬口２０８５－１",
      "lat": 36.32182,
      "lng": 138.498466,
      "geocoding_level": null,
      "phone": "0267-32-6559",
      "license_no": "01175808",
      "license_date": "2024-01-31",
      "expire_date": "2030-01-31"
    },
    {
      "name": "株式会社パン・トゥルーベ",
      "name_kana": "カブシキガイシャパン　トゥルーベ",
      "business_type": "⑪ 菓子製造業",
      "address": "長野県北佐久郡御代田町塩野４５０－２４",
      "lat": 36.337908,
      "lng": 138.505064,
      "geocoding_level": null,
      "phone": "0267-41-6678",
      "license_no": "01247523",
      "license_date": "2024-01-31",
      "expire_date": "2029-01-31"
    },
    {
      "name": "株式会社パン・トゥルーベ",
      "name_kana": "カブシキガイシャパン　トゥルーベ",
      "business_type": "③ 乳類販売業",
      "address": "長野県北佐久郡御代田町塩野４５０－２４",
      "lat": 36.337908,
      "lng": 138.505064,
      "geocoding_level": null,
      "phone": "0267-41-6678",
      "license_no": "",
      "license_date": null,
      "expire_date": null
    },
    {
      "name": "Ｋ’ｓ　Ｒｏａｓｔｅｒｙ",
      "name_kana": "ケーズ　ロースタリー",
      "business_type": "① 飲食店営業",
      "address": "長野県北佐久郡御代田町面替９２７－１２",
      "lat": 36.298922,
      "lng": 138.521383,
      "geocoding_level": null,
      "phone": "070-4475-4792",
      "license_no": "01269360",
      "license_date": "2024-04-30",
      "expire_date": "2029-04-30"
    },
    {
      "name": "Ｍａｒｙ’ｓ　ｂａｒ　＆　ｅｓｐｒｅｓｓｏ",
      "name_kana": "マリーズ　バー　アンド　エスプレッソ",
      "business_type": "① 飲食店営業",
      "address": "長野県北佐久郡御代田町御代田４１０８－４２５",
      "lat": 36.315442,
      "lng": 138.519109,
      "geocoding_level": null,
      "phone": "090-1818-1413",
      "license_no": "01269570",
      "license_date": "2024-05-17",
      "expire_date": "2031-01-31"
    },
    {
      "name": "ベーカリー　モッキ",
      "name_kana": "ベーカリー　モッキ",
      "business_type": "⑪ 菓子製造業",
      "address": "長野県北佐久郡御代田町御代田３９２３番地２２号",
      "lat": 36.318484,
      "lng": 138.518436,
      "geocoding_level": null,
      "phone": "",
      "license_no": "01270123",
      "license_date": "2024-06-14",
      "expire_date": "2031-01-31"
    },
    {
      "name": "フェリーチェ",
      "name_kana": "フェリーチェ",
      "business_type": "⑪ 菓子製造業",
      "address": "長野県北佐久郡御代田町御代田１９１２－１",
      "lat": 36.308597,
      "lng": 138.494487,
      "geocoding_level": null,
      "phone": "0267-41-6288",
      "license_no": "01221860",
      "license_date": "2026-01-30",
      "expire_date": "2032-01-31"
    },
    {
      "name": "ＭＭｏＰ",
      "name_kana": "モップ",
      "business_type": "① 飲食店営業",
      "address": "長野県北佐久郡御代田町大字馬瀬口１７９４－１",
      "lat": 36.322681,
      "lng": 138.507715,
      "geocoding_level": null,
      "phone": "0267-41-0436",
      "license_no": "01270551",
      "license_date": "2024-06-28",
      "expire_date": "2029-06-30"
    },
    {
      "name": "ＭＭｏＰ",
      "name_kana": "モップ",
      "business_type": "⑬ その他の食料・飲料販売業",
      "address": "長野県北佐久郡御代田町大字馬瀬口１７９４－１",
      "lat": 36.322681,
      "lng": 138.507715,
      "geocoding_level": null,
      "phone": "0267-41-0436",
      "license_no": "",
      "license_date": null,
      "expire_date": null
    },
    {
      "name": "ラーメン大学　佐久インター店",
      "name_kana": "ラーメンダイガク　サクインターテン",
      "business_type": "① 飲食店営業",
      "address": "長野県北佐久郡御代田町御代田１８６５－１",
      "lat": 36.307043,
      "lng": 138.494795,
      "geocoding_level": null,
      "phone": "0267-32-6783",
      "license_no": "01260983",
      "license_date": "2022-07-15",
      "expire_date": "2029-01-31"
    },
    {
      "name": "VEGIMO SMOOTHIE",
      "name_kana": "ベジモスムージー",
      "business_type": "⑰ 農産保存食料品製造・加工業",
      "address": "長野県北佐久郡御代田町塩野上西田1547-7",
      "lat": 36.361967,
      "lng": 138.50372,
      "geocoding_level": null,
      "phone": "0267-73-0715",
      "license_no": "",
      "license_date": null,
      "expire_date": null
    },
    {
      "name": "HERB ARE YOU？",
      "name_kana": "ハーバーユー",
      "business_type": "㉔ その他の食料品製造・加工業",
      "address": "長野県北佐久郡御代田町塩野上西田1547-7",
      "lat": 36.361967,
      "lng": 138.50372,
      "geocoding_level": null,
      "phone": "0267-73-0715",
      "license_no": "",
      "license_date": null,
      "expire_date": null
    },
    {
      "name": "VEGIMO",
      "name_kana": "ベジモ",
      "business_type": "⑦ 野菜果物販売業",
      "address": "長野県北佐久郡御代田町塩野上西田1547-7",
      "lat": 36.361967,
      "lng": 138.50372,
      "geocoding_level": null,
      "phone": "0267-73-0715",
      "license_no": "",
      "license_date": null,
      "expire_date": null
    },
    {
      "name": "御代田町　雪窓保育園",
      "name_kana": "ミヨタマチ　セッソウホイクエン",
      "business_type": "㉖ 集団給食施設",
      "address": "長野県北佐久郡御代田町大字御代田４１０７番地１１７",
      "lat": 36.310694,
      "lng": 138.514167,
      "geocoding_level": null,
      "phone": "0267-32-4166",
      "license_no": "",
      "license_date": null,
      "expire_date": null
    },
    {
      "name": "御代田町　やまゆり保育園",
      "name_kana": "ミヨタマチ　ヤマユリホイクエン",
      "business_type": "㉖ 集団給食施設",
      "address": "長野県北佐久郡御代田町大字馬瀬口２０９１番地６",
      "lat": 36.327809,
      "lng": 138.503144,
      "geocoding_level": null,
      "phone": "0267-32-2436",
      "license_no": "",
      "license_date": null,
      "expire_date": null
    },
    {
      "name": "ＧｏＫａＬａｂ.Ｃａｆｅ",
      "name_kana": "ゴカラボカフェ",
      "business_type": "① 飲食店営業",
      "address": "長野県北佐久郡御代田町草越１２０７－２３",
      "lat": 36.312066,
      "lng": 138.530234,
      "geocoding_level": null,
      "phone": "",
      "license_no": "01261672",
      "license_date": "2022-09-09",
      "expire_date": "2029-01-31"
    },
    {
      "name": "ＧｏＫａＬａｂ.Ｃａｆｅ",
      "name_kana": "ゴカラボカフェ",
      "business_type": "㉕ そうざい製造業",
      "address": "長野県北佐久郡御代田町草越１２０７－２３",
      "lat": 36.312066,
      "lng": 138.530234,
      "geocoding_level": null,
      "phone": "",
      "license_no": "01261680",
      "license_date": "2022-09-09",
      "expire_date": "2029-01-31"
    },
    {
      "name": "横ちゃん亭",
      "name_kana": "ヨコチャンテイ",
      "business_type": "① 飲食店営業",
      "address": "長野県北佐久郡御代田町御代田１６５２",
      "lat": 36.307811,
      "lng": 138.495753,
      "geocoding_level": null,
      "phone": "080-1080-7432",
      "license_no": "01211267",
      "license_date": "2025-01-31",
      "expire_date": "2031-01-31"
    },
    {
      "name": "Ｂｅｒｉｃｈ（ビーリッチ）",
      "name_kana": "ビーリッチ",
      "business_type": "① 飲食店営業",
      "address": "長野県北佐久郡御代田町大字馬瀬口５９３－１",
      "lat": 36.322038,
      "lng": 138.500535,
      "geocoding_level": null,
      "phone": "090-2677-1835",
      "license_no": "01247797",
      "license_date": "2025-01-31",
      "expire_date": "2030-01-31"
    },
    {
      "name": "居酒屋　あかよろし",
      "name_kana": "イザカヤ　アカヨロシ",
      "business_type": "① 飲食店営業",
      "address": "長野県北佐久郡御代田町馬瀬口１５９７－４",
      "lat": 36.328844,
      "lng": 138.515205,
      "geocoding_level": null,
      "phone": "0267-46-8005",
      "license_no": "01274424",
      "license_date": "2025-05-23",
      "expire_date": "2032-01-31"
    },
    {
      "name": "ゆきまどテラス",
      "name_kana": "ユキマドテラス",
      "business_type": "① 飲食店営業",
      "address": "長野県北佐久郡御代田町大字御代田４０６０－３",
      "lat": 36.308996,
      "lng": 138.518684,
      "geocoding_level": null,
      "phone": "0267-46-9951",
      "license_no": "01274634",
      "license_date": "2025-06-11",
      "expire_date": "2032-01-31"
    },
    {
      "name": "コメリハードアンドグリーン御代田店",
      "name_kana": "コメリハードアンドグリーンミヨタテン",
      "business_type": "⑧ 米穀類販売業",
      "address": "長野県北佐久郡御代田町大字馬瀬口字南浦1771",
      "lat": 36.320288,
      "lng": 138.493258,
      "geocoding_level": null,
      "phone": "0267-31-2547",
      "license_no": "",
      "license_date": null,
      "expire_date": null
    },
    {
      "name": "（株）蕎麦匠きこり製麺所",
      "name_kana": "カブシキガイシャソバショウキコリセイメンジョ",
      "business_type": "㉔ 麺類製造業",
      "address": "長野県北佐久郡御代田町塩野３３７１－１",
      "lat": 36.337882,
      "lng": 138.516527,
      "geocoding_level": null,
      "phone": "0267-31-6620",
      "license_no": "01250195",
      "license_date": "2025-07-31",
      "expire_date": "2031-07-31"
    },
    {
      "name": "ＡＮＮＥＩ",
      "name_kana": "アンネイ",
      "business_type": "① 飲食店営業",
      "address": "長野県北佐久郡御代田町御代田２４５３－３２",
      "lat": 36.319408,
      "lng": 138.508474,
      "geocoding_level": null,
      "phone": "0267-31-5499",
      "license_no": "01276489",
      "license_date": "2025-10-31",
      "expire_date": "2032-01-31"
    },
    {
      "name": "山猫軒ＭＩＹＯＴＡ",
      "name_kana": "ヤマネコケンミヨタ",
      "business_type": "① 飲食店営業",
      "address": "長野県北佐久郡御代田町御代田４１０８－３６３",
      "lat": 36.321558,
      "lng": 138.530294,
      "geocoding_level": null,
      "phone": "090-4224-2712",
      "license_no": "01276717",
      "license_date": "2025-11-28",
      "expire_date": "2032-01-31"
    },
    {
      "name": "エーム　５２６３",
      "name_kana": "エーム　ゴニロクサン",
      "business_type": "① 飲食店営業",
      "address": "長野県北佐久郡御代田町御代田４１０６－７３　ミネベアミツミ内",
      "lat": 36.315779,
      "lng": 138.52301,
      "geocoding_level": null,
      "phone": "090-6619-1608",
      "license_no": "01249218",
      "license_date": "2026-01-30",
      "expire_date": "2032-01-31"
    },
    {
      "name": "エーム　５２６３",
      "name_kana": "エーム　ゴニロクサン",
      "business_type": "① 飲食店営業",
      "address": "長野県北佐久郡御代田町御代田４１０６－７３　ミネベアミツミ内",
      "lat": 36.315779,
      "lng": 138.52301,
      "geocoding_level": null,
      "phone": "090-6619-1608",
      "license_no": "01249225",
      "license_date": "2026-01-30",
      "expire_date": "2032-01-31"
    },
    {
      "name": "エーム５２６７",
      "name_kana": "エーム　ゴニロクナナ",
      "business_type": "① 飲食店営業",
      "address": "長野県北佐久郡御代田町御代田４１０６－６　ミネベアミツミ　クラブハウス",
      "lat": 36.315779,
      "lng": 138.52301,
      "geocoding_level": null,
      "phone": "09040751555",
      "license_no": "01249951",
      "license_date": "2026-01-30",
      "expire_date": "2032-01-31"
    },
    {
      "name": "霧下そば　地粉や",
      "name_kana": "キリシタソバ　ジゴナヤ",
      "business_type": "① 飲食店営業",
      "address": "長野県北佐久郡御代田町大字塩野５２０－２",
      "lat": 36.339159,
      "lng": 138.5005,
      "geocoding_level": null,
      "phone": "0267-31-6663",
      "license_no": "01249151",
      "license_date": "2026-01-30",
      "expire_date": "2032-01-31"
    },
    {
      "name": "のみ処　花",
      "name_kana": "ノミドコロ　ハナ",
      "business_type": "① 飲食店営業",
      "address": "長野県北佐久郡御代田町御代田２４２２－３６",
      "lat": 36.317675,
      "lng": 138.505839,
      "geocoding_level": null,
      "phone": "090-1461-6911",
      "license_no": "01250793",
      "license_date": "2026-01-30",
      "expire_date": "2032-01-31"
    },
    {
      "name": "明治屋旅館",
      "name_kana": "メイジヤリョカン",
      "business_type": "① 飲食店営業",
      "address": "長野県北佐久郡御代田町御代田２４５０",
      "lat": 36.320025,
      "lng": 138.507588,
      "geocoding_level": null,
      "phone": "0267-32-2028",
      "license_no": "02125166",
      "license_date": "2026-01-30",
      "expire_date": "2032-01-31"
    },
    {
      "name": "すなっく　悦ちゃん",
      "name_kana": "スナック　エッチャン",
      "business_type": "① 飲食店営業",
      "address": "長野県北佐久郡御代田町御代田２４２２－４４",
      "lat": 36.317781,
      "lng": 138.506556,
      "geocoding_level": null,
      "phone": "0267-32-7427",
      "license_no": "02150283",
      "license_date": "2026-01-30",
      "expire_date": "2032-01-31"
    },
    {
      "name": "ａＶｉｎ　セントラルキッチン（Ｓｔｕｄｉｏ　Ｒｏｍ内）",
      "name_kana": "アヴァン　セントラルキッチン　スタジオ　ロム",
      "business_type": "㉕ そうざい製造業",
      "address": "長野県北佐久郡御代田町御代田１７８１",
      "lat": 36.308458,
      "lng": 138.498542,
      "geocoding_level": null,
      "phone": "",
      "license_no": "01277363",
      "license_date": "2026-03-06",
      "expire_date": "2033-01-31"
    },
    {
      "name": "ａＶｉｎ　セントラルキッチン（Ｓｔｕｄｉｏ　Ｒｏｍ内）",
      "name_kana": "アヴァン　セントラルキッチン　スタジオ　ロム",
      "business_type": "⑪ 菓子製造業",
      "address": "長野県北佐久郡御代田町御代田１７８１",
      "lat": 36.308458,
      "lng": 138.498542,
      "geocoding_level": null,
      "phone": "",
      "license_no": "01277371",
      "license_date": "2026-03-06",
      "expire_date": "2033-01-31"
    },
    {
      "name": "ほっともっと御代田店",
      "name_kana": "ホットモットミヨタテン",
      "business_type": "① 飲食店営業",
      "address": "長野県北佐久郡御代田町大字馬瀬口１８４３－１",
      "lat": 36.323556,
      "lng": 138.498308,
      "geocoding_level": 3,
      "phone": "",
      "license_no": "01277161",
      "license_date": "2026-02-27",
      "expire_date": "2033-01-31"
    },
    {
      "name": "スナック　みちよ",
      "name_kana": "スナック　ミチヨ",
      "business_type": "① 飲食店営業",
      "address": "長野県北佐久郡御代田町御代田栄町２４２２－５７",
      "lat": 36.31658,
      "lng": 138.507264,
      "geocoding_level": null,
      "phone": "0267-41-0878",
      "license_no": "01253191",
      "license_date": "2026-01-30",
      "expire_date": "2031-01-31"
    },
    {
      "name": "ギャラリー　ＴＲＥＥＳ",
      "name_kana": "ギャラリー　ツリーズ",
      "business_type": "① 飲食店営業",
      "address": "長野県北佐久郡御代田町草越１１７３－３４６",
      "lat": 36.321453,
      "lng": 138.533882,
      "geocoding_level": null,
      "phone": "090-6659-8087",
      "license_no": "01229151",
      "license_date": "2026-01-30",
      "expire_date": "2031-01-31"
    },
    {
      "name": "ローソン　御代田馬瀬口店",
      "name_kana": "ローソン　ミヨタマセグチテン",
      "business_type": "① 飲食店営業",
      "address": "長野県北佐久郡御代田町馬瀬口下原７９３－１",
      "lat": 36.320288,
      "lng": 138.493258,
      "geocoding_level": null,
      "phone": "0267-32-6003",
      "license_no": "01231138",
      "license_date": "2026-01-30",
      "expire_date": "2031-01-31"
    },
    {
      "name": "27301　事業所",
      "name_kana": "ニナナサンゼロイチ　ジギョウショ",
      "business_type": "① 飲食店営業",
      "address": "長野県北佐久郡御代田町御代田４１０７－６",
      "lat": 36.313064,
      "lng": 138.515553,
      "geocoding_level": null,
      "phone": "0267-32-4002",
      "license_no": "01198971",
      "license_date": "2026-01-30",
      "expire_date": "2032-01-31"
    },
    {
      "name": "民宿　こうず",
      "name_kana": "ミンシュク　コウズ",
      "business_type": "① 飲食店営業",
      "address": "長野県北佐久郡御代田町塩野４８１",
      "lat": 36.339436,
      "lng": 138.502751,
      "geocoding_level": null,
      "phone": "0267-32-2226",
      "license_no": "02031286",
      "license_date": "2026-01-30",
      "expire_date": "2032-01-31"
    },
    {
      "name": "みかづき",
      "name_kana": "ミカヅキ",
      "business_type": "① 飲食店営業",
      "address": "長野県北佐久郡御代田町大字馬瀬口５９３番地１　Ｐ・Ｋビル２Ｆ－２",
      "lat": 36.322014,
      "lng": 138.500555,
      "geocoding_level": null,
      "phone": "080-3276-2844",
      "license_no": "01251921",
      "license_date": "2026-01-30",
      "expire_date": "2031-01-31"
    },
    {
      "name": "HOTEL AURA PREMIUM RESORT",
      "name_kana": "ホテル　アウラ　プレミアム　リゾート",
      "business_type": "① 飲食店営業",
      "address": "長野県北佐久郡御代田町御代田１１３８－９",
      "lat": 36.295811,
      "lng": 138.486118,
      "geocoding_level": null,
      "phone": "0267-32-5689",
      "license_no": "01206462",
      "license_date": "2026-01-30",
      "expire_date": "2031-01-31"
    },
    {
      "name": "セブンイレブン西軽井沢店",
      "name_kana": "セブンイレブンニシカルイザワテン",
      "business_type": "① 飲食店営業",
      "address": "長野県北佐久郡御代田町馬瀬口大道添１６７１－１",
      "lat": 36.320288,
      "lng": 138.493258,
      "geocoding_level": null,
      "phone": "0267-32-2238",
      "license_no": "01229071",
      "license_date": "2026-01-30",
      "expire_date": "2031-01-31"
    },
    {
      "name": "ホテル　ルートインコート軽井沢",
      "name_kana": "ホテル　ルートインコートカルイザワ",
      "business_type": "① 飲食店営業",
      "address": "長野県北佐久郡御代田町御代田２０３７－１",
      "lat": 36.312963,
      "lng": 138.498525,
      "geocoding_level": null,
      "phone": "0267-32-1011",
      "license_no": "02150721",
      "license_date": "2026-01-30",
      "expire_date": "2032-01-31"
    },
    {
      "name": "珈琲館　のんのん",
      "name_kana": "コーヒー　ノンノン",
      "business_type": "① 飲食店営業",
      "address": "長野県北佐久郡御代田町御代田２４２２－３３",
      "lat": 36.318584,
      "lng": 138.507,
      "geocoding_level": null,
      "phone": "0267-32-5544",
      "license_no": "02151863",
      "license_date": "2026-01-30",
      "expire_date": "2031-01-31"
    },
    {
      "name": "ゆるかっこｋｉｔｃｈｅｎ",
      "name_kana": "ユルカッコキッチン",
      "business_type": "㉕ そうざい製造業",
      "address": "長野県北佐久郡御代田町御代田３９４８－３",
      "lat": 36.311677,
      "lng": 138.512011,
      "geocoding_level": null,
      "phone": "080-4347-8137",
      "license_no": "01277559",
      "license_date": "2026-03-23",
      "expire_date": "2033-01-31"
    },
    {
      "name": "ゆるかっこｋｉｔｃｈｅｎ",
      "name_kana": "ユルカッコキッチン",
      "business_type": "⑪ 菓子製造業",
      "address": "長野県北佐久郡御代田町御代田３９４８－３",
      "lat": 36.311677,
      "lng": 138.512011,
      "geocoding_level": null,
      "phone": "",
      "license_no": "01277566",
      "license_date": "2026-03-23",
      "expire_date": "2033-01-31"
    },
    {
      "name": "ＮＩＤ",
      "name_kana": "ニド",
      "business_type": "① 飲食店営業",
      "address": "長野県北佐久郡御代田町馬瀬口１７９４－１　ＭＭｏＰ内ラウンジ２F",
      "lat": 36.322363,
      "lng": 138.507612,
      "geocoding_level": null,
      "phone": "0267-46-9402",
      "license_no": "01277648",
      "license_date": "2026-03-27",
      "expire_date": "2033-01-31"
    }
  ]
}
