{
  "meta": {
    "updated": 1783568789,
    "sources": [
      {
        "source": "厚生労働省 食品衛生申請等システム（オープンデータ）",
        "license": "公共データ利用規約（第1.0版, PDL1.0）"
      }
    ]
  },
  "data": [
    {
      "name": "クスリキリン堂　イデフル井手店",
      "name_kana": "クスリキリンドウ　イデフルイデテン",
      "business_type": "⑪ 百貨店、総合スーパー",
      "address": "京都府綴喜郡井手町多賀飛鳥田42番1",
      "lat": 34.817829,
      "lng": 135.804397,
      "geocoding_level": null,
      "phone": "0774-99-4500",
      "license_no": "",
      "license_date": null,
      "expire_date": null
    },
    {
      "name": "フレッシュバザール井手店（イデフル）",
      "name_kana": "フレッシュバザールイデテン　イデフル",
      "business_type": "⑤ コップ式自動販売機（自動洗浄・屋内設置）",
      "address": "京都府綴喜郡井手町多賀二の坪46番",
      "lat": 34.813602,
      "lng": 135.832719,
      "geocoding_level": null,
      "phone": "0774-82-7700",
      "license_no": "",
      "license_date": null,
      "expire_date": null
    },
    {
      "name": "フレッシュバザール井手店（イデフル）",
      "name_kana": "フレッシュバザールイデテン　イデフル",
      "business_type": "⑫ 自動販売機による販売業（コップ式自動販売機（自動洗浄・屋内設置）及び営業許可の対象となる自動販売機を除く）",
      "address": "京都府綴喜郡井手町多賀二ノ坪46番",
      "lat": 34.817136,
      "lng": 135.805556,
      "geocoding_level": null,
      "phone": "0774-82-7700",
      "license_no": "",
      "license_date": null,
      "expire_date": null
    },
    {
      "name": "フレッシュバザール井手店（イデフル）",
      "name_kana": "フレッシュバザールイデテン　イデフル",
      "business_type": "⑪ 百貨店、総合スーパー",
      "address": "京都府綴喜郡井手町多賀二ノ坪46番",
      "lat": 34.817136,
      "lng": 135.805556,
      "geocoding_level": null,
      "phone": "0774-82-7700",
      "license_no": "",
      "license_date": null,
      "expire_date": null
    },
    {
      "name": "フレッシュバザール井手店（イデフル）　（惣菜作業室）",
      "name_kana": "フレッシュバザールイデテンイデフルソウザイサギョウシツ",
      "business_type": "① 飲食店営業",
      "address": "京都府綴喜郡井手町大字多賀小字二ノ坪４６番",
      "lat": 34.817136,
      "lng": 135.805556,
      "geocoding_level": null,
      "phone": "0774-82-7700",
      "license_no": "京都府山城北保健所指令６山北保衛第１号の３８７",
      "license_date": "2024-06-12",
      "expire_date": "2030-11-30"
    },
    {
      "name": "フレッシュバザール井手店（イデフル）　（鮮魚作業室）",
      "name_kana": "フレッシュバザールイデテンイデフルセンギョサギョウシツ",
      "business_type": "① 飲食店営業",
      "address": "京都府綴喜郡井手町大字多賀小字二ノ坪４６番",
      "lat": 34.817136,
      "lng": 135.805556,
      "geocoding_level": null,
      "phone": "0774-82-7700",
      "license_no": "京都府山城北保健所指令６山北保衛第１号の３８８",
      "license_date": "2024-06-12",
      "expire_date": "2030-11-30"
    },
    {
      "name": "フレッシュバザール井手店（イデフル）　（鮮魚作業室）",
      "name_kana": "フレッシュバザールイデテンイデフルセンギョサギョウシツ",
      "business_type": "④ 魚介類販売業",
      "address": "京都府綴喜郡井手町大字多賀小字二ノ坪４６番",
      "lat": 34.817136,
      "lng": 135.805556,
      "geocoding_level": null,
      "phone": "0774-82-7700",
      "license_no": "京都府山城北保健所指令６山北保衛第１号の３８９",
      "license_date": "2024-06-12",
      "expire_date": "2030-11-30"
    },
    {
      "name": "井手町野外活動センター　大正池グリーンパーク",
      "name_kana": "イデチョウヤガイカツドウセンタータイショウイケグリーンパーク",
      "business_type": "① 飲食店営業",
      "address": "京都府綴喜郡井手町大字多賀小字一ノ谷２０－１",
      "lat": 34.811849,
      "lng": 135.855516,
      "geocoding_level": null,
      "phone": "0774-99-4733",
      "license_no": "京都府山城北保健所指令７山北保衛第１号の７１４",
      "license_date": "2025-10-24",
      "expire_date": "2031-11-30"
    },
    {
      "name": "大正池グリーンパーク",
      "name_kana": "タイショウイケ",
      "business_type": "② 食肉販売業（包装済みの食肉のみの販売）",
      "address": "京都府綴喜郡井手町綴喜郡井手町多賀一ノ谷20-1 管理棟",
      "lat": 34.811863,
      "lng": 135.855604,
      "geocoding_level": null,
      "phone": "0774-99-4733",
      "license_no": "",
      "license_date": null,
      "expire_date": null
    },
    {
      "name": "クスリのアオキ井手店",
      "name_kana": "クスリノアオキイデテン",
      "business_type": "⑪ 百貨店、総合スーパー",
      "address": "京都府綴喜郡井手町大字井手小字扇畑32番地の2",
      "lat": 34.794579,
      "lng": 135.80441,
      "geocoding_level": null,
      "phone": "0774-82-6610",
      "license_no": "",
      "license_date": null,
      "expire_date": null
    },
    {
      "name": "梅の花　京都セントラルキッチン　２階",
      "name_kana": "ウメノハナ　キョウトセントラルキッチン　ニカイ",
      "business_type": "⑫ 自動販売機による販売業（コップ式自動販売機（自動洗浄・屋内設置）及び営業許可の対象となる自動販売機を除く）",
      "address": "京都府綴喜郡井手町多賀西北ノ代1",
      "lat": 34.82099,
      "lng": 135.800212,
      "geocoding_level": null,
      "phone": "",
      "license_no": "",
      "license_date": null,
      "expire_date": null
    },
    {
      "name": "カネ美食品株式会社　京都南工場",
      "name_kana": "カネミショクヒンカブシキガイシャキョウトミナミコウジョウ",
      "business_type": "② 食肉販売業（包装済みの食肉のみの販売）",
      "address": "京都府綴喜郡井手町大字井手小字扇畑１５－２",
      "lat": 34.795391,
      "lng": 135.803286,
      "geocoding_level": null,
      "phone": "0774-99-4131",
      "license_no": "",
      "license_date": null,
      "expire_date": null
    },
    {
      "name": "木田",
      "name_kana": "キダ",
      "business_type": "㉔ その他の食料品製造・加工業",
      "address": "京都府綴喜郡井手町多賀西南組36番地",
      "lat": 34.81831,
      "lng": 135.809234,
      "geocoding_level": null,
      "phone": "08041546959",
      "license_no": "",
      "license_date": null,
      "expire_date": null
    },
    {
      "name": "ローソン井手扇畑",
      "name_kana": "ローソンイデオウギバタ",
      "business_type": "⑩ コンビニエンスストア",
      "address": "京都府綴喜郡井手町井手井手扇畑21-2",
      "lat": 34.795838,
      "lng": 135.803814,
      "geocoding_level": null,
      "phone": "0774825201",
      "license_no": "",
      "license_date": null,
      "expire_date": null
    },
    {
      "name": "なごやか市",
      "name_kana": "ナゴヤカイチ",
      "business_type": "⑥ 弁当販売業",
      "address": "京都府綴喜郡井手町多賀東松ヶ花56-1",
      "lat": 34.818923,
      "lng": 135.804583,
      "geocoding_level": null,
      "phone": "0774-82-2046",
      "license_no": "",
      "license_date": null,
      "expire_date": null
    },
    {
      "name": "なごやか市",
      "name_kana": "ナゴヤカイチ",
      "business_type": "⑦ 野菜果物販売業",
      "address": "京都府綴喜郡井手町多賀東松ヶ花56-1",
      "lat": 34.818923,
      "lng": 135.804583,
      "geocoding_level": null,
      "phone": "0774-82-2046",
      "license_no": "",
      "license_date": null,
      "expire_date": null
    },
    {
      "name": "なごやか市",
      "name_kana": "ナゴヤカイチ",
      "business_type": "⑧ 米穀類販売業",
      "address": "京都府綴喜郡井手町多賀東松ヶ花56-1",
      "lat": 34.818923,
      "lng": 135.804583,
      "geocoding_level": null,
      "phone": "0774-82-2046",
      "license_no": "",
      "license_date": null,
      "expire_date": null
    },
    {
      "name": "なごやか市",
      "name_kana": "ナゴヤカイチ",
      "business_type": "⑬ その他の食料・飲料販売業",
      "address": "京都府綴喜郡井手町多賀東松ヶ花56-1",
      "lat": 34.818923,
      "lng": 135.804583,
      "geocoding_level": null,
      "phone": "0774-82-2046",
      "license_no": "",
      "license_date": null,
      "expire_date": null
    },
    {
      "name": "株式会社京菜",
      "name_kana": "カブシキカイシャキョウサイ",
      "business_type": "㉚ 密封包装食品製造業",
      "address": "京都府綴喜郡井手町大字井手小字中川１０",
      "lat": 34.795849,
      "lng": 135.802381,
      "geocoding_level": null,
      "phone": "",
      "license_no": "京都府山城北保健所指令３山北保衛第１号の３４７",
      "license_date": "2021-08-11",
      "expire_date": "2027-11-30"
    },
    {
      "name": "カネ美食品株式会社　京都南工場",
      "name_kana": "カネミショクヒンカブシキガイシャキョウトミナミコウジョウ",
      "business_type": "① 飲食店営業",
      "address": "京都府綴喜郡井手町大字井手小字扇畑１５－２",
      "lat": 34.795391,
      "lng": 135.803286,
      "geocoding_level": null,
      "phone": "0774-99-4131",
      "license_no": "京都府山城北保健所指令７山北保衛第１号の７６１",
      "license_date": "2025-11-06",
      "expire_date": "2031-11-30"
    },
    {
      "name": "カネ美食品株式会社　京都南工場",
      "name_kana": "カネミショクヒンカブシキガイシャキョウトミナミコウジョウ",
      "business_type": "㉖ 複合型そうざい製造業",
      "address": "京都府綴喜郡井手町大字井手小字扇畑１５－２",
      "lat": 34.795391,
      "lng": 135.803286,
      "geocoding_level": null,
      "phone": "0774-99-4131",
      "license_no": "京都府山城北保健所指令３山北保衛第１号の３６２",
      "license_date": "2021-08-12",
      "expire_date": "2027-11-30"
    },
    {
      "name": "カネ美食品株式会社　京都南工場",
      "name_kana": "カネミショクヒンカブシキガイシャキョウトミナミコウジョウ",
      "business_type": "㉘ 複合型冷凍食品製造業",
      "address": "京都府綴喜郡井手町大字井手小字扇畑１５－２",
      "lat": 34.795391,
      "lng": 135.803286,
      "geocoding_level": null,
      "phone": "0774-99-4131",
      "license_no": "京都府山城北保健所指令７山北保衛第１号の６０５",
      "license_date": "2025-09-03",
      "expire_date": "2031-11-30"
    },
    {
      "name": "小川武治茶舗",
      "name_kana": "オガワタケジチャホ",
      "business_type": "㉑ 製茶業",
      "address": "京都府綴喜郡井手町井手柏原７１",
      "lat": 34.799157,
      "lng": 135.805935,
      "geocoding_level": null,
      "phone": "0774822209",
      "license_no": "",
      "license_date": null,
      "expire_date": null
    },
    {
      "name": "株式会社　脇本常香園",
      "name_kana": "カブシキガイシャ　ワキモトジョウコウエン",
      "business_type": "㉑ 製茶業",
      "address": "京都府綴喜郡井手町大字多賀小字北口5番地の5",
      "lat": 34.820179,
      "lng": 135.806801,
      "geocoding_level": null,
      "phone": "0774-82-3102",
      "license_no": "",
      "license_date": null,
      "expire_date": null
    },
    {
      "name": "オフィスグリコ冷凍冷蔵庫154949",
      "name_kana": "オフィスグリコレイトウレイゾウコ",
      "business_type": "⑬ その他の食料・飲料販売業",
      "address": "京都府綴喜郡井手町多賀堀畑13-7",
      "lat": 34.823211,
      "lng": 135.812848,
      "geocoding_level": null,
      "phone": "05017426451",
      "license_no": "",
      "license_date": null,
      "expire_date": null
    },
    {
      "name": "玉川保育園",
      "name_kana": "タマガワホイクエン",
      "business_type": "㉖ 集団給食施設",
      "address": "京都府綴喜郡井手町井手玉ノ井４７番地の１",
      "lat": 34.800826,
      "lng": 135.80971,
      "geocoding_level": null,
      "phone": "0774-82-2153",
      "license_no": "",
      "license_date": null,
      "expire_date": null
    },
    {
      "name": "いづみ保育園",
      "name_kana": "イヅミホイクエン",
      "business_type": "㉖ 集団給食施設",
      "address": "京都府綴喜郡井手町井手段ノ下３９番地の２",
      "lat": 34.798638,
      "lng": 135.802792,
      "geocoding_level": null,
      "phone": "0774-82-4160",
      "license_no": "",
      "license_date": null,
      "expire_date": null
    },
    {
      "name": "多賀保育園",
      "name_kana": "タガホイクエン",
      "business_type": "㉖ 集団給食施設",
      "address": "京都府綴喜郡井手町多賀庵垣内６３番地",
      "lat": 34.818156,
      "lng": 135.812833,
      "geocoding_level": null,
      "phone": "0774-82-2225",
      "license_no": "",
      "license_date": null,
      "expire_date": null
    },
    {
      "name": "ＪＡ京都やましろ女性部食品加工部井手町支部",
      "name_kana": "ジェイエイキョウトヤマシロジョセイブショクヒンカコウブイデチョウシブ",
      "business_type": "① 飲食店営業",
      "address": "京都府綴喜郡井手町大字多賀小字東松ケ花５６－１",
      "lat": 34.818923,
      "lng": 135.804583,
      "geocoding_level": null,
      "phone": "0774-82-2613",
      "license_no": "京都府山城北保健所指令４山北保衛第１号の９８２",
      "license_date": "2022-11-17",
      "expire_date": "2028-11-30"
    },
    {
      "name": "ＪＡ京都やましろ女性部食品加工部井手町支部",
      "name_kana": "ジェイエイキョウトヤマシロジョセイブショクヒンカコウブイデチョウシブ",
      "business_type": "⑪ 菓子製造業",
      "address": "京都府綴喜郡井手町大字多賀小字東松ケ花５６－１",
      "lat": 34.818923,
      "lng": 135.804583,
      "geocoding_level": null,
      "phone": "0774-82-2613",
      "license_no": "京都府山城北保健所指令４山北保衛第１号の９８３",
      "license_date": "2022-11-17",
      "expire_date": "2028-11-30"
    },
    {
      "name": "ＪＡ京都やましろ女性部食品加工部井手町支部",
      "name_kana": "ジェイエイキョウトヤマシロジョセイブショクヒンカコウブイデチョウシブ",
      "business_type": "㉕ そうざい製造業",
      "address": "京都府綴喜郡井手町大字多賀小字東松ケ花５６－１",
      "lat": 34.818923,
      "lng": 135.804583,
      "geocoding_level": null,
      "phone": "0774-82-2613",
      "license_no": "京都府山城北保健所指令４山北保衛第１号の９８４",
      "license_date": "2022-11-17",
      "expire_date": "2028-11-30"
    },
    {
      "name": "ＪＡ京都やましろ女性部食品加工部井手町支部",
      "name_kana": "ジェイエイキョウトヤマシロジョセイブショクヒンカコウブイデチョウシブ",
      "business_type": "㉔ その他の食料品製造・加工業",
      "address": "京都府綴喜郡井手町多賀東松ヶ花56-1",
      "lat": 34.818923,
      "lng": 135.804583,
      "geocoding_level": null,
      "phone": "0774-82-2613",
      "license_no": "",
      "license_date": null,
      "expire_date": null
    },
    {
      "name": "京都やましろ農業協同組合井手町支店",
      "name_kana": "キョウトヤマシロノウギョウキョウドウクミアイイデチョウシテン",
      "business_type": "⑳ みそ又はしょうゆ製造業",
      "address": "京都府綴喜郡井手町大字井手小字二本松２",
      "lat": 34.806187,
      "lng": 135.814739,
      "geocoding_level": null,
      "phone": "0774-82-2613",
      "license_no": "京都府山城北保健所指令４山北保衛第1号の１０１３",
      "license_date": "2022-11-28",
      "expire_date": "2028-11-30"
    },
    {
      "name": "京都やましろ農業協同組合井手町支店",
      "name_kana": "キョウトヤマシロノウギョウキョウドウクミアイイデチョウシテン",
      "business_type": "㉚ 密封包装食品製造業",
      "address": "京都府綴喜郡井手町大字井手小字二本松２",
      "lat": 34.806187,
      "lng": 135.814739,
      "geocoding_level": null,
      "phone": "0774-82-2613",
      "license_no": "京都府山城北保健所指令４山北保衛第1号の１０１４",
      "license_date": "2022-11-28",
      "expire_date": "2028-11-30"
    },
    {
      "name": "京都やましろ農業協同組合井手町支店",
      "name_kana": "キョウトヤマシロノウギョウキョウドウクミアイイデチョウシテン",
      "business_type": "㉔ その他の食料品製造・加工業",
      "address": "京都府綴喜郡井手町井手二本松２",
      "lat": 34.806186,
      "lng": 135.814738,
      "geocoding_level": null,
      "phone": "0774-82-2613",
      "license_no": "",
      "license_date": null,
      "expire_date": null
    },
    {
      "name": "山本　信",
      "name_kana": "ヤマモトマコト",
      "business_type": "㉔ その他の食料品製造・加工業",
      "address": "京都府綴喜郡井手町大字井手小字西前田１",
      "lat": 34.797637,
      "lng": 135.811235,
      "geocoding_level": null,
      "phone": "0774-82-3228",
      "license_no": "",
      "license_date": null,
      "expire_date": null
    },
    {
      "name": "山仁庵",
      "name_kana": "ヤマニアン",
      "business_type": "⑰ 農産保存食料品製造・加工業",
      "address": "京都府綴喜郡井手町大字多賀小字西北組２番地",
      "lat": 34.819714,
      "lng": 135.808506,
      "geocoding_level": null,
      "phone": "0774-82-3327",
      "license_no": "",
      "license_date": null,
      "expire_date": null
    },
    {
      "name": "相良",
      "name_kana": "サガラ",
      "business_type": "㉔ その他の食料品製造・加工業",
      "address": "京都府綴喜郡井手町多賀東北組５１－７",
      "lat": 34.820449,
      "lng": 135.810568,
      "geocoding_level": null,
      "phone": "0774-82-4473",
      "license_no": "",
      "license_date": null,
      "expire_date": null
    },
    {
      "name": "オクダ・コーポレーション　井手工場",
      "name_kana": "オクダコーポレーション　イデコウジョウ",
      "business_type": "⑪ 菓子製造業",
      "address": "京都府綴喜郡井手町井手扇畑32-15",
      "lat": 34.794619,
      "lng": 135.80365,
      "geocoding_level": null,
      "phone": "",
      "license_no": "京都府山城北保健所指令４山北保衛第１号の８",
      "license_date": "2022-01-21",
      "expire_date": "2028-11-30"
    },
    {
      "name": "オクダ・コーポレーション　井手工場",
      "name_kana": "オクダコーポレーション　イデコウジョウ",
      "business_type": "㉛ 食品の小分け業",
      "address": "京都府綴喜郡井手町井手扇畑32-15",
      "lat": 34.794619,
      "lng": 135.80365,
      "geocoding_level": null,
      "phone": "",
      "license_no": "京都府山城北保健所指令４山北保衛第１号の９",
      "license_date": "2022-01-21",
      "expire_date": "2028-11-30"
    },
    {
      "name": "社会福祉法人弥勒会いでの里内日清医療食品（株）",
      "name_kana": "シャカイフクシホウジンミロクカイイデノサトナイニッシンイリョウショクヒンカブシキガイシャ",
      "business_type": "① 飲食店営業",
      "address": "京都府綴喜郡井手町大字井手小字弥勒１－１",
      "lat": 34.798632,
      "lng": 135.818033,
      "geocoding_level": null,
      "phone": "0774-99-4356",
      "license_no": "京都府山城北保健所指令３山北保衛第１号の４６５",
      "license_date": "2021-10-18",
      "expire_date": "2027-11-30"
    },
    {
      "name": "まるだい",
      "name_kana": "マルダイ",
      "business_type": "① 飲食店営業",
      "address": "京都府綴喜郡井手町大字多賀小字西南組９・１０－１",
      "lat": 34.818535,
      "lng": 135.808696,
      "geocoding_level": null,
      "phone": "",
      "license_no": "京都府山城北保健所指令３山北保衛第１号の４８１",
      "license_date": "2021-10-21",
      "expire_date": "2027-11-30"
    },
    {
      "name": "まるだい",
      "name_kana": "マルダイ",
      "business_type": "⑪ 菓子製造業",
      "address": "京都府綴喜郡井手町大字多賀小字西南組９・１０－１",
      "lat": 34.818535,
      "lng": 135.808696,
      "geocoding_level": null,
      "phone": "",
      "license_no": "京都府山城北保健所指令３山北保衛第１号の４８２",
      "license_date": "2021-10-21",
      "expire_date": "2027-11-30"
    },
    {
      "name": "まるだい",
      "name_kana": "マルダイ",
      "business_type": "㉙ 漬物製造業",
      "address": "京都府綴喜郡井手町大字多賀小字西南組９・１０－１",
      "lat": 34.818535,
      "lng": 135.808696,
      "geocoding_level": null,
      "phone": "",
      "license_no": "京都府山城北保健所指令３山北保衛第１号の６１２",
      "license_date": "2021-11-29",
      "expire_date": "2027-11-30"
    },
    {
      "name": "まるだい",
      "name_kana": "マルダイ",
      "business_type": "㉙ 漬物製造業",
      "address": "京都府綴喜郡井手町大字多賀小字西南組９・１０－１",
      "lat": 34.818535,
      "lng": 135.808696,
      "geocoding_level": null,
      "phone": "0774-82-2950",
      "license_no": "京都府山城北保健所指令３山北保衛第１号の６１２",
      "license_date": "2021-11-29",
      "expire_date": "2027-11-30"
    },
    {
      "name": "まるだい",
      "name_kana": "マルダイ",
      "business_type": "⑰ 農産保存食料品製造・加工業",
      "address": "京都府綴喜郡井手町多賀西南組９・１０－１",
      "lat": 34.818535,
      "lng": 135.808696,
      "geocoding_level": null,
      "phone": "0774-82-2950",
      "license_no": "",
      "license_date": null,
      "expire_date": null
    },
    {
      "name": "まるだい",
      "name_kana": "マルダイ",
      "business_type": "㉔ その他の食料品製造・加工業",
      "address": "京都府綴喜郡井手町多賀西南組９・１０－１",
      "lat": 34.818535,
      "lng": 135.808696,
      "geocoding_level": null,
      "phone": "0774-82-2950",
      "license_no": "",
      "license_date": null,
      "expire_date": null
    },
    {
      "name": "大平農園",
      "name_kana": "オオヒラノウエン",
      "business_type": "㉑ 製茶業",
      "address": "京都府綴喜郡井手町大字多賀小字小字下川３９番地",
      "lat": 34.816496,
      "lng": 135.808882,
      "geocoding_level": null,
      "phone": "0774-82-4458",
      "license_no": "",
      "license_date": null,
      "expire_date": null
    },
    {
      "name": "有限会社まるやま食品",
      "name_kana": "ユウゲンカイシャマルヤマショクヒン",
      "business_type": "㉕ そうざい製造業",
      "address": "京都府綴喜郡井手町大字井手小字段ノ下２６－１",
      "lat": 34.793869,
      "lng": 135.804885,
      "geocoding_level": null,
      "phone": "0774-82-4145",
      "license_no": "京都府山城北保健所指令３山北保衛第１号の５２０",
      "license_date": "2021-10-29",
      "expire_date": "2027-11-30"
    },
    {
      "name": "有限会社まるやま食品",
      "name_kana": "ユウゲンカイシャマルヤマショクヒン",
      "business_type": "㉚ 密封包装食品製造業",
      "address": "京都府綴喜郡井手町大字井手小字段ノ下２６－１",
      "lat": 34.793869,
      "lng": 135.804885,
      "geocoding_level": null,
      "phone": "0774-82-4145",
      "license_no": "京都府山城北保健所指令７山北保衛第１号の７１５",
      "license_date": "2025-10-27",
      "expire_date": "2031-11-30"
    },
    {
      "name": "ブール進々堂井手店",
      "name_kana": "ブールシンシンドウイデテン",
      "business_type": "⑪ 菓子製造業",
      "address": "京都府綴喜郡井手町大字井手小字宮ノ本４０",
      "lat": 34.796024,
      "lng": 135.809049,
      "geocoding_level": null,
      "phone": "0774-82-2437",
      "license_no": "京都府山城北保健所指令３山北保衛第１号の５２２",
      "license_date": "2021-10-29",
      "expire_date": "2027-11-30"
    },
    {
      "name": "いろは",
      "name_kana": "イロハ",
      "business_type": "① 飲食店営業",
      "address": "京都府綴喜郡井手町大字井手小字野神３４",
      "lat": 34.796241,
      "lng": 135.8088,
      "geocoding_level": null,
      "phone": "0774-54-3705",
      "license_no": "京都府山城北保健所指令３山北保衛第１号の５２３",
      "license_date": "2021-10-29",
      "expire_date": "2027-11-30"
    },
    {
      "name": "いろは",
      "name_kana": "イロハ",
      "business_type": "③ 食肉販売業",
      "address": "京都府綴喜郡井手町大字井手小字野神３４",
      "lat": 34.796241,
      "lng": 135.8088,
      "geocoding_level": null,
      "phone": "0774-54-3705",
      "license_no": "京都府山城北保健所指令３山北保衛第１号の５２４",
      "license_date": "2021-10-29",
      "expire_date": "2027-11-30"
    },
    {
      "name": "たまご屋",
      "name_kana": "タマゴヤ",
      "business_type": "① 飲食店営業",
      "address": "京都府綴喜郡井手町大字井手小字下赤田８０",
      "lat": 34.793061,
      "lng": 135.815281,
      "geocoding_level": null,
      "phone": "0774-82-2539",
      "license_no": "京都府山城北保健所指令３山北保衛第１号の５５４",
      "license_date": "2021-11-04",
      "expire_date": "2027-11-30"
    },
    {
      "name": "たまご屋",
      "name_kana": "タマゴヤ",
      "business_type": "⑪ 菓子製造業",
      "address": "京都府綴喜郡井手町大字井手小字下赤田８０",
      "lat": 34.793061,
      "lng": 135.815281,
      "geocoding_level": null,
      "phone": "0774-82-2539",
      "license_no": "京都府山城北保健所指令３山北保衛第１号の５７０",
      "license_date": "2021-11-04",
      "expire_date": "2027-11-30"
    },
    {
      "name": "村田豆富店",
      "name_kana": "ムラタトウフテン",
      "business_type": "㉒ 豆腐製造業",
      "address": "京都府綴喜郡井手町大字多賀小字内垣内１４",
      "lat": 34.818272,
      "lng": 135.807408,
      "geocoding_level": null,
      "phone": "0774-82-2372",
      "license_no": "京都府山城北保健所指令３山北保衛第１号の５５５",
      "license_date": "2021-11-04",
      "expire_date": "2027-11-30"
    },
    {
      "name": "マルゲン",
      "name_kana": "マルゲン",
      "business_type": "㉑ 製茶業",
      "address": "京都府綴喜郡井手町多賀東南組３９",
      "lat": 34.818091,
      "lng": 135.809975,
      "geocoding_level": null,
      "phone": "0774-82-3602",
      "license_no": "",
      "license_date": null,
      "expire_date": null
    },
    {
      "name": "寺村喜代子",
      "name_kana": "テラムラキヨコ",
      "business_type": "㉙ 漬物製造業",
      "address": "京都府綴喜郡井手町大字多賀小字高橋１８",
      "lat": 34.813841,
      "lng": 135.807964,
      "geocoding_level": null,
      "phone": "0774-82-2516",
      "license_no": "京都府山城北保健所指令６山北保衛第１号の３９８",
      "license_date": "2024-06-18",
      "expire_date": "2030-11-30"
    },
    {
      "name": "なごやかｅａｔｓ　寺村喜代子",
      "name_kana": "ナゴヤカイーツテラムラキヨコ",
      "business_type": "⑰ 農産保存食料品製造・加工業",
      "address": "京都府綴喜郡井手町多賀高橋１８",
      "lat": 34.813841,
      "lng": 135.807964,
      "geocoding_level": null,
      "phone": "0774-82-2516",
      "license_no": "",
      "license_date": null,
      "expire_date": null
    },
    {
      "name": "杉山農園",
      "name_kana": "スギヤマノウエン",
      "business_type": "㉔ その他の食料品製造・加工業",
      "address": "京都府綴喜郡井手町井手宮ノ本５５",
      "lat": 43.211315,
      "lng": 141.005678,
      "geocoding_level": null,
      "phone": "0774-82-2723",
      "license_no": "",
      "license_date": null,
      "expire_date": null
    },
    {
      "name": "山仁庵",
      "name_kana": "ヤマニアン",
      "business_type": "⑰ 農産保存食料品製造・加工業",
      "address": "京都府綴喜郡井手町多賀西北組２番地",
      "lat": 34.819714,
      "lng": 135.808506,
      "geocoding_level": null,
      "phone": "0774823327",
      "license_no": "",
      "license_date": null,
      "expire_date": null
    },
    {
      "name": "山仁庵",
      "name_kana": "ヤマニアン",
      "business_type": "㉑ 製茶業",
      "address": "京都府綴喜郡井手町多賀西北組２番地",
      "lat": 34.819714,
      "lng": 135.808506,
      "geocoding_level": null,
      "phone": "0774823327",
      "license_no": "",
      "license_date": null,
      "expire_date": null
    },
    {
      "name": "きくいち本店",
      "name_kana": "キクイチホンテン",
      "business_type": "⑧ 米穀類販売業",
      "address": "京都府綴喜郡井手町井手北猪ノ阪3-3",
      "lat": 34.794708,
      "lng": 135.809086,
      "geocoding_level": null,
      "phone": "0774822074",
      "license_no": "",
      "license_date": null,
      "expire_date": null
    },
    {
      "name": "きくいち本店",
      "name_kana": "キクイチホンテン",
      "business_type": "㉔ その他の食料品製造・加工業",
      "address": "京都府綴喜郡井手町井手北猪ノ阪3-3",
      "lat": 34.794708,
      "lng": 135.809086,
      "geocoding_level": null,
      "phone": "0774822074",
      "license_no": "",
      "license_date": null,
      "expire_date": null
    },
    {
      "name": "株式会社大勝",
      "name_kana": "カブシキガイシャダイカツ",
      "business_type": "㉒ 海藻製造・加工業",
      "address": "京都府綴喜郡井手町多賀谷村2",
      "lat": 34.798638,
      "lng": 135.802792,
      "geocoding_level": null,
      "phone": "0774822432",
      "license_no": "",
      "license_date": null,
      "expire_date": null
    },
    {
      "name": "中田商店",
      "name_kana": "ナカタショウテン",
      "business_type": "⑧ 米穀類販売業",
      "address": "京都府綴喜郡井手町大字井手小字柏原20-1",
      "lat": 34.80028,
      "lng": 135.807798,
      "geocoding_level": null,
      "phone": "0774822605",
      "license_no": "",
      "license_date": null,
      "expire_date": null
    },
    {
      "name": "汐見商店",
      "name_kana": "シオミショウテン",
      "business_type": "① 飲食店営業",
      "address": "京都府綴喜郡井手町大字井手小字西高月１４－２",
      "lat": 34.798662,
      "lng": 135.810277,
      "geocoding_level": null,
      "phone": "0774-82-2378",
      "license_no": "京都府山城北保健所指令３山北保衛第１号の６１３",
      "license_date": "2021-11-29",
      "expire_date": "2027-11-30"
    },
    {
      "name": "たなか家",
      "name_kana": "タナカヤ",
      "business_type": "① 飲食店営業",
      "address": "京都府綴喜郡井手町大字井手小字玉ノ井２０－１",
      "lat": 34.800906,
      "lng": 135.810854,
      "geocoding_level": null,
      "phone": "0774-29-1644",
      "license_no": "京都府山城北保健所指令３山北保衛第１号の６１５",
      "license_date": "2021-11-30",
      "expire_date": "2027-11-30"
    },
    {
      "name": "たなか家",
      "name_kana": "タナカヤ",
      "business_type": "㉔ 麺類製造業",
      "address": "京都府綴喜郡井手町大字井手小字玉ノ井２０－１",
      "lat": 34.800906,
      "lng": 135.810854,
      "geocoding_level": null,
      "phone": "0774-29-1644",
      "license_no": "京都府山城北保健所指令３山北保衛第１号の６１６",
      "license_date": "2021-11-30",
      "expire_date": "2027-11-30"
    },
    {
      "name": "京都やましろ農業協同組合井手町支店女性部",
      "name_kana": "キョウトヤマシロノウギョウキョウドウクミアイイデチョウシテンジョセイブ",
      "business_type": "㉔ その他の食料品製造・加工業",
      "address": "京都府綴喜郡井手町大字多賀小字庵垣内５－６",
      "lat": 34.819381,
      "lng": 135.814515,
      "geocoding_level": null,
      "phone": "090-9112-2382",
      "license_no": "",
      "license_date": null,
      "expire_date": null
    },
    {
      "name": "パンとケーキの店　あん",
      "name_kana": "パントケーキノミセアン",
      "business_type": "① 飲食店営業",
      "address": "京都府綴喜郡井手町大字多賀小字東北河原２－１３",
      "lat": 34.821961,
      "lng": 135.801692,
      "geocoding_level": null,
      "phone": "0774-99-4177",
      "license_no": "京都府山城北保健所指令５山北保衛第１号の６７８",
      "license_date": "2023-10-25",
      "expire_date": "2029-11-30"
    },
    {
      "name": "パンとケーキの店　あん",
      "name_kana": "パントケーキノミセアン",
      "business_type": "⑪ 菓子製造業",
      "address": "京都府綴喜郡井手町大字多賀小字東北河原２－１３",
      "lat": 34.821961,
      "lng": 135.801692,
      "geocoding_level": null,
      "phone": "0774-99-4177",
      "license_no": "京都府山城北保健所指令５山北保衛第１号の６７９",
      "license_date": "2023-10-25",
      "expire_date": "2029-11-30"
    },
    {
      "name": "レストラン庵樹",
      "name_kana": "レストランアンジュ",
      "business_type": "① 飲食店営業",
      "address": "京都府綴喜郡井手町大字多賀小字東北河原２－１３",
      "lat": 34.821961,
      "lng": 135.801692,
      "geocoding_level": null,
      "phone": "0774-99-4177",
      "license_no": "京都府山城北保健所指令５山北保衛第１号の６８０",
      "license_date": "2023-10-25",
      "expire_date": "2029-11-30"
    },
    {
      "name": "ここたん弁当",
      "name_kana": "ココタンベントウ",
      "business_type": "① 飲食店営業",
      "address": "京都府綴喜郡井手町大字井手小字南玉水６５番地",
      "lat": 34.79848,
      "lng": 135.803628,
      "geocoding_level": null,
      "phone": "080-1509-1030",
      "license_no": "京都府山城北保健所指令４山北保衛第１号の６７０",
      "license_date": "2022-08-10",
      "expire_date": "2028-11-30"
    },
    {
      "name": "ＭＩＮＯＲＩ工房",
      "name_kana": "ミノリコウボウ",
      "business_type": "① 飲食店営業",
      "address": "京都府綴喜郡井手町大字多賀小字前川１２－１",
      "lat": 34.8176,
      "lng": 135.808323,
      "geocoding_level": null,
      "phone": "0774-82-2660",
      "license_no": "京都府山城北保健所指令４山北保衛第１号の２３３",
      "license_date": "2022-03-18",
      "expire_date": "2028-11-30"
    },
    {
      "name": "ＭＩＮＯＲＩ工房",
      "name_kana": "ミノリコウボウ",
      "business_type": "⑪ 菓子製造業",
      "address": "京都府綴喜郡井手町大字多賀小字前川１２－１",
      "lat": 34.8176,
      "lng": 135.808323,
      "geocoding_level": null,
      "phone": "0774-82-2660",
      "license_no": "京都府山城北保健所指令４山北保衛第１号の２３４",
      "license_date": "2022-03-18",
      "expire_date": "2028-11-30"
    },
    {
      "name": "ＭＩＮＯＲＩ工房",
      "name_kana": "ミノリコウボウ",
      "business_type": "⑫ アイスクリーム類製造業",
      "address": "京都府綴喜郡井手町大字多賀小字前川１２－１",
      "lat": 34.8176,
      "lng": 135.808323,
      "geocoding_level": null,
      "phone": "0774-82-2660",
      "license_no": "京都府山城北保健所指令４山北保衛第１号の２３５",
      "license_date": "2022-03-18",
      "expire_date": "2028-11-30"
    },
    {
      "name": "ＭＩＮＯＲＩ工房",
      "name_kana": "ミノリコウボウ",
      "business_type": "㉚ 密封包装食品製造業",
      "address": "京都府綴喜郡井手町大字多賀小字前川１２－１",
      "lat": 34.8176,
      "lng": 135.808323,
      "geocoding_level": null,
      "phone": "0774-82-2660",
      "license_no": "京都府山城北保健所指令４山北保衛第１号の２３６",
      "license_date": "2022-03-18",
      "expire_date": "2028-11-30"
    },
    {
      "name": "銘木カフェＳＨＩＫＩ",
      "name_kana": "メイボクカフェシキ",
      "business_type": "① 飲食店営業",
      "address": "京都府綴喜郡井手町大字井手小字柏原３７番地",
      "lat": 34.799944,
      "lng": 135.80655,
      "geocoding_level": null,
      "phone": "0774-82-2025",
      "license_no": "京都府山城北保健所指令４山北保衛第１号の２４８",
      "license_date": "2022-03-24",
      "expire_date": "2028-11-30"
    },
    {
      "name": "ベラシティハウス",
      "name_kana": "ベラシティハウス",
      "business_type": "① 飲食店営業",
      "address": "京都府綴喜郡井手町大字井手小字柏原４８番地",
      "lat": 34.79963,
      "lng": 135.806324,
      "geocoding_level": null,
      "phone": "0774-82-2025",
      "license_no": "京都府山城北保健所指令６山北保衛第１号の８９",
      "license_date": "2024-02-15",
      "expire_date": "2030-11-30"
    },
    {
      "name": "イフジ産業株式会社　関西事業部",
      "name_kana": "イフジサンギョウカブシキガイシャ　カンサイジギョウブ",
      "business_type": "⑱ 液卵製造業",
      "address": "京都府綴喜郡井手町大字井手小字合藪３－１",
      "lat": 34.797531,
      "lng": 135.801076,
      "geocoding_level": null,
      "phone": "0774994801",
      "license_no": "京都府山城北保健所指令４山北保衛第１号の５８６",
      "license_date": "2022-07-27",
      "expire_date": "2028-11-30"
    },
    {
      "name": "イフジ産業株式会社　関西事業部",
      "name_kana": "イフジサンギョウカブシキガイシャ　カンサイジギョウブ",
      "business_type": "㉕ そうざい製造業",
      "address": "京都府綴喜郡井手町大字井手小字合藪３－１",
      "lat": 34.797531,
      "lng": 135.801076,
      "geocoding_level": null,
      "phone": "0774994801",
      "license_no": "京都府山城北保健所指令４山北保衛第１号の５８７",
      "license_date": "2022-07-27",
      "expire_date": "2028-11-30"
    },
    {
      "name": "さすけ",
      "name_kana": "サスケ",
      "business_type": "① 飲食店営業",
      "address": "京都府綴喜郡井手町大字多賀小字北口１７－１",
      "lat": 34.820558,
      "lng": 135.806853,
      "geocoding_level": null,
      "phone": "",
      "license_no": "京都府山城北保健所指令４山北保衛第１号の４９１",
      "license_date": "2022-06-17",
      "expire_date": "2028-11-30"
    },
    {
      "name": "さすけ",
      "name_kana": "サスケ",
      "business_type": "㉙ 漬物製造業",
      "address": "京都府綴喜郡井手町大字多賀小字北口１７－１",
      "lat": 34.820558,
      "lng": 135.806853,
      "geocoding_level": null,
      "phone": "",
      "license_no": "京都府山城北保健所指令６山北保衛第1号の５６６",
      "license_date": "2024-08-20",
      "expire_date": "2030-11-30"
    },
    {
      "name": "ドッグカフェ　ティムティム",
      "name_kana": "ドッグカフェティムティム",
      "business_type": "① 飲食店営業",
      "address": "京都府綴喜郡井手町大字多賀小字西北河原１７",
      "lat": 34.821548,
      "lng": 135.798375,
      "geocoding_level": null,
      "phone": "0774-82-6950",
      "license_no": "京都府山城北保健所指令４山北保衛第１号の７３３",
      "license_date": "2022-08-30",
      "expire_date": "2028-11-30"
    },
    {
      "name": "伊賀屋食品工業株式会社　京都第２工場",
      "name_kana": "イガヤショクヒンコウギョウカブシキガイシャキョウトダイニコウジョウ",
      "business_type": "㉒ 豆腐製造業",
      "address": "京都府綴喜郡井手町大字多賀小字西松ケ花１２",
      "lat": 34.819338,
      "lng": 135.800885,
      "geocoding_level": null,
      "phone": "0774-99-4102",
      "license_no": "京都府山城北保健所指令４山北保衛第１号の８４６",
      "license_date": "2022-10-21",
      "expire_date": "2028-11-30"
    },
    {
      "name": "飯田かしわ店",
      "name_kana": "イイダカシワテン",
      "business_type": "① 飲食店営業",
      "address": "京都府綴喜郡井手町大字井手小字南猪ノ阪９１",
      "lat": 34.794754,
      "lng": 135.808543,
      "geocoding_level": null,
      "phone": "0774-82-4454",
      "license_no": "京都府山城北保健所指令４山北保衛第１号の８４７",
      "license_date": "2022-10-21",
      "expire_date": "2028-11-30"
    },
    {
      "name": "飯田かしわ店",
      "name_kana": "イイダカシワテン",
      "business_type": "③ 食肉販売業",
      "address": "京都府綴喜郡井手町大字井手小字南猪ノ阪９１",
      "lat": 34.794754,
      "lng": 135.808543,
      "geocoding_level": null,
      "phone": "0774-82-4454",
      "license_no": "京都府山城北保健所指令４山北保衛第１号の８４８",
      "license_date": "2022-10-21",
      "expire_date": "2028-11-30"
    },
    {
      "name": "玉乃光酒造株式会社井手工場",
      "name_kana": "タマノヒカリシュゾウカブシキガイシデコウジョウ",
      "business_type": "㉑ 酒類製造業",
      "address": "京都府綴喜郡井手町大字井手小字辻垣内３３番地の１",
      "lat": 34.800951,
      "lng": 135.806473,
      "geocoding_level": null,
      "phone": "0774-82-2007",
      "license_no": "京都府山城北保健所指令４山北保衛第１号の８７２",
      "license_date": "2022-10-27",
      "expire_date": "2028-11-30"
    },
    {
      "name": "山仁庵",
      "name_kana": "ヤマニアン",
      "business_type": "① 飲食店営業",
      "address": "京都府綴喜郡井手町大字多賀小字西北組２番地",
      "lat": 34.819714,
      "lng": 135.808506,
      "geocoding_level": null,
      "phone": "0774-82-3327",
      "license_no": "京都府山城北保健所指令４山北保衛第１号の８７４",
      "license_date": "2022-10-27",
      "expire_date": "2028-11-30"
    },
    {
      "name": "山仁庵",
      "name_kana": "ヤマニアン",
      "business_type": "⑪ 菓子製造業",
      "address": "京都府綴喜郡井手町大字多賀小字西北組２番地",
      "lat": 34.819714,
      "lng": 135.808506,
      "geocoding_level": null,
      "phone": "0774-82-3327",
      "license_no": "京都府山城北保健所指令４山北保衛第１号の８７５",
      "license_date": "2022-10-27",
      "expire_date": "2028-11-30"
    },
    {
      "name": "山仁庵",
      "name_kana": "ヤマニアン",
      "business_type": "㉙ 漬物製造業",
      "address": "京都府綴喜郡井手町大字多賀小字西北組２番地",
      "lat": 34.819714,
      "lng": 135.808506,
      "geocoding_level": null,
      "phone": "0774-82-3327",
      "license_no": "京都府山城北保健所指令４山北保衛第１号の８７６",
      "license_date": "2022-10-27",
      "expire_date": "2028-11-30"
    },
    {
      "name": "山仁庵",
      "name_kana": "ヤマニアン",
      "business_type": "㉚ 密封包装食品製造業",
      "address": "京都府綴喜郡井手町大字多賀小字西北組２番地",
      "lat": 34.819714,
      "lng": 135.808506,
      "geocoding_level": null,
      "phone": "0774-82-3327",
      "license_no": "京都府山城北保健所指令４山北保衛第１号の８７７",
      "license_date": "2022-10-27",
      "expire_date": "2028-11-30"
    },
    {
      "name": "京都やましろ農業協同組合井手町支店女性部",
      "name_kana": "キョウトヤマシロノウギョウキョウドウクミアイイデチョウシテンジョセイブ",
      "business_type": "⑪ 菓子製造業",
      "address": "京都府綴喜郡井手町大字多賀小字庵垣内５－６",
      "lat": 34.819386,
      "lng": 135.814518,
      "geocoding_level": null,
      "phone": "0774-82-2613",
      "license_no": "京都府山城北保健所指令６山北保衛第１号の７３０",
      "license_date": "2024-11-07",
      "expire_date": "2030-11-30"
    },
    {
      "name": "京都やましろ農業協同組合井手町支店女性部",
      "name_kana": "キョウトヤマシロノウギョウキョウドウクミアイイデチョウシテンジョセイブ",
      "business_type": "⑳ みそ又はしょうゆ製造業",
      "address": "京都府綴喜郡井手町大字多賀小字庵垣内５－６",
      "lat": 34.819386,
      "lng": 135.814518,
      "geocoding_level": null,
      "phone": "0774-82-2613",
      "license_no": "京都府山城北保健所指令６山北保衛第１号の７３１",
      "license_date": "2024-11-07",
      "expire_date": "2030-11-30"
    },
    {
      "name": "京都やましろ農業協同組合井手町支店女性部",
      "name_kana": "キョウトヤマシロノウギョウキョウドウクミアイイデチョウシテンジョセイブ",
      "business_type": "㉕ そうざい製造業",
      "address": "京都府綴喜郡井手町大字多賀小字庵垣内５－６",
      "lat": 34.819386,
      "lng": 135.814518,
      "geocoding_level": null,
      "phone": "0774-82-2613",
      "license_no": "京都府山城北保健所指令６山北保衛第１号の７３２",
      "license_date": "2024-11-07",
      "expire_date": "2030-11-30"
    },
    {
      "name": "京都やましろ農業協同組合井手町支店女性部",
      "name_kana": "キョウトヤマシロノウギョウキョウドウクミアイイデチョウシテンジョセイブ",
      "business_type": "㉚ 密封包装食品製造業",
      "address": "京都府綴喜郡井手町大字多賀小字庵垣内５－６",
      "lat": 34.819386,
      "lng": 135.814518,
      "geocoding_level": null,
      "phone": "0774-82-2613",
      "license_no": "京都府山城北保健所指令６山北保衛第１号の７３３",
      "license_date": "2024-11-07",
      "expire_date": "2030-11-30"
    },
    {
      "name": "魚志商店",
      "name_kana": "ウオシショウテン",
      "business_type": "① 飲食店営業",
      "address": "京都府綴喜郡井手町大字多賀小字西南組４６",
      "lat": 34.819203,
      "lng": 135.809074,
      "geocoding_level": null,
      "phone": "0774-82-2169",
      "license_no": "京都府山城北保健所指令４山北保衛第１号の９５６",
      "license_date": "2022-11-15",
      "expire_date": "2028-11-30"
    },
    {
      "name": "魚志商店",
      "name_kana": "ウオシショウテン",
      "business_type": "⑪ 菓子製造業",
      "address": "京都府綴喜郡井手町大字多賀小字西南組４６",
      "lat": 34.819203,
      "lng": 135.809074,
      "geocoding_level": null,
      "phone": "0774-82-2169",
      "license_no": "京都府山城北保健所指令８山北保衛第１号の２０４",
      "license_date": "2026-04-06",
      "expire_date": "2032-11-30"
    },
    {
      "name": "有王　大正池渓流センター",
      "name_kana": "アリオウタイショウケイリュウセンター",
      "business_type": "① 飲食店営業",
      "address": "京都府綴喜郡井手町大字田村新田小字百塚１４",
      "lat": 34.810428,
      "lng": 135.854679,
      "geocoding_level": null,
      "phone": "0774-82-3785",
      "license_no": "京都府山城北保健所指令４山北保衛第１号の９７７",
      "license_date": "2022-11-17",
      "expire_date": "2028-11-30"
    },
    {
      "name": "魚又",
      "name_kana": "ウオマタ",
      "business_type": "① 飲食店営業",
      "address": "京都府綴喜郡井手町大字多賀小字東南組1０",
      "lat": 34.819129,
      "lng": 135.811271,
      "geocoding_level": null,
      "phone": "0774-82-2205",
      "license_no": "京都府山城北保健所指令４山北保衛第１号の９７９",
      "license_date": "2022-11-17",
      "expire_date": "2028-11-30"
    },
    {
      "name": "魚又",
      "name_kana": "ウオマタ",
      "business_type": "③ 食肉販売業",
      "address": "京都府綴喜郡井手町大字多賀小字東南組1０",
      "lat": 34.819129,
      "lng": 135.811271,
      "geocoding_level": null,
      "phone": "0774-82-2205",
      "license_no": "京都府山城北保健所指令４山北保衛第１号の９８０",
      "license_date": "2022-11-17",
      "expire_date": "2028-11-30"
    },
    {
      "name": "魚又",
      "name_kana": "ウオマタ",
      "business_type": "④ 魚介類販売業",
      "address": "京都府綴喜郡井手町大字多賀小字東南組1０",
      "lat": 34.819129,
      "lng": 135.811271,
      "geocoding_level": null,
      "phone": "0774-82-2205",
      "license_no": "京都府山城北保健所指令４山北保衛第１号の９８１",
      "license_date": "2022-11-17",
      "expire_date": "2028-11-30"
    },
    {
      "name": "京料理　八百忠本店",
      "name_kana": "キョウリョウリヤオチュウホンテン",
      "business_type": "① 飲食店営業",
      "address": "京都府綴喜郡井手町大字井手小字北玉水５３番地",
      "lat": 34.800362,
      "lng": 135.80438,
      "geocoding_level": null,
      "phone": "0774-82-2028",
      "license_no": "京都府山城北保健所指令４山北保衛第1号の１０００",
      "license_date": "2022-11-24",
      "expire_date": "2028-11-30"
    },
    {
      "name": "京料理　八百忠本店",
      "name_kana": "キョウリョウリヤオチュウホンテン",
      "business_type": "㉕ そうざい製造業",
      "address": "京都府綴喜郡井手町大字井手小字北玉水５３番地",
      "lat": 34.800362,
      "lng": 135.80438,
      "geocoding_level": null,
      "phone": "0774-82-2028",
      "license_no": "京都府山城北保健所指令５山北保衛第1号の453",
      "license_date": "2023-07-21",
      "expire_date": "2029-11-30"
    },
    {
      "name": "かつを屋",
      "name_kana": "カツヲヤ",
      "business_type": "① 飲食店営業",
      "address": "京都府綴喜郡井手町大字多賀小字庵垣内５－５",
      "lat": 34.819103,
      "lng": 135.814566,
      "geocoding_level": null,
      "phone": "0774-82-4509",
      "license_no": "京都府山城北保健所指令４山北保衛第1号の１０２５",
      "license_date": "2022-11-30",
      "expire_date": "2028-11-30"
    },
    {
      "name": "梅の花　京都セントラルキッチン",
      "name_kana": "ウメノハナキョウトセントラルキッチン",
      "business_type": "① 飲食店営業",
      "address": "京都府綴喜郡井手町大字多賀小字西北ノ代１番地",
      "lat": 34.820304,
      "lng": 135.801581,
      "geocoding_level": null,
      "phone": "0774-39-7209",
      "license_no": "京都府山城北保健所指令７山北保衛第１号の７０１",
      "license_date": "2025-10-22",
      "expire_date": "2031-11-30"
    },
    {
      "name": "梅の花　京都セントラルキッチン",
      "name_kana": "ウメノハナキョウトセントラルキッチン",
      "business_type": "④ 魚介類販売業",
      "address": "京都府綴喜郡井手町大字多賀小字西北ノ代１番地",
      "lat": 34.820304,
      "lng": 135.801581,
      "geocoding_level": null,
      "phone": "0774-39-7209",
      "license_no": "京都府山城北保健所指令７山北保衛第１号の７０２",
      "license_date": "2025-10-22",
      "expire_date": "2031-11-30"
    },
    {
      "name": "梅の花　京都セントラルキッチン",
      "name_kana": "ウメノハナキョウトセントラルキッチン",
      "business_type": "⑪ 菓子製造業",
      "address": "京都府綴喜郡井手町大字多賀小字西北ノ代１番地",
      "lat": 34.820304,
      "lng": 135.801581,
      "geocoding_level": null,
      "phone": "0774-39-7209",
      "license_no": "京都府山城北保健所指令７山北保衛第１号の７０３",
      "license_date": "2025-10-22",
      "expire_date": "2031-11-30"
    },
    {
      "name": "梅の花　京都セントラルキッチン",
      "name_kana": "ウメノハナキョウトセントラルキッチン",
      "business_type": "⑭ 清涼飲料水製造業",
      "address": "京都府綴喜郡井手町大字多賀小字西北ノ代１番地",
      "lat": 34.820304,
      "lng": 135.801581,
      "geocoding_level": null,
      "phone": "0774-39-7209",
      "license_no": "京都府山城北保健所指令７山北保衛第１号の７０４",
      "license_date": "2025-10-22",
      "expire_date": "2031-11-30"
    },
    {
      "name": "梅の花　京都セントラルキッチン",
      "name_kana": "ウメノハナキョウトセントラルキッチン",
      "business_type": "㉒ 豆腐製造業",
      "address": "京都府綴喜郡井手町大字多賀小字西北ノ代１番地",
      "lat": 34.820304,
      "lng": 135.801581,
      "geocoding_level": null,
      "phone": "0774-39-7209",
      "license_no": "京都府山城北保健所指令７山北保衛第１号の７０５",
      "license_date": "2025-10-22",
      "expire_date": "2031-11-30"
    },
    {
      "name": "梅の花　京都セントラルキッチン",
      "name_kana": "ウメノハナキョウトセントラルキッチン",
      "business_type": "㉕ そうざい製造業",
      "address": "京都府綴喜郡井手町大字多賀小字西北ノ代１番地",
      "lat": 34.820304,
      "lng": 135.801581,
      "geocoding_level": null,
      "phone": "0774-39-7209",
      "license_no": "京都府山城北保健所指令７山北保衛第１号の７０６",
      "license_date": "2025-10-22",
      "expire_date": "2031-11-30"
    },
    {
      "name": "梅の花　京都セントラルキッチン",
      "name_kana": "ウメノハナキョウトセントラルキッチン",
      "business_type": "㉗ 冷凍食品製造業",
      "address": "京都府綴喜郡井手町大字多賀小字西北ノ代１番地",
      "lat": 34.820304,
      "lng": 135.801581,
      "geocoding_level": null,
      "phone": "0774-39-7209",
      "license_no": "京都府山城北保健所指令７山北保衛第１号の７０７",
      "license_date": "2025-10-22",
      "expire_date": "2031-11-30"
    },
    {
      "name": "梅の花　京都セントラルキッチン",
      "name_kana": "ウメノハナキョウトセントラルキッチン",
      "business_type": "㉙ 漬物製造業",
      "address": "京都府綴喜郡井手町大字多賀小字西北ノ代１番地",
      "lat": 34.820304,
      "lng": 135.801581,
      "geocoding_level": null,
      "phone": "0774-39-7209",
      "license_no": "京都府山城北保健所指令４山北保衛第1号の１０２６",
      "license_date": "2022-12-01",
      "expire_date": "2028-11-30"
    },
    {
      "name": "井手町まちづくりセンター椿坂",
      "name_kana": "イデチョウマチヅクリセンターツバキサカ",
      "business_type": "① 飲食店営業",
      "address": "京都府綴喜郡井手町大字井手小字石橋４４",
      "lat": 34.800685,
      "lng": 135.817998,
      "geocoding_level": null,
      "phone": "0774-82-3838",
      "license_no": "京都府山城北保健所指令５山北保衛第１号の１",
      "license_date": "2023-01-05",
      "expire_date": "2029-11-30"
    },
    {
      "name": "クリスマスローズ",
      "name_kana": "クリスマスローズ",
      "business_type": "⑪ 菓子製造業",
      "address": "京都府綴喜郡井手町井手段ノ下５４－１",
      "lat": 34.801514,
      "lng": 135.820855,
      "geocoding_level": null,
      "phone": "090-8366-4729",
      "license_no": "京都府山城北保健所指令５山北保衛第１号の１３９",
      "license_date": "2023-03-08",
      "expire_date": "2029-11-30"
    },
    {
      "name": "京都餃子　一条",
      "name_kana": "キョウトギョウザイチジョウ",
      "business_type": "㉕ そうざい製造業",
      "address": "京都府綴喜郡井手町大字井手小字渋川１０－１７",
      "lat": 34.793972,
      "lng": 135.803934,
      "geocoding_level": null,
      "phone": "",
      "license_no": "京都府山城北保健所指令５山北保衛第１号の３３９",
      "license_date": "2023-05-23",
      "expire_date": "2029-11-30"
    },
    {
      "name": "京都餃子　一条",
      "name_kana": "キョウトギョウザイチジョウ",
      "business_type": "⑬ その他の食料・飲料販売業",
      "address": "京都府綴喜郡井手町井手渋川１０－１７",
      "lat": 34.794,
      "lng": 135.803918,
      "geocoding_level": null,
      "phone": "",
      "license_no": "",
      "license_date": null,
      "expire_date": null
    },
    {
      "name": "テオテラスいで",
      "name_kana": "テオテラスイデ",
      "business_type": "⑥ 弁当販売業",
      "address": "京都府綴喜郡井手町大字井手小字東高月８番地",
      "lat": 34.800513,
      "lng": 135.814566,
      "geocoding_level": null,
      "phone": "0774-82-5600",
      "license_no": "",
      "license_date": null,
      "expire_date": null
    },
    {
      "name": "テオテラスいで",
      "name_kana": "テオテラスイデ",
      "business_type": "⑦ 野菜果物販売業",
      "address": "京都府綴喜郡井手町大字井手小字東高月８番地",
      "lat": 34.800513,
      "lng": 135.814566,
      "geocoding_level": null,
      "phone": "0774-82-5600",
      "license_no": "",
      "license_date": null,
      "expire_date": null
    },
    {
      "name": "テオテラスいで",
      "name_kana": "テオテラスイデ",
      "business_type": "⑬ その他の食料・飲料販売業",
      "address": "京都府綴喜郡井手町大字井手小字東高月８番地",
      "lat": 34.800513,
      "lng": 135.814566,
      "geocoding_level": null,
      "phone": "0774-82-5600",
      "license_no": "",
      "license_date": null,
      "expire_date": null
    },
    {
      "name": "テオテラスいで",
      "name_kana": "テオテラスイデ",
      "business_type": "① 飲食店営業",
      "address": "京都府綴喜郡井手町大字井手小字東高月８番地",
      "lat": 34.800558,
      "lng": 135.814649,
      "geocoding_level": null,
      "phone": "0774-82-5600",
      "license_no": "京都府山城北保健所指令５山北保衛第１号の５４０",
      "license_date": "2023-08-14",
      "expire_date": "2029-11-30"
    },
    {
      "name": "テオテラスいで",
      "name_kana": "テオテラスイデ",
      "business_type": "⑪ 菓子製造業",
      "address": "京都府綴喜郡井手町大字井手小字東高月８番地",
      "lat": 34.800558,
      "lng": 135.814649,
      "geocoding_level": null,
      "phone": "0774-82-5600",
      "license_no": "京都府山城北保健所指令５山北保衛第１号の５４１",
      "license_date": "2023-08-14",
      "expire_date": "2029-11-30"
    },
    {
      "name": "テオテラスいで",
      "name_kana": "テオテラスイデ",
      "business_type": "⑯ 水産製品製造業",
      "address": "京都府綴喜郡井手町大字井手小字東高月８番地",
      "lat": 34.800558,
      "lng": 135.814649,
      "geocoding_level": null,
      "phone": "0774-82-5600",
      "license_no": "京都府山城北保健所指令７山北保衛第１号の６１５",
      "license_date": "2025-09-10",
      "expire_date": "2031-11-30"
    },
    {
      "name": "テオテラスいで",
      "name_kana": "テオテラスイデ",
      "business_type": "㉕ そうざい製造業",
      "address": "京都府綴喜郡井手町大字井手小字東高月８番地",
      "lat": 34.800558,
      "lng": 135.814649,
      "geocoding_level": null,
      "phone": "0774-82-5600",
      "license_no": "京都府山城北保健所指令５山北保衛第１号の５４２",
      "license_date": "2023-08-14",
      "expire_date": "2029-11-30"
    },
    {
      "name": "大西商店",
      "name_kana": "オオニシショウテン",
      "business_type": "⑪ 菓子製造業",
      "address": "京都府綴喜郡井手町大字井手小字柏原68番地",
      "lat": 34.799402,
      "lng": 135.805091,
      "geocoding_level": null,
      "phone": "0774-82-2056",
      "license_no": "京都府山城北保健所指令６山北保衛第１号の２７９",
      "license_date": "2024-05-14",
      "expire_date": "2030-11-30"
    },
    {
      "name": "大西商店",
      "name_kana": "オオニシショウテン",
      "business_type": "㉕ そうざい製造業",
      "address": "京都府綴喜郡井手町大字井手小字柏原68番地",
      "lat": 34.799402,
      "lng": 135.805091,
      "geocoding_level": null,
      "phone": "0774-82-2056",
      "license_no": "京都府山城北保健所指令６山北保衛第１号の２８０",
      "license_date": "2024-05-14",
      "expire_date": "2030-11-30"
    },
    {
      "name": "大西商店",
      "name_kana": "オオニシショウテン",
      "business_type": "㉚ 密封包装食品製造業",
      "address": "京都府綴喜郡井手町大字井手小字柏原68番地",
      "lat": 34.799402,
      "lng": 135.805091,
      "geocoding_level": null,
      "phone": "0774-82-2056",
      "license_no": "京都府山城北保健所指令６山北保衛第１号の２８１",
      "license_date": "2024-05-14",
      "expire_date": "2030-11-30"
    },
    {
      "name": "株式会社大西商店",
      "name_kana": "カブシキガイシャオオニシショウテン",
      "business_type": "② 食肉販売業（包装済みの食肉のみの販売）",
      "address": "京都府綴喜郡井手町井手柏原68",
      "lat": 34.799402,
      "lng": 135.805081,
      "geocoding_level": null,
      "phone": "0774822056",
      "license_no": "",
      "license_date": null,
      "expire_date": null
    },
    {
      "name": "株式会社大西商店",
      "name_kana": "カブシキガイシャオオニシショウテン",
      "business_type": "③ 乳類販売業",
      "address": "京都府綴喜郡井手町井手柏原68",
      "lat": 34.799402,
      "lng": 135.805081,
      "geocoding_level": null,
      "phone": "0774822056",
      "license_no": "",
      "license_date": null,
      "expire_date": null
    },
    {
      "name": "株式会社大西商店",
      "name_kana": "カブシキガイシャオオニシショウテン",
      "business_type": "⑦ 野菜果物販売業",
      "address": "京都府綴喜郡井手町井手柏原68",
      "lat": 34.799402,
      "lng": 135.805081,
      "geocoding_level": null,
      "phone": "0774822056",
      "license_no": "",
      "license_date": null,
      "expire_date": null
    },
    {
      "name": "くぼた商店",
      "name_kana": "クボタショウテン",
      "business_type": "㉙ 漬物製造業",
      "address": "京都府綴喜郡井手町大字多賀小字東南組３９－１",
      "lat": 34.818041,
      "lng": 135.809826,
      "geocoding_level": null,
      "phone": "",
      "license_no": "京都府山城北保健所指令６山北保衛第１号の１４４",
      "license_date": "2024-03-13",
      "expire_date": "2030-11-30"
    },
    {
      "name": "ニャベットコーヒー",
      "name_kana": "ニャベットコーヒー",
      "business_type": "⑯ コーヒー製造・加工業（飲料の製造を除く。）",
      "address": "京都府綴喜郡井手町井手南猪ノ坂９番地１号",
      "lat": 35.290555,
      "lng": 135.297186,
      "geocoding_level": null,
      "phone": "",
      "license_no": "",
      "license_date": null,
      "expire_date": null
    },
    {
      "name": "まごころ弁当　井手町店",
      "name_kana": "マゴコロベントウイデチョウテン",
      "business_type": "① 飲食店営業",
      "address": "京都府綴喜郡井手町大字井手小字段ノ下１番地４",
      "lat": 34.796581,
      "lng": 135.804124,
      "geocoding_level": null,
      "phone": "080-8500-6056",
      "license_no": "京都府山城北保健所指令６山北保衛第１号の３９９",
      "license_date": "2024-06-18",
      "expire_date": "2030-11-30"
    },
    {
      "name": "木田農園",
      "name_kana": "キダノウエン",
      "business_type": "㉙ 漬物製造業",
      "address": "京都府綴喜郡井手町大字多賀小字西南組４０－２",
      "lat": 34.818529,
      "lng": 135.808839,
      "geocoding_level": null,
      "phone": "0774-82-2937",
      "license_no": "京都府山城北保健所指令６山北保衛第１号の４１２",
      "license_date": "2024-06-28",
      "expire_date": "2030-11-30"
    },
    {
      "name": "木田農園",
      "name_kana": "キダノウエン",
      "business_type": "㉔ その他の食料品製造・加工業",
      "address": "京都府綴喜郡井手町大字多賀小字西南組４０－２",
      "lat": 34.818529,
      "lng": 135.808839,
      "geocoding_level": null,
      "phone": "0774-82-2937",
      "license_no": "",
      "license_date": null,
      "expire_date": null
    },
    {
      "name": "おばんざい　くれたけ庵",
      "name_kana": "オバンザイクレタケアン",
      "business_type": "① 飲食店営業",
      "address": "京都府綴喜郡井手町大字井手小字西山５２番地１ Ｒ．Ｖ．Ｐａｒｋ",
      "lat": 34.80451,
      "lng": 135.814391,
      "geocoding_level": null,
      "phone": "0774-26-7030",
      "license_no": "京都府山城北保健所指令６山北保衛第１号の５７３",
      "license_date": "2024-08-22",
      "expire_date": "2030-11-30"
    },
    {
      "name": "みどり農園",
      "name_kana": "ミドリノウエン",
      "business_type": "① 飲食店営業",
      "address": "京都府綴喜郡井手町大字多賀小字小払８",
      "lat": 34.813602,
      "lng": 135.832719,
      "geocoding_level": null,
      "phone": "0774-82-2654",
      "license_no": "京都府山城北保健所指令６山北保衛第１号の７３４",
      "license_date": "2024-11-07",
      "expire_date": "2030-11-30"
    },
    {
      "name": "花登",
      "name_kana": "ハナト",
      "business_type": "① 飲食店営業",
      "address": "京都府綴喜郡井手町大字井手小字宮ノ本９４－９",
      "lat": 34.797807,
      "lng": 135.809939,
      "geocoding_level": null,
      "phone": "0774-82-4672",
      "license_no": "京都府山城北保健所指令６山北保衛第１号の７３５",
      "license_date": "2024-11-07",
      "expire_date": "2030-11-30"
    },
    {
      "name": "花登",
      "name_kana": "ハナト",
      "business_type": "⑪ 菓子製造業",
      "address": "京都府綴喜郡井手町大字井手小字宮ノ本９４－９",
      "lat": 34.797807,
      "lng": 135.809939,
      "geocoding_level": null,
      "phone": "0774-82-4672",
      "license_no": "京都府山城北保健所指令７山北保衛第１号の６４８",
      "license_date": "2025-09-25",
      "expire_date": "2030-11-30"
    },
    {
      "name": "近畿北部Ｌ．Ｃ．",
      "name_kana": "キンキホクブエルシイ",
      "business_type": "② 食肉販売業（包装済みの食肉のみの販売）",
      "address": "京都府綴喜郡井手町大字多賀小字堀畑１３－１１",
      "lat": 34.8237,
      "lng": 135.813112,
      "geocoding_level": null,
      "phone": "0774-66-1236",
      "license_no": "",
      "license_date": null,
      "expire_date": null
    },
    {
      "name": "京都井手観光交流協会",
      "name_kana": "キョウトイデカンコウコウリュウキョウカイ",
      "business_type": "⑦ 野菜果物販売業",
      "address": "京都府綴喜郡井手町井手段ノ下54番地の1",
      "lat": 34.800551,
      "lng": 135.818137,
      "geocoding_level": 3,
      "phone": "",
      "license_no": "",
      "license_date": null,
      "expire_date": null
    },
    {
      "name": "キョーラクシンコー株式会社",
      "name_kana": "キョーラクシンコーカブシキカイシャ",
      "business_type": "㉗ 器具、容器包装の製造・加工業（合成樹脂が使用された器具又は容器包装の製造、加工に限る。）",
      "address": "京都府綴喜郡井手町大字井手字合藪36-1",
      "lat": 34.799314,
      "lng": 135.801268,
      "geocoding_level": null,
      "phone": "0774-82-4067",
      "license_no": "",
      "license_date": null,
      "expire_date": null
    }
  ]
}
