{
  "meta": {
    "updated": 1783568789,
    "sources": [
      {
        "source": "厚生労働省 食品衛生申請等システム（オープンデータ）",
        "license": "公共データ利用規約（第1.0版, PDL1.0）"
      }
    ]
  },
  "data": [
    {
      "name": "コーナン高石富木店",
      "name_kana": "コーナンタカイシトノキテン",
      "business_type": "⑪ 百貨店、総合スーパー",
      "address": "大阪府高石市取石７丁目1－64",
      "lat": 34.520239,
      "lng": 135.458223,
      "geocoding_level": null,
      "phone": "072-274-6854",
      "license_no": "",
      "license_date": null,
      "expire_date": null
    },
    {
      "name": "クスリキリン堂　高石加茂店",
      "name_kana": "クスリキリンドウ　タカイシカモテン",
      "business_type": "⑬ その他の食料・飲料販売業",
      "address": "大阪府高石市西取石３－８－４０",
      "lat": 34.522743,
      "lng": 135.444951,
      "geocoding_level": null,
      "phone": "0722677644",
      "license_no": "",
      "license_date": null,
      "expire_date": null
    },
    {
      "name": "サンドラッグ高石店",
      "name_kana": "サンドラッグタカイシテン",
      "business_type": "⑪ 百貨店、総合スーパー",
      "address": "大阪府高石市綾園1-1-2",
      "lat": 34.522553,
      "lng": 135.434819,
      "geocoding_level": null,
      "phone": "072-246-9235",
      "license_no": "",
      "license_date": null,
      "expire_date": null
    },
    {
      "name": "サンディ富木店",
      "name_kana": "サンディトノキテン",
      "business_type": "⑪ 百貨店、総合スーパー",
      "address": "大阪府高石市西取石６－２－５",
      "lat": 34.51987,
      "lng": 135.445296,
      "geocoding_level": null,
      "phone": "072-267-0213",
      "license_no": "",
      "license_date": null,
      "expire_date": null
    },
    {
      "name": "サンディ高石駅前店",
      "name_kana": "サンディタカイシエキマエテン",
      "business_type": "⑪ 百貨店、総合スーパー",
      "address": "大阪府高石市綾園１－１２－３ 高石綾園マンション１階",
      "lat": 34.520609,
      "lng": 135.433385,
      "geocoding_level": null,
      "phone": "072-265-2164",
      "license_no": "",
      "license_date": null,
      "expire_date": null
    },
    {
      "name": "スギドラッグ  高石駅前店",
      "name_kana": "スギドラッグ  タカイシエキマエテン",
      "business_type": "⑬ その他の食料・飲料販売業",
      "address": "大阪府高石市綾園一丁目14番28号",
      "lat": 34.519921,
      "lng": 135.434071,
      "geocoding_level": null,
      "phone": "072-246-9571",
      "license_no": "",
      "license_date": null,
      "expire_date": null
    },
    {
      "name": "スギドラッグ  取石店",
      "name_kana": "スギドラッグ  トリイシテン",
      "business_type": "⑬ その他の食料・飲料販売業",
      "address": "大阪府高石市取石七丁目1番43号",
      "lat": 34.519172,
      "lng": 135.459714,
      "geocoding_level": null,
      "phone": "072-349-8588",
      "license_no": "",
      "license_date": null,
      "expire_date": null
    },
    {
      "name": "ドラッグジャパン　高石店",
      "name_kana": "ドラッグジャパン　タカイシテン",
      "business_type": "⑪ 百貨店、総合スーパー",
      "address": "大阪府高石市西取石8丁目8-16",
      "lat": 34.514442,
      "lng": 135.438949,
      "geocoding_level": null,
      "phone": "072-264-9757",
      "license_no": "",
      "license_date": null,
      "expire_date": null
    },
    {
      "name": "株式会社コールド・エアー・プロダクツ",
      "name_kana": "カブシキガイシャコールド・エアー・プロダクツ",
      "business_type": "⑭ 添加物製造・加工業（法第13 条第１項の規定により規格が定められた添加物の製造を除く。）",
      "address": "大阪府高石市高砂3-7",
      "lat": 34.539221,
      "lng": 135.402858,
      "geocoding_level": null,
      "phone": "072-268-3381",
      "license_no": "",
      "license_date": null,
      "expire_date": null
    },
    {
      "name": "泉北酸素株式会社",
      "name_kana": "センボクサンソカブシキカイシャ",
      "business_type": "㉙ その他",
      "address": "大阪府高石市高砂1-5",
      "lat": 34.531257,
      "lng": 135.424611,
      "geocoding_level": null,
      "phone": "0722683451",
      "license_no": "",
      "license_date": null,
      "expire_date": null
    },
    {
      "name": "ドラッグセイムス高石加茂店",
      "name_kana": "ドラッグセイムスタカイシカモテン",
      "business_type": "⑪ 百貨店、総合スーパー",
      "address": "大阪府高石市加茂1丁目12-13",
      "lat": 34.523535,
      "lng": 135.438417,
      "geocoding_level": null,
      "phone": "072-267-0355",
      "license_no": "",
      "license_date": null,
      "expire_date": null
    },
    {
      "name": "明和金属工業株式会社",
      "name_kana": "メイワキンゾクコウギョウカブシキカイシャ",
      "business_type": "㉗ 器具、容器包装の製造・加工業（合成樹脂が使用された器具又は容器包装の製造、加工に限る。）",
      "address": "大阪府高石市取石7-5-16",
      "lat": 34.518236,
      "lng": 135.45709,
      "geocoding_level": null,
      "phone": "0722741201",
      "license_no": "",
      "license_date": null,
      "expire_date": null
    },
    {
      "name": "コノミヤアプラ高石店",
      "name_kana": "コノミヤアプラタカイシテン",
      "business_type": "⑪ 百貨店、総合スーパー",
      "address": "大阪府高石市綾園1-9-1",
      "lat": 34.521355,
      "lng": 135.434066,
      "geocoding_level": null,
      "phone": "",
      "license_no": "",
      "license_date": null,
      "expire_date": null
    },
    {
      "name": "大阪王将　高石店",
      "name_kana": "オオサカオウショウ　タカイシテン",
      "business_type": "⑬ その他の食料・飲料販売業",
      "address": "大阪府高石市西取石7－11－28",
      "lat": 34.519874,
      "lng": 135.446275,
      "geocoding_level": null,
      "phone": "",
      "license_no": "",
      "license_date": null,
      "expire_date": null
    },
    {
      "name": "丸源ラーメン高石店",
      "name_kana": "マルゲンラーメンタカイシテン",
      "business_type": "⑬ その他の食料・飲料販売業",
      "address": "大阪府高石市西取石6丁目6－58",
      "lat": 34.517394,
      "lng": 135.443765,
      "geocoding_level": null,
      "phone": "",
      "license_no": "",
      "license_date": null,
      "expire_date": null
    },
    {
      "name": "サンドラッグ綾園店",
      "name_kana": "サンドラッグアヤゾノテン",
      "business_type": "⑪ 百貨店、総合スーパー",
      "address": "大阪府高石市綾園7丁目5-73",
      "lat": 34.513979,
      "lng": 135.425537,
      "geocoding_level": null,
      "phone": "072-267-2081",
      "license_no": "",
      "license_date": null,
      "expire_date": null
    },
    {
      "name": "餃子の王将 国道高石店",
      "name_kana": "ギョウザノオウショウ　コクドウタカイシテン",
      "business_type": "⑬ その他の食料・飲料販売業",
      "address": "大阪府高石市西取石8-4-14",
      "lat": 34.515388,
      "lng": 135.440655,
      "geocoding_level": null,
      "phone": "072-264-8787",
      "license_no": "",
      "license_date": null,
      "expire_date": null
    },
    {
      "name": "株式会社ジャパンペール　高石工場",
      "name_kana": "カブシキカイシャジャパンペール　タカイシコウジョウ",
      "business_type": "㉗ 器具、容器包装の製造・加工業（合成樹脂が使用された器具又は容器包装の製造、加工に限る。）",
      "address": "大阪府高石市高砂二丁目7番",
      "lat": 34.526636,
      "lng": 135.418827,
      "geocoding_level": null,
      "phone": "0722681721",
      "license_no": "",
      "license_date": null,
      "expire_date": null
    },
    {
      "name": "ライフ高石店",
      "name_kana": "ライフタカイシテン",
      "business_type": "⑪ 百貨店、総合スーパー",
      "address": "大阪府高石市高師浜３丁目２０－２０",
      "lat": 34.523469,
      "lng": 135.43458,
      "geocoding_level": null,
      "phone": "072-265-1520",
      "license_no": "",
      "license_date": null,
      "expire_date": null
    },
    {
      "name": "なか卯高石羽衣店",
      "name_kana": "ナカウタカイシハゴロモテン",
      "business_type": "⑬ その他の食料・飲料販売業",
      "address": "大阪府高石市羽衣2丁目5番30号",
      "lat": 34.534351,
      "lng": 135.438701,
      "geocoding_level": null,
      "phone": "",
      "license_no": "",
      "license_date": null,
      "expire_date": null
    },
    {
      "name": "なか卯高石羽衣店",
      "name_kana": "ナカウタカイシハゴロモテン",
      "business_type": "① 飲食店営業",
      "address": "大阪府高石市羽衣2丁目5番30号",
      "lat": 34.53433,
      "lng": 135.438705,
      "geocoding_level": null,
      "phone": "",
      "license_no": "01330060",
      "license_date": "2026-05-01",
      "expire_date": "2032-04-30"
    },
    {
      "name": "ウエルシア高石東羽衣店",
      "name_kana": "ウエルシアタカイシヒガシハゴロモテン",
      "business_type": "⑪ 百貨店、総合スーパー",
      "address": "大阪府高石市東羽衣4丁目8-2",
      "lat": 34.529152715,
      "lng": 135.445539255,
      "geocoding_level": 8,
      "phone": "0722670521",
      "license_no": "",
      "license_date": null,
      "expire_date": null
    },
    {
      "name": "やおしょう高石店",
      "name_kana": "ヤオショウタカイシテン",
      "business_type": "⑦ 野菜果物販売業",
      "address": "大阪府高石市綾園7丁目4番16号 業務スーパー内",
      "lat": 34.514601,
      "lng": 135.427925,
      "geocoding_level": null,
      "phone": "072-265-8318",
      "license_no": "",
      "license_date": null,
      "expire_date": null
    },
    {
      "name": "ウエルシア高石高師浜店",
      "name_kana": "ウエルシアタカイシタカシノハマテン",
      "business_type": "⑪ 百貨店、総合スーパー",
      "address": "大阪府高石市高師浜3丁目1-15",
      "lat": 34.526337,
      "lng": 135.432687,
      "geocoding_level": null,
      "phone": "072-267-6909",
      "license_no": "",
      "license_date": null,
      "expire_date": null
    },
    {
      "name": "ウエルシア高石高師浜店",
      "name_kana": "ウエルシアタカイシタカシノハマテン",
      "business_type": "⑫ 自動販売機による販売業（コップ式自動販売機（自動洗浄・屋内設置）及び営業許可の対象となる自動販売機を除く）",
      "address": "大阪府高石市高師浜3丁目1-15",
      "lat": 34.526337,
      "lng": 135.432687,
      "geocoding_level": null,
      "phone": "072-267-6909",
      "license_no": "",
      "license_date": null,
      "expire_date": null
    },
    {
      "name": "浜寺公園交通広場",
      "name_kana": "ハマデラコウエンコウツウヒロバ",
      "business_type": "⑫ 自動販売機による販売業（コップ式自動販売機（自動洗浄・屋内設置）及び営業許可の対象となる自動販売機を除く）",
      "address": "大阪府高石市羽衣公園丁",
      "lat": 34.537801,
      "lng": 135.43686,
      "geocoding_level": null,
      "phone": "",
      "license_no": "",
      "license_date": null,
      "expire_date": null
    },
    {
      "name": "ＪＲ東羽衣駅キヨスク",
      "name_kana": "ジェイアールヒガシハゴロモエキキヨスク",
      "business_type": "⑫ 自動販売機による販売業（コップ式自動販売機（自動洗浄・屋内設置）及び営業許可の対象となる自動販売機を除く）",
      "address": "大阪府高石市東羽衣１－１８－４９",
      "lat": 34.529921,
      "lng": 135.443921,
      "geocoding_level": null,
      "phone": "",
      "license_no": "",
      "license_date": null,
      "expire_date": null
    },
    {
      "name": "パル横河",
      "name_kana": "パルヨコカワ",
      "business_type": "㉙ その他",
      "address": "大阪府高石市千代田2-9-26",
      "lat": 34.52487,
      "lng": 135.42776,
      "geocoding_level": null,
      "phone": "",
      "license_no": "",
      "license_date": null,
      "expire_date": null
    },
    {
      "name": "びっくりドンキー高石店",
      "name_kana": "ビックリドンキータカイシテン",
      "business_type": "⑬ その他の食料・飲料販売業",
      "address": "大阪府高石市西取石6丁目6番52号",
      "lat": 34.517642,
      "lng": 135.444247,
      "geocoding_level": null,
      "phone": "072-265-2739",
      "license_no": "",
      "license_date": null,
      "expire_date": null
    },
    {
      "name": "サイゼリヤ　高石羽衣店",
      "name_kana": "サイゼリヤ　タカイシハゴロモテン",
      "business_type": "① 飲食店営業",
      "address": "大阪府高石市羽衣2-5-27",
      "lat": 34.534576,
      "lng": 135.438915,
      "geocoding_level": null,
      "phone": "072-267-1040",
      "license_no": "01330056",
      "license_date": "2026-05-01",
      "expire_date": "2032-04-30"
    },
    {
      "name": "株式会社サイゼリヤ　高石羽衣店",
      "name_kana": "カブシキガイシャサイゼリヤ　タカイシハゴロモテン",
      "business_type": "⑬ その他の食料・飲料販売業",
      "address": "大阪府高石市羽衣2-5-27",
      "lat": 34.534576,
      "lng": 135.438915,
      "geocoding_level": null,
      "phone": "072-267-1040",
      "license_no": "",
      "license_date": null,
      "expire_date": null
    },
    {
      "name": "ファミリーマート葛の葉町北",
      "name_kana": "ファミリーマートクズノハチョウキタ",
      "business_type": "⑩ コンビニエンスストア",
      "address": "大阪府高石市西取石７－１４－２７",
      "lat": 34.519874,
      "lng": 135.446275,
      "geocoding_level": null,
      "phone": "07213961759",
      "license_no": "",
      "license_date": null,
      "expire_date": null
    },
    {
      "name": "すき家　26号高石店",
      "name_kana": "スキヤ　ニジュウロクゴウタカイシテン",
      "business_type": "① 飲食店営業",
      "address": "大阪府高石市西取石7-100",
      "lat": 34.514085,
      "lng": 135.442156,
      "geocoding_level": null,
      "phone": "",
      "license_no": "01330279",
      "license_date": "2025-02-06",
      "expire_date": "2031-02-28"
    },
    {
      "name": "すき家　26号高石店",
      "name_kana": "スキヤ　ニジュウロクゴウタカイシテン",
      "business_type": "⑬ その他の食料・飲料販売業",
      "address": "大阪府高石市西取石7-100",
      "lat": 34.514085,
      "lng": 135.442156,
      "geocoding_level": null,
      "phone": "",
      "license_no": "",
      "license_date": null,
      "expire_date": null
    },
    {
      "name": "大阪いずみ市民生活協同組合　コープ野々井移動販売車　９号",
      "name_kana": "オオサカイズミシミンセイカツキヨウドウクミアイ　イドウハンバイシヤ　キユウゴウ",
      "business_type": "㉕ 行商",
      "address": "大阪府高石市府内一円(但し政令指定都市、中核市を除く)",
      "lat": 34.520703,
      "lng": 135.442449,
      "geocoding_level": null,
      "phone": "072-289-7161",
      "license_no": "",
      "license_date": null,
      "expire_date": null
    },
    {
      "name": "ミスタードーナツ高石駅前",
      "name_kana": "ミスタードーナツタカイシエキマエ",
      "business_type": "⑬ その他の食料・飲料販売業",
      "address": "大阪府高石市綾園1丁目9-1",
      "lat": 34.521355,
      "lng": 135.434066,
      "geocoding_level": null,
      "phone": "0722675056",
      "license_no": "",
      "license_date": null,
      "expire_date": null
    },
    {
      "name": "きのすら",
      "name_kana": "キノスラ",
      "business_type": "⑬ その他の食料・飲料販売業",
      "address": "大阪府高石市高石市羽衣5-9-3",
      "lat": 34.528944,
      "lng": 135.436596,
      "geocoding_level": null,
      "phone": "0723207749",
      "license_no": "",
      "license_date": null,
      "expire_date": null
    },
    {
      "name": "関西スーパー  高石駅前店",
      "name_kana": "カンサイスーパー　タカイシエキマエテン",
      "business_type": "⑪ 百貨店、総合スーパー",
      "address": "大阪府高石市加茂１丁目２１－２３",
      "lat": 34.522608,
      "lng": 135.435583,
      "geocoding_level": null,
      "phone": "0722666107",
      "license_no": "",
      "license_date": null,
      "expire_date": null
    },
    {
      "name": "日之出屋　羽衣店",
      "name_kana": "ヒノデヤ　ハゴロモテン",
      "business_type": "⑪ 百貨店、総合スーパー",
      "address": "大阪府高石市東羽衣1-17-23",
      "lat": 34.534952,
      "lng": 135.443365,
      "geocoding_level": null,
      "phone": "0722477115",
      "license_no": "",
      "license_date": null,
      "expire_date": null
    },
    {
      "name": "ＬａＬａポンテ",
      "name_kana": "ララポンテ",
      "business_type": "⑰ 農産保存食料品製造・加工業",
      "address": "大阪府高石市綾園2丁目2ー９ 2階",
      "lat": 34.520482,
      "lng": 135.437007,
      "geocoding_level": null,
      "phone": "072-275-6830",
      "license_no": "",
      "license_date": null,
      "expire_date": null
    },
    {
      "name": "関西スーパー  高石駅前店",
      "name_kana": "カンサイスーパー　タカイシエキマエテン",
      "business_type": "⑪ 百貨店、総合スーパー",
      "address": "大阪府高石市加茂１丁目２１－２３",
      "lat": 34.522608,
      "lng": 135.435583,
      "geocoding_level": null,
      "phone": "0722666107",
      "license_no": "",
      "license_date": null,
      "expire_date": null
    },
    {
      "name": "デイジーの家",
      "name_kana": "デイジーノイエ",
      "business_type": "㉕ 行商",
      "address": "大阪府高石市羽衣１－２２－１７",
      "lat": 34.533986,
      "lng": 135.43949,
      "geocoding_level": null,
      "phone": "09081961682",
      "license_no": "",
      "license_date": null,
      "expire_date": null
    },
    {
      "name": "旭マシナリー株式会社　社員食堂",
      "name_kana": "アサヒマシナリーカブシキガイシャ　シャインショクドウ",
      "business_type": "① 飲食店営業",
      "address": "大阪府高石市高砂３丁目27番地",
      "lat": 34.542887,
      "lng": 135.408201,
      "geocoding_level": null,
      "phone": "",
      "license_no": "大阪府指令　和保第0133-0123号",
      "license_date": "2025-08-07",
      "expire_date": "2031-08-31"
    },
    {
      "name": "ステーキ宮　高石店",
      "name_kana": "ステーキミヤ　タカイシテン",
      "business_type": "⑬ その他の食料・飲料販売業",
      "address": "大阪府高石市西取石5丁目7-21",
      "lat": 34.517512,
      "lng": 135.445147,
      "geocoding_level": null,
      "phone": "072-262-8628",
      "license_no": "",
      "license_date": null,
      "expire_date": null
    },
    {
      "name": "高石市立東羽衣小学校",
      "name_kana": "タカイシシリツヒガシハゴロモショウガッコウ",
      "business_type": "㉖ 集団給食施設",
      "address": "大阪府高石市東羽衣2-21-32",
      "lat": 34.531906,
      "lng": 135.442798,
      "geocoding_level": null,
      "phone": "072-263-7588",
      "license_no": "",
      "license_date": null,
      "expire_date": null
    },
    {
      "name": "高石市立取石小学校",
      "name_kana": "タカイシシリツトリイシショウガッコウ",
      "business_type": "㉖ 集団給食施設",
      "address": "大阪府高石市取石3-14-23",
      "lat": 34.51775,
      "lng": 135.449572,
      "geocoding_level": null,
      "phone": "072-272-2945",
      "license_no": "",
      "license_date": null,
      "expire_date": null
    },
    {
      "name": "ビッグボーイ高石店",
      "name_kana": "ビッグボーイタカイシテン",
      "business_type": "⑬ その他の食料・飲料販売業",
      "address": "大阪府高石市西取石5丁目11-1",
      "lat": 34.516582,
      "lng": 135.443513,
      "geocoding_level": null,
      "phone": "",
      "license_no": "",
      "license_date": null,
      "expire_date": null
    },
    {
      "name": "株式会社ASSIST",
      "name_kana": "カブシキガイシャアシスト",
      "business_type": "⑨ 通信販売・訪問販売による販売業",
      "address": "大阪府高石市内一円",
      "lat": 34.520703,
      "lng": 135.442449,
      "geocoding_level": null,
      "phone": "08016373195",
      "license_no": "",
      "license_date": null,
      "expire_date": null
    },
    {
      "name": "ケンタッキーフライドチキン第二阪和高石店",
      "name_kana": "ケンタッキーフライドチキンダイニハンワタカイシテン",
      "business_type": "① 飲食店営業",
      "address": "大阪府高石市西取石6-6-49",
      "lat": 34.517778,
      "lng": 135.444491,
      "geocoding_level": null,
      "phone": "070-3313-0950",
      "license_no": "大阪府指令　和保第0133-0318号",
      "license_date": "2026-02-25",
      "expire_date": "2032-02-29"
    },
    {
      "name": "ケンタッキーフライドチキン第二阪和高石店",
      "name_kana": "ケンタッキーフライドチキンダイニハンワタカイシテン",
      "business_type": "⑬ その他の食料・飲料販売業",
      "address": "大阪府高石市西取石6-6-49",
      "lat": 34.517784,
      "lng": 135.444491,
      "geocoding_level": null,
      "phone": "070-3313-0950",
      "license_no": "",
      "license_date": null,
      "expire_date": null
    },
    {
      "name": "高石羽衣営業所",
      "name_kana": "タカイシハゴロモエイギョウショ",
      "business_type": "㉖ 集団給食施設",
      "address": "大阪府高石市羽衣五丁目１６番８号",
      "lat": 34.528212,
      "lng": 135.437559,
      "geocoding_level": null,
      "phone": "072-269-1717",
      "license_no": "",
      "license_date": null,
      "expire_date": null
    }
  ]
}
