{
  "meta": {
    "updated": 1783568789,
    "sources": [
      {
        "source": "厚生労働省 食品衛生申請等システム（オープンデータ）",
        "license": "公共データ利用規約（第1.0版, PDL1.0）"
      }
    ]
  },
  "data": [
    {
      "name": "FIT-EASYフレスポ佐久インター",
      "name_kana": "フィットイージーフレスポサクインター",
      "business_type": "⑤ コップ式自動販売機（自動洗浄・屋内設置）",
      "address": "長野県佐久市岩村田北１丁目２２−３ フレスポ佐久インター内",
      "lat": 36.28405,
      "lng": 138.481194,
      "geocoding_level": null,
      "phone": "0267-88-7360",
      "license_no": "",
      "license_date": null,
      "expire_date": null
    },
    {
      "name": "カルディコーヒーファーム　イオンモール佐久平店",
      "name_kana": "カルディコーヒーファーム　イオンモールサクダイラテン",
      "business_type": "⑬ その他の食料・飲料販売業",
      "address": "長野県佐久市佐久平駅南11-10 イオンモール佐久平1Ｆ",
      "lat": 36.275862,
      "lng": 138.466076,
      "geocoding_level": null,
      "phone": "0267-78-5168",
      "license_no": "",
      "license_date": null,
      "expire_date": null
    },
    {
      "name": "合資会社　嶋屋商店",
      "name_kana": "ゴウシガイシャ　シマヤショウテン",
      "business_type": "② 調理機能を有する自動販売機（要許可）",
      "address": "長野県佐久市臼田下荒１７０６",
      "lat": 36.201015,
      "lng": 138.470087,
      "geocoding_level": null,
      "phone": "",
      "license_no": "01241463",
      "license_date": "2023-03-31",
      "expire_date": "2028-03-31"
    },
    {
      "name": "株式会社ボンマーク",
      "name_kana": "カブシキカイシャボンマーク",
      "business_type": "⑤ コップ式自動販売機（自動洗浄・屋内設置）",
      "address": "長野県佐久市跡部10－10",
      "lat": 36.231216,
      "lng": 138.462944,
      "geocoding_level": null,
      "phone": "",
      "license_no": "",
      "license_date": null,
      "expire_date": null
    },
    {
      "name": "ベイシア佐久平モール店",
      "name_kana": "ベイシアサクダイラモールテン",
      "business_type": "⑤ コップ式自動販売機（自動洗浄・屋内設置）",
      "address": "長野県佐久市佐久平駅前24－1",
      "lat": 36.277951,
      "lng": 138.46541,
      "geocoding_level": null,
      "phone": "",
      "license_no": "",
      "license_date": null,
      "expire_date": null
    },
    {
      "name": "長野県連合青果佐久支社",
      "name_kana": "ナガノケンレンゴウセイカサクシシャ",
      "business_type": "⑤ コップ式自動販売機（自動洗浄・屋内設置）",
      "address": "長野県佐久市長土呂93－8",
      "lat": 36.289225,
      "lng": 138.479292,
      "geocoding_level": null,
      "phone": "",
      "license_no": "",
      "license_date": null,
      "expire_date": null
    },
    {
      "name": "ガリバー佐久店",
      "name_kana": "ガリバーサクテン",
      "business_type": "⑤ コップ式自動販売機（自動洗浄・屋内設置）",
      "address": "長野県佐久市長土呂752－1",
      "lat": 36.288718,
      "lng": 138.474408,
      "geocoding_level": null,
      "phone": "",
      "license_no": "",
      "license_date": null,
      "expire_date": null
    },
    {
      "name": "コインランドリーホワイトもっと",
      "name_kana": "コインランドリーホワイトモット",
      "business_type": "⑤ コップ式自動販売機（自動洗浄・屋内設置）",
      "address": "長野県佐久市臼田1953－1",
      "lat": 36.197723,
      "lng": 138.472816,
      "geocoding_level": null,
      "phone": "",
      "license_no": "",
      "license_date": null,
      "expire_date": null
    },
    {
      "name": "高見沢サイバネティックス第一工場",
      "name_kana": "タカミザワサイバネティックスダイイチコウジョウ",
      "business_type": "⑤ コップ式自動販売機（自動洗浄・屋内設置）",
      "address": "長野県佐久市北川525",
      "lat": 36.178063,
      "lng": 138.480746,
      "geocoding_level": null,
      "phone": "",
      "license_no": "",
      "license_date": null,
      "expire_date": null
    },
    {
      "name": "高見沢サイバネティックス第三工場",
      "name_kana": "タカミザワサイバネティックスダイサンコウジョウ",
      "business_type": "⑤ コップ式自動販売機（自動洗浄・屋内設置）",
      "address": "長野県佐久市田口5662",
      "lat": 36.21281,
      "lng": 138.491429,
      "geocoding_level": null,
      "phone": "",
      "license_no": "",
      "license_date": null,
      "expire_date": null
    },
    {
      "name": "高見沢サイバネティックス第三工場",
      "name_kana": "タカミザワサイバネティックスダイサンコウジョウ",
      "business_type": "⑤ コップ式自動販売機（自動洗浄・屋内設置）",
      "address": "長野県佐久市田口5662",
      "lat": 36.21281,
      "lng": 138.491429,
      "geocoding_level": null,
      "phone": "",
      "license_no": "",
      "license_date": null,
      "expire_date": null
    },
    {
      "name": "高見沢サイバネティックス第三工場",
      "name_kana": "タカミザワサイバネティックスダイサンコウジョウ",
      "business_type": "⑤ コップ式自動販売機（自動洗浄・屋内設置）",
      "address": "長野県佐久市田口5662",
      "lat": 36.21281,
      "lng": 138.491429,
      "geocoding_level": null,
      "phone": "",
      "license_no": "",
      "license_date": null,
      "expire_date": null
    },
    {
      "name": "レストラン咲恋テラス",
      "name_kana": "レストランサクコイテラス",
      "business_type": "⑤ コップ式自動販売機（自動洗浄・屋内設置）",
      "address": "長野県佐久市伴野7－1",
      "lat": 36.23618,
      "lng": 138.440753,
      "geocoding_level": null,
      "phone": "",
      "license_no": "",
      "license_date": null,
      "expire_date": null
    },
    {
      "name": "FIT EASY フレスポ佐久インター",
      "name_kana": "フィットイージープレスポサクインター",
      "business_type": "⑫ 自動販売機による販売業（コップ式自動販売機（自動洗浄・屋内設置）及び営業許可の対象となる自動販売機を除く）",
      "address": "長野県佐久市岩村田北１丁目22-3　フレスポ佐久インター内",
      "lat": 36.284403,
      "lng": 138.479869,
      "geocoding_level": null,
      "phone": "",
      "license_no": "",
      "license_date": null,
      "expire_date": null
    },
    {
      "name": "ユーパレット臼田店　清流物語",
      "name_kana": "ユーパレットウスダテン　セイリュウモノガタリ",
      "business_type": "⑫ 自動販売機による販売業（コップ式自動販売機（自動洗浄・屋内設置）及び営業許可の対象となる自動販売機を除く）",
      "address": "長野県佐久市田口5566",
      "lat": 36.210252,
      "lng": 138.489269,
      "geocoding_level": null,
      "phone": "",
      "license_no": "",
      "license_date": null,
      "expire_date": null
    },
    {
      "name": "デリシア中込店　清流物語",
      "name_kana": "デリシアナカゴメテン　セイリュウモノガタリ",
      "business_type": "⑫ 自動販売機による販売業（コップ式自動販売機（自動洗浄・屋内設置）及び営業許可の対象となる自動販売機を除く）",
      "address": "長野県佐久市中込446-1",
      "lat": 36.23368,
      "lng": 138.474196,
      "geocoding_level": null,
      "phone": "",
      "license_no": "",
      "license_date": null,
      "expire_date": null
    },
    {
      "name": "スターバックスコーヒーイオンモール佐久平店",
      "name_kana": "スターバックスコーヒーイオンモールサクダイラテン",
      "business_type": "⑬ その他の食料・飲料販売業",
      "address": "長野県佐久市佐久平駅南11-10 イオン佐久平ショッピングセンター",
      "lat": 36.275708,
      "lng": 138.464046,
      "geocoding_level": null,
      "phone": "0267-66-3449",
      "license_no": "",
      "license_date": null,
      "expire_date": null
    },
    {
      "name": "スターバックスコーヒーフレスポ佐久インター店",
      "name_kana": "スターバックスコーヒーフレスポサクインターテン",
      "business_type": "⑬ その他の食料・飲料販売業",
      "address": "長野県佐久市岩村田北1-22-3",
      "lat": 36.28405,
      "lng": 138.481188,
      "geocoding_level": null,
      "phone": "0267-88-6725",
      "license_no": "",
      "license_date": null,
      "expire_date": null
    },
    {
      "name": "スターバックスコーヒー　イオンモール佐久平店",
      "name_kana": "スターバックスコーヒー　イオンモールサクダイラテン",
      "business_type": "① 飲食店営業",
      "address": "長野県佐久市佐久平駅南１１－１０ イオン佐久平ショッピングセンター",
      "lat": 36.275708,
      "lng": 138.464046,
      "geocoding_level": null,
      "phone": "0267-66-3449",
      "license_no": "01195771",
      "license_date": "2021-06-30",
      "expire_date": "2027-06-30"
    },
    {
      "name": "スターバックスコーヒー佐久平南店",
      "name_kana": "スターバックスコーヒーサクダイラミナミテン",
      "business_type": "① 飲食店営業",
      "address": "長野県佐久市岩村田5509-1",
      "lat": 36.271031,
      "lng": 138.475401,
      "geocoding_level": null,
      "phone": "0267-88-6570",
      "license_no": "01269224",
      "license_date": "2024-04-26",
      "expire_date": "2030-06-30"
    },
    {
      "name": "スターバックスコーヒー佐久平南店",
      "name_kana": "スターバックスコーヒーサクダイラミナミテン",
      "business_type": "⑬ その他の食料・飲料販売業",
      "address": "長野県佐久市岩村田5509-1",
      "lat": 36.271031,
      "lng": 138.475401,
      "geocoding_level": null,
      "phone": "0267-88-6570",
      "license_no": "",
      "license_date": null,
      "expire_date": null
    },
    {
      "name": "スターバックス　コーヒー　フレスポ佐久インター店",
      "name_kana": "スターバックスコーヒー　フレスポサクインターテン",
      "business_type": "① 飲食店営業",
      "address": "長野県佐久市岩村田北１－２２－３",
      "lat": 36.28405,
      "lng": 138.481188,
      "geocoding_level": null,
      "phone": "0267-88-6725",
      "license_no": "01248543",
      "license_date": "2025-06-30",
      "expire_date": "2031-06-30"
    },
    {
      "name": "ツルハドラッグ佐久岩村田店",
      "name_kana": "ツルハドラッグサクイワムラダテン",
      "business_type": "⑪ 百貨店、総合スーパー",
      "address": "長野県佐久市岩村田2103番",
      "lat": 36.271031,
      "lng": 138.475401,
      "geocoding_level": null,
      "phone": "0267-66-0268",
      "license_no": "",
      "license_date": null,
      "expire_date": null
    },
    {
      "name": "ブルーマリンスポーツクラブ佐久店",
      "name_kana": "ブルーマリンスポーツクラブサクテン",
      "business_type": "⑫ 自動販売機による販売業（コップ式自動販売機（自動洗浄・屋内設置）及び営業許可の対象となる自動販売機を除く）",
      "address": "長野県佐久市鍛冶屋465",
      "lat": 36.218787,
      "lng": 138.48403,
      "geocoding_level": null,
      "phone": "0267-63-2424",
      "license_no": "",
      "license_date": null,
      "expire_date": null
    },
    {
      "name": "かっぱ寿司　佐久店",
      "name_kana": "カッパズシ　サクテン",
      "business_type": "⑪ 菓子製造業",
      "address": "長野県佐久市中込中央区3143-1",
      "lat": 36.249544,
      "lng": 138.478545,
      "geocoding_level": null,
      "phone": "0267-63-5773",
      "license_no": "01263004",
      "license_date": "2023-02-17",
      "expire_date": "2029-05-31"
    },
    {
      "name": "かっぱ寿司　佐久店",
      "name_kana": "カッパズシ　サクテン",
      "business_type": "⑬ その他の食料・飲料販売業",
      "address": "長野県佐久市中込中央区3143-1",
      "lat": 36.249544,
      "lng": 138.478545,
      "geocoding_level": null,
      "phone": "0267-63-5773",
      "license_no": "",
      "license_date": null,
      "expire_date": null
    },
    {
      "name": "かっぱ寿司　佐久店",
      "name_kana": "カッパズシ　サクテン",
      "business_type": "① 飲食店営業",
      "address": "長野県佐久市中込中央区３１４３－１",
      "lat": 36.249544,
      "lng": 138.478545,
      "geocoding_level": null,
      "phone": "0267-63-5773",
      "license_no": "01155217",
      "license_date": "2022-05-31",
      "expire_date": "2028-05-31"
    },
    {
      "name": "ベイシア　佐久平モール店",
      "name_kana": "ベイシア　サクダイラモールテン",
      "business_type": "① 飲食店営業",
      "address": "長野県佐久市佐久平駅南２４－１",
      "lat": 36.274869,
      "lng": 138.466974,
      "geocoding_level": null,
      "phone": "0267-65-9111",
      "license_no": "01184821",
      "license_date": "2021-06-30",
      "expire_date": "2027-06-30"
    },
    {
      "name": "ベイシア　佐久平モール店",
      "name_kana": "ベイシア　サクダイラモールテン",
      "business_type": "⑪ 百貨店、総合スーパー",
      "address": "長野県佐久市佐久平駅南24-1",
      "lat": 36.274869,
      "lng": 138.466974,
      "geocoding_level": null,
      "phone": "0267-65-9111",
      "license_no": "",
      "license_date": null,
      "expire_date": null
    },
    {
      "name": "ベイシア　佐久平モール店",
      "name_kana": "ベイシア　サクダイラモールテン",
      "business_type": "④ 魚介類販売業",
      "address": "長野県佐久市佐久平駅南２４－１",
      "lat": 36.274869,
      "lng": 138.466974,
      "geocoding_level": null,
      "phone": "0267-65-9111",
      "license_no": "01147189",
      "license_date": "2021-06-30",
      "expire_date": "2027-06-30"
    },
    {
      "name": "ベイシア　佐久平モール店",
      "name_kana": "ベイシア　サクダイラモールテン",
      "business_type": "③ 食肉販売業",
      "address": "長野県佐久市佐久平駅南２４－１",
      "lat": 36.274869,
      "lng": 138.466974,
      "geocoding_level": null,
      "phone": "0267-65-9111",
      "license_no": "01147196",
      "license_date": "2021-06-30",
      "expire_date": "2027-06-30"
    },
    {
      "name": "果汁工房果琳　イオンモール佐久平店",
      "name_kana": "カジュウコウボウカリン　イオンモールサクダイラテン",
      "business_type": "① 飲食店営業",
      "address": "長野県佐久市佐久平駅南１１−１０ イオンモール佐久平2F",
      "lat": 36.275152,
      "lng": 138.463252,
      "geocoding_level": null,
      "phone": "",
      "license_no": "01240265",
      "license_date": "2023-06-30",
      "expire_date": "2028-06-30"
    },
    {
      "name": "ユーパレット　臼田店",
      "name_kana": "ユーパレット　ウスダテン",
      "business_type": "① 飲食店営業",
      "address": "長野県佐久市田口５５６６",
      "lat": 36.210252,
      "lng": 138.489269,
      "geocoding_level": null,
      "phone": "0267-81-1155",
      "license_no": "01139371",
      "license_date": "2026-03-31",
      "expire_date": "2032-03-31"
    },
    {
      "name": "ユーパレット　臼田店",
      "name_kana": "ユーパレット　ウスダテン",
      "business_type": "① 飲食店営業",
      "address": "長野県佐久市田口５５６６",
      "lat": 36.210252,
      "lng": 138.489269,
      "geocoding_level": null,
      "phone": "0267-81-1155",
      "license_no": "01139388",
      "license_date": "2026-03-31",
      "expire_date": "2032-03-31"
    },
    {
      "name": "ユーパレット　臼田店",
      "name_kana": "ユーパレット　ウスダテン",
      "business_type": "④ 魚介類販売業",
      "address": "長野県佐久市田口５５６６",
      "lat": 36.210252,
      "lng": 138.489269,
      "geocoding_level": null,
      "phone": "0267-81-1155",
      "license_no": "01139356",
      "license_date": "2026-03-31",
      "expire_date": "2032-03-31"
    },
    {
      "name": "サンドラッグ佐久野沢店",
      "name_kana": "サンドラッグサクノザワテン",
      "business_type": "⑪ 百貨店、総合スーパー",
      "address": "長野県佐久市野沢247",
      "lat": 36.226531,
      "lng": 138.46556,
      "geocoding_level": null,
      "phone": "",
      "license_no": "",
      "license_date": null,
      "expire_date": null
    },
    {
      "name": "アメリカンドラッグフォレストモール佐久平店",
      "name_kana": "アメリカンドラッグフォレストモールサクダイラテン",
      "business_type": "⑪ 百貨店、総合スーパー",
      "address": "長野県佐久市岩村田5502番地21",
      "lat": 36.271031,
      "lng": 138.475401,
      "geocoding_level": null,
      "phone": "0267-88-8312",
      "license_no": "",
      "license_date": null,
      "expire_date": null
    },
    {
      "name": "アメリカンドラッグ臼田店",
      "name_kana": "アメリカンドラッグウスダテン",
      "business_type": "③ 乳類販売業",
      "address": "長野県佐久市田口5545-1",
      "lat": 36.209852,
      "lng": 138.489126,
      "geocoding_level": null,
      "phone": "0267-81-1086",
      "license_no": "",
      "license_date": null,
      "expire_date": null
    },
    {
      "name": "アメリカンドラッグ佐久中込店",
      "name_kana": "アメリカンドラッグサクナカゴミテン",
      "business_type": "③ 乳類販売業",
      "address": "長野県佐久市中込字西妻神3206番地",
      "lat": 36.242424,
      "lng": 138.471229,
      "geocoding_level": null,
      "phone": "0267-77-7691",
      "license_no": "",
      "license_date": null,
      "expire_date": null
    },
    {
      "name": "ドン・キホーテ佐久平店",
      "name_kana": "ドン・キホーテサクダイラテン",
      "business_type": "⑪ 百貨店、総合スーパー",
      "address": "長野県佐久市岩村田1788-2",
      "lat": 36.26601,
      "lng": 138.466076,
      "geocoding_level": null,
      "phone": "0570-20-0255",
      "license_no": "",
      "license_date": null,
      "expire_date": null
    },
    {
      "name": "株式会社マルイチ産商　デリカ冷食事業部 　佐久冷食センター",
      "name_kana": "マルイチサンショウ　デリカレイショクジギョウブ　サクレイショクセンター",
      "business_type": "⑬ その他の食料・飲料販売業",
      "address": "長野県佐久市長土呂93-9",
      "lat": 36.288335,
      "lng": 138.479494,
      "geocoding_level": null,
      "phone": "",
      "license_no": "",
      "license_date": null,
      "expire_date": null
    },
    {
      "name": "株式会社コントリビューション",
      "name_kana": "カブシキカイシャコントリビューション",
      "business_type": "⑨ 通信販売・訪問販売による販売業",
      "address": "長野県佐久市一円",
      "lat": 36.285832,
      "lng": 138.47935,
      "geocoding_level": null,
      "phone": "0453243500",
      "license_no": "",
      "license_date": null,
      "expire_date": null
    },
    {
      "name": "ごはんどき　佐久店",
      "name_kana": "ゴハンドキ　サクテン",
      "business_type": "① 飲食店営業",
      "address": "長野県佐久市岩村田４４８１",
      "lat": 36.259794,
      "lng": 138.480174,
      "geocoding_level": null,
      "phone": "0267-66-0301",
      "license_no": "01163866",
      "license_date": "2021-06-30",
      "expire_date": "2027-06-30"
    },
    {
      "name": "居楽屋　千年の宴",
      "name_kana": "イラクヤ　センネンノウタゲ",
      "business_type": "① 飲食店営業",
      "address": "長野県佐久市佐久平駅東2番地6 佐久平プラザ21　1階",
      "lat": 36.277617,
      "lng": 138.466676,
      "geocoding_level": null,
      "phone": "0267-67-7388",
      "license_no": "01206156",
      "license_date": "2023-06-30",
      "expire_date": "2029-06-30"
    },
    {
      "name": "居楽屋　千年の宴",
      "name_kana": "イラクヤ　センネンノウタゲ",
      "business_type": "⑬ その他の食料・飲料販売業",
      "address": "長野県佐久市佐久平駅東2番地6 佐久平プラザ21　1階",
      "lat": 36.277617,
      "lng": 138.466676,
      "geocoding_level": null,
      "phone": "0267-67-7388",
      "license_no": "",
      "license_date": null,
      "expire_date": null
    },
    {
      "name": "目利きの銀次",
      "name_kana": "メキキノギンジ",
      "business_type": "① 飲食店営業",
      "address": "長野県佐久市佐久平駅東21番地3 3.モンテローザ佐久平ビル　2階",
      "lat": 36.27687,
      "lng": 138.466591,
      "geocoding_level": null,
      "phone": "0267-67-9888",
      "license_no": "01152948",
      "license_date": "2025-06-30",
      "expire_date": "2031-06-30"
    },
    {
      "name": "目利きの銀次",
      "name_kana": "メキキノギンジ",
      "business_type": "⑬ その他の食料・飲料販売業",
      "address": "長野県佐久市佐久平駅東21番地3 3.モンテローザ佐久平ビル　2階",
      "lat": 36.27687,
      "lng": 138.466591,
      "geocoding_level": null,
      "phone": "0267-67-9888",
      "license_no": "",
      "license_date": null,
      "expire_date": null
    },
    {
      "name": "夢庵　佐久平駅前店",
      "name_kana": "ユメアンサクダイラエキマエテン",
      "business_type": "① 飲食店営業",
      "address": "長野県佐久市佐久平駅東１５－１１",
      "lat": 36.277089,
      "lng": 138.467494,
      "geocoding_level": null,
      "phone": "0267-68-0861",
      "license_no": "01273330",
      "license_date": "2025-02-21",
      "expire_date": "2031-06-30"
    },
    {
      "name": "夢庵　佐久平駅前店",
      "name_kana": "ユメアンサクダイラエキマエテン",
      "business_type": "⑬ その他の食料・飲料販売業",
      "address": "長野県佐久市佐久平駅東１５－１１",
      "lat": 36.277089,
      "lng": 138.467494,
      "geocoding_level": null,
      "phone": "0267-68-0861",
      "license_no": "",
      "license_date": null,
      "expire_date": null
    },
    {
      "name": "ガスト 佐久平駅前店",
      "name_kana": "ガストサクダイラエキマエテン",
      "business_type": "① 飲食店営業",
      "address": "長野県佐久市佐久平駅東１５－１１",
      "lat": 36.277089,
      "lng": 138.467494,
      "geocoding_level": null,
      "phone": "0267-66-6352",
      "license_no": "01153465",
      "license_date": "2025-06-30",
      "expire_date": "2031-06-30"
    },
    {
      "name": "ガスト 佐久平駅前店",
      "name_kana": "ガストサクダイラエキマエテン",
      "business_type": "⑬ その他の食料・飲料販売業",
      "address": "長野県佐久市佐久平駅東１５－１１",
      "lat": 36.277108,
      "lng": 138.467442,
      "geocoding_level": null,
      "phone": "0267-66-6352",
      "license_no": "",
      "license_date": null,
      "expire_date": null
    },
    {
      "name": "バーミヤン 佐久店",
      "name_kana": "バーミヤンサクテン",
      "business_type": "⑬ その他の食料・飲料販売業",
      "address": "長野県佐久市小田井６１３－１",
      "lat": 36.291243,
      "lng": 138.488595,
      "geocoding_level": null,
      "phone": "0267-65-8190",
      "license_no": "",
      "license_date": null,
      "expire_date": null
    },
    {
      "name": "Sunset Cafe Stand",
      "name_kana": "サンセット　カフェ　スタンド",
      "business_type": "① 飲食店営業",
      "address": "長野県佐久市",
      "lat": 36.248797,
      "lng": 138.47685,
      "geocoding_level": null,
      "phone": "",
      "license_no": "01256771",
      "license_date": "2021-06-08",
      "expire_date": "2026-06-30"
    },
    {
      "name": "マリオンクレープ移動販売",
      "name_kana": "マリオンクレープイドウハンバイ",
      "business_type": "① 飲食店営業",
      "address": "長野県佐久市",
      "lat": 36.248797,
      "lng": 138.47685,
      "geocoding_level": null,
      "phone": "",
      "license_no": "01256789",
      "license_date": "2021-06-08",
      "expire_date": "2026-06-30"
    },
    {
      "name": "A・コープ　ファーマーズ　佐久平店",
      "name_kana": "エーコープ　ファーマーズ　サクダイラテン",
      "business_type": "④ 魚介類販売業",
      "address": "長野県佐久市岩村田５５０２番地２１",
      "lat": 36.271796,
      "lng": 138.459885,
      "geocoding_level": null,
      "phone": "0267-88-8141",
      "license_no": "01261633",
      "license_date": "2022-09-09",
      "expire_date": "2029-06-30"
    },
    {
      "name": "A・コープ　ファーマーズ　佐久平店",
      "name_kana": "エーコープ　ファーマーズ　サクダイラテン",
      "business_type": "③ 食肉販売業",
      "address": "長野県佐久市岩村田５５０２番地２１",
      "lat": 36.271816,
      "lng": 138.460412,
      "geocoding_level": null,
      "phone": "0267-88-8141",
      "license_no": "01261641",
      "license_date": "2022-09-09",
      "expire_date": "2029-06-30"
    },
    {
      "name": "A・コープ　ファーマーズ　佐久平店",
      "name_kana": "エーコープ　ファーマーズ　サクダイラテン",
      "business_type": "① 飲食店営業",
      "address": "長野県佐久市岩村田５５０２番地２１",
      "lat": 36.271816,
      "lng": 138.460412,
      "geocoding_level": null,
      "phone": "0267-88-8141",
      "license_no": "01261658",
      "license_date": "2022-09-09",
      "expire_date": "2029-06-30"
    },
    {
      "name": "A・コープ　ファーマーズ　佐久平店",
      "name_kana": "エーコープ　ファーマーズ　サクダイラテン",
      "business_type": "⑪ 菓子製造業",
      "address": "長野県佐久市岩村田５５０２番地２１",
      "lat": 36.271816,
      "lng": 138.460412,
      "geocoding_level": null,
      "phone": "0267-88-8141",
      "license_no": "01261665",
      "license_date": "2022-09-09",
      "expire_date": "2029-06-30"
    },
    {
      "name": "佐久コスモスワークス岸野",
      "name_kana": "サクコスモスワークスキシノ",
      "business_type": "㉔ その他の食料品製造・加工業",
      "address": "長野県佐久市伴野953-1",
      "lat": 36.237355,
      "lng": 138.433465,
      "geocoding_level": null,
      "phone": "0267-64-2810",
      "license_no": "",
      "license_date": null,
      "expire_date": null
    },
    {
      "name": "佐久コスモスワークス岸野",
      "name_kana": "サクコスモスワークスキシノ",
      "business_type": "⑪ 菓子製造業",
      "address": "長野県佐久市伴野９５３－１",
      "lat": 36.237344,
      "lng": 138.43351,
      "geocoding_level": null,
      "phone": "0267-64-2810",
      "license_no": "01148404",
      "license_date": "2024-10-31",
      "expire_date": "2030-10-31"
    },
    {
      "name": "萌木の村フードトラック",
      "name_kana": "モエギノムラフードトラック",
      "business_type": "① 飲食店営業",
      "address": "長野県佐久市",
      "lat": 36.248797,
      "lng": 138.47685,
      "geocoding_level": null,
      "phone": "0551-48-3522",
      "license_no": "01271920",
      "license_date": "2024-09-18",
      "expire_date": "2029-09-30"
    },
    {
      "name": "菓匠将満",
      "name_kana": "カショウマサミツ",
      "business_type": "⑬ その他の食料・飲料販売業",
      "address": "長野県佐久市佐久平駅南11－10イオンモール佐久平",
      "lat": 36.275507,
      "lng": 138.464024,
      "geocoding_level": null,
      "phone": "",
      "license_no": "",
      "license_date": null,
      "expire_date": null
    },
    {
      "name": "アルソア佐久ファクトリィ",
      "name_kana": "アルソアサクファクトリィ",
      "business_type": "㉔ その他の食料品製造・加工業",
      "address": "長野県佐久市瀬戸553-7　佐久リサーチパーク",
      "lat": 36.247933,
      "lng": 138.496455,
      "geocoding_level": null,
      "phone": "0267-63-8000",
      "license_no": "",
      "license_date": null,
      "expire_date": null
    },
    {
      "name": "イェッピースイーツ",
      "name_kana": "イェッピースイーツ",
      "business_type": "⑬ その他の食料・飲料販売業",
      "address": "長野県佐久市佐久平駅南11-10 イオンモール佐久平1階催事場",
      "lat": 36.275156,
      "lng": 138.463251,
      "geocoding_level": null,
      "phone": "09081661776",
      "license_no": "",
      "license_date": null,
      "expire_date": null
    },
    {
      "name": "くら寿司　佐久店",
      "name_kana": "クラズシ　サクテン",
      "business_type": "① 飲食店営業",
      "address": "長野県佐久市岩村田5502番地48",
      "lat": 36.27242,
      "lng": 138.461846,
      "geocoding_level": null,
      "phone": "",
      "license_no": "01261851",
      "license_date": "2022-09-16",
      "expire_date": "2029-06-30"
    },
    {
      "name": "株式会社長印　佐久支社",
      "name_kana": "カブシキガイシャチョウジルシ　サクシシャ",
      "business_type": "⑦ 野菜果物販売業",
      "address": "長野県佐久市長土呂６４－５",
      "lat": 36.289548,
      "lng": 138.479819,
      "geocoding_level": null,
      "phone": "0267676666",
      "license_no": "",
      "license_date": null,
      "expire_date": null
    },
    {
      "name": "佐久一萬里温泉ホテル",
      "name_kana": "サクイチマンリオンセンホテル",
      "business_type": "① 飲食店営業",
      "address": "長野県佐久市中込3150-1",
      "lat": 36.254039,
      "lng": 138.479897,
      "geocoding_level": null,
      "phone": "0267-63-5551",
      "license_no": "01256821",
      "license_date": "2021-06-18",
      "expire_date": "2028-05-31"
    },
    {
      "name": "株式会社平和化学工業所　佐久工場",
      "name_kana": "ヘイワカガクコウギョウショ　サクコウジョウ",
      "business_type": "㉗ 器具、容器包装の製造・加工業（合成樹脂が使用された器具又は容器包装の製造、加工に限る。）",
      "address": "長野県佐久市小田井1234-1",
      "lat": 36.29565,
      "lng": 138.496767,
      "geocoding_level": null,
      "phone": "",
      "license_no": "",
      "license_date": null,
      "expire_date": null
    },
    {
      "name": "GAIADANCE",
      "name_kana": "ガイアダンス",
      "business_type": "① 飲食店営業",
      "address": "長野県佐久市",
      "lat": 36.248797,
      "lng": 138.47685,
      "geocoding_level": null,
      "phone": "",
      "license_no": "01232343",
      "license_date": "2021-06-30",
      "expire_date": "2026-06-30"
    },
    {
      "name": "株式会社ケー・アンド・シー　岩村田法事センター",
      "name_kana": "カブシキガイシャケーアンドシー　イワムラダホウジセンター",
      "business_type": "① 飲食店営業",
      "address": "長野県佐久市岩村田字上直路１０８２－１",
      "lat": 36.271031,
      "lng": 138.475401,
      "geocoding_level": null,
      "phone": "0267-67-4949",
      "license_no": "01243973",
      "license_date": "2024-06-28",
      "expire_date": "2030-06-30"
    },
    {
      "name": "ザ・ビッグ北中込店",
      "name_kana": "ザ・ビッグキタナカコミテン",
      "business_type": "⑪ 百貨店、総合スーパー",
      "address": "長野県佐久市中込3211-5",
      "lat": 36.255019,
      "lng": 138.476873,
      "geocoding_level": null,
      "phone": "",
      "license_no": "",
      "license_date": null,
      "expire_date": null
    },
    {
      "name": "ザ・ビッグ佐久インターウェーブ店",
      "name_kana": "ザ・ビッグサクインターウェーブテン",
      "business_type": "⑪ 百貨店、総合スーパー",
      "address": "長野県佐久市小田井613-1",
      "lat": 36.289726,
      "lng": 138.488341,
      "geocoding_level": null,
      "phone": "",
      "license_no": "",
      "license_date": null,
      "expire_date": null
    },
    {
      "name": "ザ・ビッグ北中込店",
      "name_kana": "ザ　ビッグキタナカゴミテン",
      "business_type": "① 飲食店営業",
      "address": "長野県佐久市中込３２１１－５",
      "lat": 36.255019,
      "lng": 138.476873,
      "geocoding_level": null,
      "phone": "0267-66-1225",
      "license_no": "01239730",
      "license_date": "2024-05-31",
      "expire_date": "2030-05-31"
    },
    {
      "name": "ザ・ビッグ北中込店",
      "name_kana": "ザ　ビッグキタナカゴミテン",
      "business_type": "① 飲食店営業",
      "address": "長野県佐久市中込３２１１－５",
      "lat": 36.255019,
      "lng": 138.476873,
      "geocoding_level": null,
      "phone": "0267-66-1225",
      "license_no": "01239747",
      "license_date": "2024-05-31",
      "expire_date": "2030-05-31"
    },
    {
      "name": "ザ・ビッグ北中込店",
      "name_kana": "ザ　ビッグキタナカゴミテン",
      "business_type": "③ 食肉販売業",
      "address": "長野県佐久市中込３２１１－５",
      "lat": 36.255019,
      "lng": 138.476873,
      "geocoding_level": null,
      "phone": "0267-66-1225",
      "license_no": "01239761",
      "license_date": "2024-05-31",
      "expire_date": "2030-05-31"
    },
    {
      "name": "ザ・ビッグ佐久インターウェーブ店",
      "name_kana": "ザ　ビッグサクインターウェーブテン",
      "business_type": "⑪ 菓子製造業",
      "address": "長野県佐久市小田井６１３－１",
      "lat": 36.289726,
      "lng": 138.488341,
      "geocoding_level": null,
      "phone": "0267-73-3111",
      "license_no": "01242160",
      "license_date": "2024-06-28",
      "expire_date": "2030-06-30"
    },
    {
      "name": "ザ・ビッグ　佐久インターウェーブ店",
      "name_kana": "ザ　ビッグ　サクインターウェーブテン",
      "business_type": "① 飲食店営業",
      "address": "長野県佐久市小田井６１３－１",
      "lat": 36.289726,
      "lng": 138.488341,
      "geocoding_level": null,
      "phone": "0267-73-3111",
      "license_no": "01219029",
      "license_date": "2025-06-30",
      "expire_date": "2031-06-30"
    },
    {
      "name": "ザ・ビッグ　佐久インターウェーブ店",
      "name_kana": "ザ　ビッグ　サクインターウェーブテン",
      "business_type": "① 飲食店営業",
      "address": "長野県佐久市小田井６１３－１",
      "lat": 36.289726,
      "lng": 138.488341,
      "geocoding_level": null,
      "phone": "0267-73-3111",
      "license_no": "01219036",
      "license_date": "2025-06-30",
      "expire_date": "2031-06-30"
    },
    {
      "name": "ザ・ビッグ　佐久インターウェーブ店",
      "name_kana": "ザ　ビッグ　サクインターウェーブテン",
      "business_type": "④ 魚介類販売業",
      "address": "長野県佐久市小田井６１３－１",
      "lat": 36.289726,
      "lng": 138.488341,
      "geocoding_level": null,
      "phone": "0267-73-3111",
      "license_no": "01219043",
      "license_date": "2025-06-30",
      "expire_date": "2031-06-30"
    },
    {
      "name": "ザ・ビッグ　佐久インターウェーブ店",
      "name_kana": "ザ　ビッグ　サクインターウェーブテン",
      "business_type": "③ 食肉販売業",
      "address": "長野県佐久市小田井６１３－１",
      "lat": 36.289726,
      "lng": 138.488341,
      "geocoding_level": null,
      "phone": "0267-73-3111",
      "license_no": "01219051",
      "license_date": "2025-06-30",
      "expire_date": "2031-06-30"
    },
    {
      "name": "株式会社ツルヤ　野沢店",
      "name_kana": "カブシキガイシャツルヤ　ノザワテン",
      "business_type": "⑪ 百貨店、総合スーパー",
      "address": "長野県佐久市野沢129-1",
      "lat": 36.221873,
      "lng": 138.469746,
      "geocoding_level": null,
      "phone": "0267-62-5511",
      "license_no": "",
      "license_date": null,
      "expire_date": null
    },
    {
      "name": "株式会社ツルヤ　臼田店",
      "name_kana": "カブシキガイシャツルヤ　ウスダテン",
      "business_type": "⑪ 百貨店、総合スーパー",
      "address": "長野県佐久市臼田2254",
      "lat": 36.195667,
      "lng": 138.476656,
      "geocoding_level": null,
      "phone": "0267-82-3511",
      "license_no": "",
      "license_date": null,
      "expire_date": null
    },
    {
      "name": "株式会社ツルヤ　佐久中央店",
      "name_kana": "カブシキガイシャツルヤ　サクチュウオウテン",
      "business_type": "⑪ 百貨店、総合スーパー",
      "address": "長野県佐久市中込字大塚3020-1",
      "lat": 38.713228,
      "lng": 139.82294,
      "geocoding_level": null,
      "phone": "0267-54-7011",
      "license_no": "",
      "license_date": null,
      "expire_date": null
    },
    {
      "name": "ツルヤ　野沢店",
      "name_kana": "ツルヤ　ノザワテン",
      "business_type": "① 飲食店営業",
      "address": "長野県佐久市野沢129-1",
      "lat": 36.221873,
      "lng": 138.469746,
      "geocoding_level": null,
      "phone": "",
      "license_no": "01199848",
      "license_date": "2021-10-29",
      "expire_date": "2027-10-31"
    },
    {
      "name": "ツルヤ　野沢店",
      "name_kana": "ツルヤ　ノザワテン",
      "business_type": "⑪ 菓子製造業",
      "address": "長野県佐久市野沢129-1",
      "lat": 36.221873,
      "lng": 138.469746,
      "geocoding_level": null,
      "phone": "",
      "license_no": "01199862",
      "license_date": "2021-10-29",
      "expire_date": "2027-10-31"
    },
    {
      "name": "ツルヤ　野沢店",
      "name_kana": "ツルヤ　ノザワテン",
      "business_type": "③ 食肉販売業",
      "address": "長野県佐久市野沢129-1",
      "lat": 36.221873,
      "lng": 138.469746,
      "geocoding_level": null,
      "phone": "",
      "license_no": "01199855",
      "license_date": "2021-10-29",
      "expire_date": "2027-10-31"
    },
    {
      "name": "ツルヤ　野沢店",
      "name_kana": "ツルヤ　ノザワテン",
      "business_type": "① 飲食店営業",
      "address": "長野県佐久市野沢129-1",
      "lat": 36.221873,
      "lng": 138.469746,
      "geocoding_level": null,
      "phone": "",
      "license_no": "01199831",
      "license_date": "2021-10-29",
      "expire_date": "2027-10-31"
    },
    {
      "name": "ツルヤ　野沢店",
      "name_kana": "ツルヤ　ノザワテン",
      "business_type": "① 飲食店営業",
      "address": "長野県佐久市野沢１２９－１",
      "lat": 36.221873,
      "lng": 138.469746,
      "geocoding_level": null,
      "phone": "0267-62-5511",
      "license_no": "01244705",
      "license_date": "2023-10-31",
      "expire_date": "2028-10-31"
    },
    {
      "name": "ツルヤ　野沢店",
      "name_kana": "ツルヤ　ノザワテン",
      "business_type": "⑪ 百貨店、総合スーパー",
      "address": "長野県佐久市野沢１２９－１",
      "lat": 36.221873,
      "lng": 138.469746,
      "geocoding_level": null,
      "phone": "0267-62-5511",
      "license_no": "",
      "license_date": null,
      "expire_date": null
    },
    {
      "name": "ツルヤ佐久中央店",
      "name_kana": "ツルヤサクチュウオウテン",
      "business_type": "① 飲食店営業",
      "address": "長野県佐久市中込字大塚３０２０番地１",
      "lat": 36.237273,
      "lng": 138.471985,
      "geocoding_level": null,
      "phone": "0267-54-7011",
      "license_no": "01237041",
      "license_date": "2024-05-31",
      "expire_date": "2030-05-31"
    },
    {
      "name": "ツルヤ佐久中央店",
      "name_kana": "ツルヤサクチュウオウテン",
      "business_type": "⑪ 菓子製造業",
      "address": "長野県佐久市中込字大塚３０２０番地１",
      "lat": 36.237273,
      "lng": 138.471985,
      "geocoding_level": null,
      "phone": "0267-54-7011",
      "license_no": "01237066",
      "license_date": "2024-05-31",
      "expire_date": "2030-05-31"
    },
    {
      "name": "ツルヤ佐久中央店",
      "name_kana": "ツルヤサクチュウオウテン",
      "business_type": "④ 魚介類販売業",
      "address": "長野県佐久市中込字大塚３０２０番地１",
      "lat": 38.713228,
      "lng": 139.82294,
      "geocoding_level": null,
      "phone": "0267-54-7011",
      "license_no": "01237034",
      "license_date": "2024-05-31",
      "expire_date": "2030-05-31"
    },
    {
      "name": "ツルヤ佐久中央店",
      "name_kana": "ツルヤサクチュウオウテン",
      "business_type": "③ 食肉販売業",
      "address": "長野県佐久市中込字大塚３０２０番地１",
      "lat": 38.713228,
      "lng": 139.82294,
      "geocoding_level": null,
      "phone": "0267-54-7011",
      "license_no": "01237027",
      "license_date": "2024-05-31",
      "expire_date": "2030-05-31"
    },
    {
      "name": "ツルヤ　野沢店",
      "name_kana": "ツルヤ　ノザワテン",
      "business_type": "④ 魚介類販売業",
      "address": "長野県佐久市野沢１２９－１",
      "lat": 36.221873,
      "lng": 138.469746,
      "geocoding_level": null,
      "phone": "0267-62-5511",
      "license_no": "01125302",
      "license_date": "2024-10-31",
      "expire_date": "2030-10-31"
    },
    {
      "name": "ツルヤ　臼田店",
      "name_kana": "ツルヤ　ウスダテン",
      "business_type": "① 飲食店営業",
      "address": "長野県佐久市臼田２２５４",
      "lat": 36.195667,
      "lng": 138.476656,
      "geocoding_level": null,
      "phone": "0267-82-3511",
      "license_no": "01174671",
      "license_date": "2025-03-31",
      "expire_date": "2031-03-31"
    },
    {
      "name": "ツルヤ　臼田店",
      "name_kana": "ツルヤ　ウスダテン",
      "business_type": "⑪ 菓子製造業",
      "address": "長野県佐久市臼田２２５４",
      "lat": 36.195667,
      "lng": 138.476656,
      "geocoding_level": null,
      "phone": "0267-82-3511",
      "license_no": "01174688",
      "license_date": "2025-03-31",
      "expire_date": "2031-03-31"
    },
    {
      "name": "ツルヤ　臼田店",
      "name_kana": "ツルヤ　ウスダテン",
      "business_type": "④ 魚介類販売業",
      "address": "長野県佐久市臼田２２５４",
      "lat": 36.195667,
      "lng": 138.476656,
      "geocoding_level": null,
      "phone": "0267-82-3511",
      "license_no": "01129158",
      "license_date": "2026-03-31",
      "expire_date": "2032-03-31"
    },
    {
      "name": "ツルヤ　臼田店",
      "name_kana": "ツルヤ　ウスダテン",
      "business_type": "③ 食肉販売業",
      "address": "長野県佐久市臼田２２５４",
      "lat": 36.195667,
      "lng": 138.476656,
      "geocoding_level": null,
      "phone": "0267-82-3511",
      "license_no": "01129165",
      "license_date": "2026-03-31",
      "expire_date": "2032-03-31"
    },
    {
      "name": "JA長野厚生連　佐久総合病院",
      "name_kana": "ジェイエイナガノコウセイレン　サクソウゴウビョウイン",
      "business_type": "㉖ 集団給食施設",
      "address": "長野県佐久市臼田197",
      "lat": 36.198165,
      "lng": 138.48099,
      "geocoding_level": null,
      "phone": "",
      "license_no": "",
      "license_date": null,
      "expire_date": null
    },
    {
      "name": "JA長野厚生連　佐久総合病院　佐久医療センター",
      "name_kana": "ジェイエイナガノ　サクソウゴウビョウイン　サクイリョウセンター",
      "business_type": "㉖ 集団給食施設",
      "address": "長野県佐久市中込3400-28",
      "lat": 36.251824,
      "lng": 138.472076,
      "geocoding_level": null,
      "phone": "",
      "license_no": "",
      "license_date": null,
      "expire_date": null
    },
    {
      "name": "JA長野厚生連　佐久総合病院　老人保健施設",
      "name_kana": "ジェイエイナガノコウセイレン　サクソウゴウビョウイン　ロウジンホケンシセツ",
      "business_type": "㉖ 集団給食施設",
      "address": "長野県佐久市臼田779番地４",
      "lat": 36.207892,
      "lng": 138.477873,
      "geocoding_level": null,
      "phone": "",
      "license_no": "",
      "license_date": null,
      "expire_date": null
    },
    {
      "name": "デニーズ　佐久平店",
      "name_kana": "デニーズ　サクダイラテン",
      "business_type": "⑬ その他の食料・飲料販売業",
      "address": "長野県佐久市佐久平駅南7-1",
      "lat": 36.274302,
      "lng": 138.46252,
      "geocoding_level": null,
      "phone": "080-3218-5179",
      "license_no": "",
      "license_date": null,
      "expire_date": null
    },
    {
      "name": "井上寅雄農園",
      "name_kana": "イノウエトラオノウエン",
      "business_type": "① 飲食店営業",
      "address": "長野県佐久市岩村田１７０７－３",
      "lat": 36.270158,
      "lng": 138.462684,
      "geocoding_level": null,
      "phone": "080-1264-6035",
      "license_no": "01261291",
      "license_date": "2022-08-03",
      "expire_date": "2027-08-31"
    },
    {
      "name": "Mayu17商店",
      "name_kana": "マユイチナナショウテン",
      "business_type": "① 魚介類販売業（包装済みの魚介類のみの販売）",
      "address": "長野県佐久市中込2430-3",
      "lat": 36.236572,
      "lng": 138.476956,
      "geocoding_level": null,
      "phone": "09017749098",
      "license_no": "",
      "license_date": null,
      "expire_date": null
    },
    {
      "name": "Mayu17商店",
      "name_kana": "マユイチナナショウテン",
      "business_type": "② 食肉販売業（包装済みの食肉のみの販売）",
      "address": "長野県佐久市中込2430-3",
      "lat": 36.236572,
      "lng": 138.476956,
      "geocoding_level": null,
      "phone": "09017749098",
      "license_no": "",
      "license_date": null,
      "expire_date": null
    },
    {
      "name": "Mayu17商店",
      "name_kana": "マユイチナナショウテン",
      "business_type": "③ 乳類販売業",
      "address": "長野県佐久市中込2430-3",
      "lat": 36.236572,
      "lng": 138.476956,
      "geocoding_level": null,
      "phone": "09017749098",
      "license_no": "",
      "license_date": null,
      "expire_date": null
    },
    {
      "name": "Mayu17商店",
      "name_kana": "マユイチナナショウテン",
      "business_type": "⑥ 弁当販売業",
      "address": "長野県佐久市中込2430-3",
      "lat": 36.236572,
      "lng": 138.476956,
      "geocoding_level": null,
      "phone": "09017749098",
      "license_no": "",
      "license_date": null,
      "expire_date": null
    },
    {
      "name": "Mayu17商店",
      "name_kana": "マユイチナナショウテン",
      "business_type": "⑦ 野菜果物販売業",
      "address": "長野県佐久市中込2430-3",
      "lat": 36.236572,
      "lng": 138.476956,
      "geocoding_level": null,
      "phone": "09017749098",
      "license_no": "",
      "license_date": null,
      "expire_date": null
    },
    {
      "name": "Mayu17商店",
      "name_kana": "マユイチナナショウテン",
      "business_type": "⑧ 米穀類販売業",
      "address": "長野県佐久市中込2430-3",
      "lat": 36.236572,
      "lng": 138.476956,
      "geocoding_level": null,
      "phone": "09017749098",
      "license_no": "",
      "license_date": null,
      "expire_date": null
    },
    {
      "name": "(有)カナメヤ製菓",
      "name_kana": "カナメヤセイカ",
      "business_type": "⑪ 菓子製造業",
      "address": "長野県佐久市北川570-3",
      "lat": 36.178923,
      "lng": 138.48101,
      "geocoding_level": null,
      "phone": "0267-82-7827",
      "license_no": "01257019",
      "license_date": "2021-07-02",
      "expire_date": "2028-03-31"
    },
    {
      "name": "特別養護老人ホーム　佐久福寿園",
      "name_kana": "トクベツヨウゴロウジンホーム　サクフクジュエン",
      "business_type": "① 飲食店営業",
      "address": "長野県佐久市岩村田４２１３",
      "lat": 36.273567,
      "lng": 138.486594,
      "geocoding_level": null,
      "phone": "0267-65-7078",
      "license_no": "01236773",
      "license_date": "2023-06-30",
      "expire_date": "2029-06-30"
    },
    {
      "name": "凛々茶房",
      "name_kana": "リリサボウ",
      "business_type": "① 飲食店営業",
      "address": "長野県佐久市",
      "lat": 36.248797,
      "lng": 138.47685,
      "geocoding_level": null,
      "phone": "",
      "license_no": "01257026",
      "license_date": "2021-07-02",
      "expire_date": "2026-07-31"
    },
    {
      "name": "蓮",
      "name_kana": "レン",
      "business_type": "⑦ 野菜果物販売業",
      "address": "長野県佐久市横根1333-１ ㈱ローカルシーン敷地内",
      "lat": 36.295008,
      "lng": 138.503388,
      "geocoding_level": null,
      "phone": "09018325310",
      "license_no": "",
      "license_date": null,
      "expire_date": null
    },
    {
      "name": "クスリのアオキ跡部店",
      "name_kana": "クスリノアオキアトベテン",
      "business_type": "⑪ 百貨店、総合スーパー",
      "address": "長野県佐久市跡部113番地1",
      "lat": 36.233698,
      "lng": 138.461236,
      "geocoding_level": null,
      "phone": "0267-88-8761",
      "license_no": "",
      "license_date": null,
      "expire_date": null
    },
    {
      "name": "ツルヤ佐久中央店",
      "name_kana": "ツルヤサクチュウオウテン",
      "business_type": "① 飲食店営業",
      "address": "長野県佐久市中込字大塚３０２０番地１",
      "lat": 38.713228,
      "lng": 139.82294,
      "geocoding_level": null,
      "phone": "0267-54-7011",
      "license_no": "01237059",
      "license_date": "2022-05-31",
      "expire_date": "2027-05-31"
    },
    {
      "name": "菓匠　将満",
      "name_kana": "カショウ　マサミツ",
      "business_type": "⑬ その他の食料・飲料販売業",
      "address": "長野県佐久市佐久平駅南11-10 イオンモール佐久平",
      "lat": 36.275152,
      "lng": 138.463252,
      "geocoding_level": null,
      "phone": "0267658711",
      "license_no": "",
      "license_date": null,
      "expire_date": null
    },
    {
      "name": "イオンモール佐久平",
      "name_kana": "イオンモールサクダイラ",
      "business_type": "⑬ その他の食料・飲料販売業",
      "address": "長野県佐久市佐久平駅南11-10",
      "lat": 36.275156,
      "lng": 138.463251,
      "geocoding_level": null,
      "phone": "",
      "license_no": "",
      "license_date": null,
      "expire_date": null
    },
    {
      "name": "ケータリング21号",
      "name_kana": "ケータリングニジュウイチゴウシャ",
      "business_type": "① 飲食店営業",
      "address": "長野県佐久市",
      "lat": 36.248797,
      "lng": 138.47685,
      "geocoding_level": null,
      "phone": "",
      "license_no": "01261843",
      "license_date": "2022-09-14",
      "expire_date": "2027-09-30"
    },
    {
      "name": "がってん寿司　佐久平店",
      "name_kana": "ガッテンズシ　サクダイラテン",
      "business_type": "① 飲食店営業",
      "address": "長野県佐久市佐久平駅南１８－４",
      "lat": 36.274492,
      "lng": 138.465969,
      "geocoding_level": null,
      "phone": "0267-88-6537",
      "license_no": "01257041",
      "license_date": "2021-07-09",
      "expire_date": "2028-06-30"
    },
    {
      "name": "セブンイレブン　佐久平駅北店",
      "name_kana": "セブンイレブン　サクダイラエキキタテン",
      "business_type": "① 飲食店営業",
      "address": "長野県佐久市佐久平駅北１８-２",
      "lat": 36.280323,
      "lng": 138.461464,
      "geocoding_level": null,
      "phone": "0267-66-3725",
      "license_no": "01196478",
      "license_date": "2021-06-30",
      "expire_date": "2027-06-30"
    },
    {
      "name": "セブンイレブン　佐久平駅北店",
      "name_kana": "セブンイレブン　サクダイラキタテン",
      "business_type": "⑩ コンビニエンスストア",
      "address": "長野県佐久市佐久平駅北18-2",
      "lat": 36.280323,
      "lng": 138.461464,
      "geocoding_level": null,
      "phone": "0267-66-3725",
      "license_no": "",
      "license_date": null,
      "expire_date": null
    },
    {
      "name": "セブンイレブン　佐久駒場公園前店",
      "name_kana": "セブンイレブン　サクコマバコウエンマエテン",
      "business_type": "① 飲食店営業",
      "address": "長野県佐久市猿久保２４４－１",
      "lat": 36.257343,
      "lng": 138.483138,
      "geocoding_level": null,
      "phone": "0267-66-3725",
      "license_no": "01151585",
      "license_date": "2021-06-30",
      "expire_date": "2026-06-30"
    },
    {
      "name": "セブンイレブン　佐久駒場公園前店",
      "name_kana": "セブンイレブン　サクコマバコウエンマエテン",
      "business_type": "⑩ コンビニエンスストア",
      "address": "長野県佐久市猿久保２４４－１",
      "lat": 36.257343,
      "lng": 138.483138,
      "geocoding_level": null,
      "phone": "0267-66-3725",
      "license_no": "",
      "license_date": null,
      "expire_date": null
    },
    {
      "name": "春さん",
      "name_kana": "ハルサン",
      "business_type": "① 飲食店営業",
      "address": "長野県佐久市岩村田６３２",
      "lat": 36.271648,
      "lng": 138.478071,
      "geocoding_level": null,
      "phone": "",
      "license_no": "01123447",
      "license_date": "2021-06-30",
      "expire_date": "2026-06-30"
    },
    {
      "name": "やきとり春さん",
      "name_kana": "ヤキトリハルサン",
      "business_type": "① 飲食店営業",
      "address": "長野県佐久市岩村田７３３－３",
      "lat": 36.272589,
      "lng": 138.477284,
      "geocoding_level": null,
      "phone": "",
      "license_no": "01263926",
      "license_date": "2023-04-13",
      "expire_date": "2028-04-30"
    },
    {
      "name": "やきとり春さん",
      "name_kana": "ヤキトリハルサン",
      "business_type": "① 飲食店営業",
      "address": "長野県佐久市岩村田７３３－３",
      "lat": 36.272589,
      "lng": 138.477284,
      "geocoding_level": null,
      "phone": "",
      "license_no": "01263933",
      "license_date": "2023-04-13",
      "expire_date": "2028-04-30"
    },
    {
      "name": "割烹食堂　美峰",
      "name_kana": "カッポウショクドウ　ビホウ",
      "business_type": "① 飲食店営業",
      "address": "長野県佐久市安原１０９４－５",
      "lat": 36.264951,
      "lng": 138.495615,
      "geocoding_level": null,
      "phone": "0267-68-9991",
      "license_no": "01137871",
      "license_date": "2021-06-30",
      "expire_date": "2027-06-30"
    },
    {
      "name": "（株）レパスト中電佐久寮事業所",
      "name_kana": "カブシキガイシャレパストチュウデンサクリョウジギョウショ",
      "business_type": "① 飲食店営業",
      "address": "長野県佐久市原２１－１",
      "lat": 36.224034,
      "lng": 138.47324,
      "geocoding_level": null,
      "phone": "0267-63-4065",
      "license_no": "01262501",
      "license_date": "2022-11-18",
      "expire_date": "2029-10-31"
    },
    {
      "name": "ミスタードーナツ　佐久ショップ",
      "name_kana": "ミスタードーナツ　サクショップ",
      "business_type": "① 飲食店営業",
      "address": "長野県佐久市佐久平駅東７－６",
      "lat": 36.279457,
      "lng": 138.469037,
      "geocoding_level": null,
      "phone": "0267-66-3811",
      "license_no": "01147449",
      "license_date": "2021-06-30",
      "expire_date": "2027-06-30"
    },
    {
      "name": "佐久の草笛",
      "name_kana": "サクノクサブエ",
      "business_type": "① 飲食店営業",
      "address": "長野県佐久市佐久平駅東２１－３",
      "lat": 36.27687,
      "lng": 138.466591,
      "geocoding_level": null,
      "phone": "0267-66-3939",
      "license_no": "01147463",
      "license_date": "2021-06-30",
      "expire_date": "2027-06-30"
    },
    {
      "name": "（株）ますや食品　第二工場",
      "name_kana": "マスヤショクヒン　ダイニコウジョウ",
      "business_type": "⑪ 菓子製造業",
      "address": "長野県佐久市長土呂848-1",
      "lat": 36.289228,
      "lng": 138.471905,
      "geocoding_level": null,
      "phone": "0267-88-5280",
      "license_no": "01228610",
      "license_date": "2021-06-30",
      "expire_date": "2027-06-30"
    },
    {
      "name": "（株）ますや食品　第二工場",
      "name_kana": "マスヤショクヒン　ダイニコウジョウ",
      "business_type": "㉗ 冷凍食品製造業",
      "address": "長野県佐久市長土呂848-1",
      "lat": 36.289228,
      "lng": 138.471905,
      "geocoding_level": null,
      "phone": "0267-88-5280",
      "license_no": "01228627",
      "license_date": "2021-06-30",
      "expire_date": "2027-06-30"
    },
    {
      "name": "（株）ますや食品",
      "name_kana": "マスヤショクヒン",
      "business_type": "⑪ 菓子製造業",
      "address": "長野県佐久市長土呂819",
      "lat": 36.287918,
      "lng": 138.472131,
      "geocoding_level": null,
      "phone": "0267-67-5767",
      "license_no": "01000334",
      "license_date": "2021-06-30",
      "expire_date": "2026-06-30"
    },
    {
      "name": "ショコラ・デュ・ボヌール",
      "name_kana": "ショコラ　デュ　ボヌール",
      "business_type": "⑪ 菓子製造業",
      "address": "長野県佐久市岩村田762",
      "lat": 36.273175,
      "lng": 138.478667,
      "geocoding_level": null,
      "phone": "0267-88-6112",
      "license_no": "01231000",
      "license_date": "2021-06-30",
      "expire_date": "2026-06-30"
    },
    {
      "name": "マクドナルド　イオンモール佐久平店",
      "name_kana": "マクドナルド　イオンモールサクダイラテン",
      "business_type": "① 飲食店営業",
      "address": "長野県佐久市佐久平駅南11-10",
      "lat": 36.275156,
      "lng": 138.463251,
      "geocoding_level": null,
      "phone": "0267-66-3135",
      "license_no": "01196955",
      "license_date": "2021-06-30",
      "expire_date": "2027-06-30"
    },
    {
      "name": "食・肴・処　一",
      "name_kana": "ショクドコロカズ",
      "business_type": "① 飲食店営業",
      "address": "長野県佐久市猿久保前原７４１－４",
      "lat": 36.259704,
      "lng": 138.477476,
      "geocoding_level": null,
      "phone": "",
      "license_no": "01163114",
      "license_date": "2021-06-30",
      "expire_date": "2027-06-30"
    },
    {
      "name": "マクドナルド　佐久インター店",
      "name_kana": "マクドナルド　サクインターテン",
      "business_type": "① 飲食店営業",
      "address": "長野県佐久市岩村田北１－１３－６",
      "lat": 36.28378,
      "lng": 138.482976,
      "geocoding_level": null,
      "phone": "",
      "license_no": "01197014",
      "license_date": "2021-06-30",
      "expire_date": "2027-06-30"
    },
    {
      "name": "千曲錦酒造（株）",
      "name_kana": "チクマニシキシュゾウ",
      "business_type": "㉚ 密封包装食品製造業",
      "address": "長野県佐久市長土呂1110",
      "lat": 36.286741,
      "lng": 138.464212,
      "geocoding_level": null,
      "phone": "0267-67-3731",
      "license_no": "01161930",
      "license_date": "2021-06-30",
      "expire_date": "2027-06-30"
    },
    {
      "name": "スイーツカーニバル",
      "name_kana": "スイーツカーニバル",
      "business_type": "⑬ その他の食料・飲料販売業",
      "address": "長野県佐久市佐久平駅南11-10 イオンモール佐久平　コスモスコート",
      "lat": 36.275152,
      "lng": 138.463252,
      "geocoding_level": null,
      "phone": "",
      "license_no": "",
      "license_date": null,
      "expire_date": null
    },
    {
      "name": "スイーツカーニバル",
      "name_kana": "スイーツカーニバル",
      "business_type": "⑬ その他の食料・飲料販売業",
      "address": "長野県佐久市佐久平駅南11-10 イオンモール佐久平",
      "lat": 36.275708,
      "lng": 138.464046,
      "geocoding_level": null,
      "phone": "0564458700",
      "license_no": "",
      "license_date": null,
      "expire_date": null
    },
    {
      "name": "（株）古屋酒造店",
      "name_kana": "フルヤシュゾウテン",
      "business_type": "㉑ 酒類製造業",
      "address": "長野県佐久市塚原411",
      "lat": 36.274325,
      "lng": 138.453536,
      "geocoding_level": null,
      "phone": "0267-67-2153",
      "license_no": "01012272",
      "license_date": "2021-06-30",
      "expire_date": "2026-06-30"
    },
    {
      "name": "いるまぁれ",
      "name_kana": "イルマァレ",
      "business_type": "① 飲食店営業",
      "address": "長野県佐久市岩村田３１６９－１ 佐久昭和ビル１F",
      "lat": 36.271147,
      "lng": 138.479155,
      "geocoding_level": null,
      "phone": "0267-65-7080",
      "license_no": "01166385",
      "license_date": "2021-06-30",
      "expire_date": "2027-06-30"
    },
    {
      "name": "パルミエ　クリュ",
      "name_kana": "パルミエ　クリュ",
      "business_type": "① 飲食店営業",
      "address": "長野県佐久市中込１－１６－６",
      "lat": 36.230197,
      "lng": 138.477098,
      "geocoding_level": null,
      "phone": "",
      "license_no": "01257147",
      "license_date": "2021-07-14",
      "expire_date": "2026-07-31"
    },
    {
      "name": "パルミエ",
      "name_kana": "パルミエ",
      "business_type": "① 飲食店営業",
      "address": "長野県佐久市中込１－１６－６",
      "lat": 36.230197,
      "lng": 138.477098,
      "geocoding_level": null,
      "phone": "",
      "license_no": "01257154",
      "license_date": "2021-07-16",
      "expire_date": "2028-05-31"
    },
    {
      "name": "カインズ佐久平店",
      "name_kana": "カインズサクダイラテン",
      "business_type": "⑧ 米穀類販売業",
      "address": "長野県佐久市岩村田字上樋橋5501番21",
      "lat": 37.389683,
      "lng": 140.31118,
      "geocoding_level": null,
      "phone": "0267-66-3111",
      "license_no": "",
      "license_date": null,
      "expire_date": null
    },
    {
      "name": "南岩尾同志会",
      "name_kana": "ミナミイワオドウシカイ",
      "business_type": "① 飲食店営業",
      "address": "長野県佐久市鳴瀬505-1　千曲川スポーツ交流広場",
      "lat": 36.248935,
      "lng": 138.432029,
      "geocoding_level": null,
      "phone": "",
      "license_no": "01233203",
      "license_date": "2021-06-30",
      "expire_date": "2026-06-30"
    },
    {
      "name": "パストラル　さくだいら",
      "name_kana": "パストラル　サクダイラ",
      "business_type": "① 飲食店営業",
      "address": "長野県佐久市佐久平駅北１７－４",
      "lat": 36.280608,
      "lng": 138.460976,
      "geocoding_level": null,
      "phone": "0267-66-6541",
      "license_no": "01184458",
      "license_date": "2021-06-30",
      "expire_date": "2027-06-30"
    },
    {
      "name": "麺屋　誉",
      "name_kana": "メンヤ　ホマレ",
      "business_type": "① 飲食店営業",
      "address": "長野県佐久市猿久保７２８－２ ヤマキテナントビルB棟東",
      "lat": 36.257408,
      "lng": 138.473303,
      "geocoding_level": null,
      "phone": "",
      "license_no": "01197321",
      "license_date": "2021-06-30",
      "expire_date": "2027-06-30"
    },
    {
      "name": "イオン佐久平店",
      "name_kana": "イオンサクダイラテン",
      "business_type": "⑪ 百貨店、総合スーパー",
      "address": "長野県佐久市佐久平駅南１１－１０",
      "lat": 36.275862,
      "lng": 138.466076,
      "geocoding_level": null,
      "phone": "0267-65-8711",
      "license_no": "",
      "license_date": null,
      "expire_date": null
    },
    {
      "name": "イオンリテール（株）　イオン佐久平店",
      "name_kana": "イオンリテールカブシキガイシャ　イオンサクダイラテン",
      "business_type": "① 飲食店営業",
      "address": "長野県佐久市佐久平駅南１１－１０",
      "lat": 36.275708,
      "lng": 138.464046,
      "geocoding_level": null,
      "phone": "0267-65-8711",
      "license_no": "01218743",
      "license_date": "2025-06-30",
      "expire_date": "2031-06-30"
    },
    {
      "name": "ワークサポートこすもす",
      "name_kana": "ワークサポートコスモス",
      "business_type": "⑯ コーヒー製造・加工業（飲料の製造を除く。）",
      "address": "長野県佐久市中込3100-3",
      "lat": 36.250338,
      "lng": 138.477925,
      "geocoding_level": null,
      "phone": "0267-62-1900",
      "license_no": "",
      "license_date": null,
      "expire_date": null
    },
    {
      "name": "ワークサポート　こすもす",
      "name_kana": "ワークサポート　コスモス",
      "business_type": "⑪ 菓子製造業",
      "address": "長野県佐久市中込３１００－３",
      "lat": 36.250338,
      "lng": 138.477925,
      "geocoding_level": null,
      "phone": "0267-64-6644",
      "license_no": "01262692",
      "license_date": "2022-12-09",
      "expire_date": "2029-05-31"
    },
    {
      "name": "レストラン　ブランカン",
      "name_kana": "レストラン　ブランカン",
      "business_type": "① 飲食店営業",
      "address": "長野県佐久市岩村田2338-4",
      "lat": 36.265108,
      "lng": 138.467034,
      "geocoding_level": null,
      "phone": "0267-65-8883",
      "license_no": "01197879",
      "license_date": "2021-06-30",
      "expire_date": "2027-06-30"
    },
    {
      "name": "鳥蔵黒船　佐久平店",
      "name_kana": "トリゾウクロフネ　サクダイラテン",
      "business_type": "① 飲食店営業",
      "address": "長野県佐久市佐久平駅北3-5",
      "lat": 36.279209,
      "lng": 138.464793,
      "geocoding_level": null,
      "phone": "0267-78-5170",
      "license_no": "01227524",
      "license_date": "2021-06-30",
      "expire_date": "2027-06-30"
    },
    {
      "name": "鉄板ダイニング　道　－tao－",
      "name_kana": "タオ",
      "business_type": "① 飲食店営業",
      "address": "長野県佐久市岩村田3166-1",
      "lat": 36.270591,
      "lng": 138.479213,
      "geocoding_level": null,
      "phone": "050-3697-2612",
      "license_no": "01228367",
      "license_date": "2021-06-30",
      "expire_date": "2027-06-30"
    },
    {
      "name": "鉄板ダイニング　tao",
      "name_kana": "テッパンダイニング　タオ",
      "business_type": "① 飲食店営業",
      "address": "長野県佐久市岩村田３１６６－１",
      "lat": 36.270438,
      "lng": 138.479165,
      "geocoding_level": null,
      "phone": "090-9353-4024",
      "license_no": "01260710",
      "license_date": "2022-06-29",
      "expire_date": "2027-06-30"
    },
    {
      "name": "Ｒｏｕｔｅ",
      "name_kana": "ルート",
      "business_type": "① 飲食店営業",
      "address": "長野県佐久市岩村田３１６２－１６",
      "lat": 36.27041,
      "lng": 138.479393,
      "geocoding_level": null,
      "phone": "050-3697-2612",
      "license_no": "01246841",
      "license_date": "2025-06-30",
      "expire_date": "2031-06-30"
    },
    {
      "name": "介護老人保健施設　愛の郷",
      "name_kana": "メグミノサト",
      "business_type": "① 飲食店営業",
      "address": "長野県佐久市長土呂860-2",
      "lat": 36.29185,
      "lng": 138.471776,
      "geocoding_level": null,
      "phone": "0267-78-3681",
      "license_no": "01229404",
      "license_date": "2021-06-30",
      "expire_date": "2027-06-30"
    },
    {
      "name": "ルルパ結いの家",
      "name_kana": "ルルパユイノイエ",
      "business_type": "① 飲食店営業",
      "address": "長野県佐久市望月３２６－４",
      "lat": 36.265283,
      "lng": 138.357218,
      "geocoding_level": null,
      "phone": "0267-78-5353",
      "license_no": "01268290",
      "license_date": "2024-01-19",
      "expire_date": "2030-09-30"
    },
    {
      "name": "ルルパ佐久コスモスワークス",
      "name_kana": "ルルパサクコスモスワークス",
      "business_type": "① 飲食店営業",
      "address": "長野県佐久市岩村田１８８０－５",
      "lat": 36.269774,
      "lng": 138.469238,
      "geocoding_level": null,
      "phone": "",
      "license_no": "01268600",
      "license_date": "2024-03-22",
      "expire_date": "2030-06-30"
    },
    {
      "name": "ルルパコスモスワークス第二",
      "name_kana": "ルルパコスモスワークスダイニ",
      "business_type": "① 飲食店営業",
      "address": "長野県佐久市大沢１２８０－１",
      "lat": 36.205505,
      "lng": 138.462174,
      "geocoding_level": null,
      "phone": "",
      "license_no": "01268617",
      "license_date": "2024-03-22",
      "expire_date": "2030-10-31"
    },
    {
      "name": "ルルパコスモスワークス岸野",
      "name_kana": "ルルパコスモスワークスキシノ",
      "business_type": "① 飲食店営業",
      "address": "長野県佐久市伴野９５３－１",
      "lat": 36.237344,
      "lng": 138.43351,
      "geocoding_level": null,
      "phone": "",
      "license_no": "01268624",
      "license_date": "2024-03-22",
      "expire_date": "2030-10-31"
    },
    {
      "name": "コスモスワークス岸野",
      "name_kana": "コスモスワークスキシノ",
      "business_type": "① 魚介類販売業（包装済みの魚介類のみの販売）",
      "address": "長野県佐久市伴野９５３－１",
      "lat": 36.237344,
      "lng": 138.43351,
      "geocoding_level": null,
      "phone": "",
      "license_no": "",
      "license_date": null,
      "expire_date": null
    },
    {
      "name": "コスモスワークス岸野",
      "name_kana": "コスモスワークスキシノ",
      "business_type": "② 食肉販売業（包装済みの食肉のみの販売）",
      "address": "長野県佐久市伴野９５３－１",
      "lat": 36.237344,
      "lng": 138.43351,
      "geocoding_level": null,
      "phone": "",
      "license_no": "",
      "license_date": null,
      "expire_date": null
    },
    {
      "name": "コスモスワークス岸野",
      "name_kana": "コスモスワークスキシノ",
      "business_type": "③ 乳類販売業",
      "address": "長野県佐久市伴野９５３－１",
      "lat": 36.237344,
      "lng": 138.43351,
      "geocoding_level": null,
      "phone": "",
      "license_no": "",
      "license_date": null,
      "expire_date": null
    },
    {
      "name": "コスモスワークス岸野",
      "name_kana": "コスモスワークスキシノ",
      "business_type": "⑦ 野菜果物販売業",
      "address": "長野県佐久市伴野９５３－１",
      "lat": 36.237344,
      "lng": 138.43351,
      "geocoding_level": null,
      "phone": "",
      "license_no": "",
      "license_date": null,
      "expire_date": null
    },
    {
      "name": "コスモスワークス岸野",
      "name_kana": "コスモスワークスキシノ",
      "business_type": "⑬ その他の食料・飲料販売業",
      "address": "長野県佐久市伴野９５３－１",
      "lat": 36.237344,
      "lng": 138.43351,
      "geocoding_level": null,
      "phone": "",
      "license_no": "",
      "license_date": null,
      "expire_date": null
    },
    {
      "name": "ケアライフ礎",
      "name_kana": "ケアライフイシズエ",
      "business_type": "① 飲食店営業",
      "address": "長野県佐久市長土呂908-1",
      "lat": 36.290775,
      "lng": 138.469987,
      "geocoding_level": null,
      "phone": "0267-66-7800",
      "license_no": "01223586",
      "license_date": "2021-06-30",
      "expire_date": "2027-06-30"
    },
    {
      "name": "ルルパ緑の牧場学園",
      "name_kana": "ルルパミドリノマキバガクエン",
      "business_type": "① 飲食店営業",
      "address": "長野県佐久市八幡１１１５－６７",
      "lat": 36.286705,
      "lng": 138.387143,
      "geocoding_level": null,
      "phone": "",
      "license_no": "01277541",
      "license_date": "2026-03-23",
      "expire_date": "2032-03-31"
    },
    {
      "name": "ゆち工房",
      "name_kana": "ユチコウボウ",
      "business_type": "⑰ 農産保存食料品製造・加工業",
      "address": "長野県佐久市布施2478-184",
      "lat": 36.221142,
      "lng": 138.375701,
      "geocoding_level": null,
      "phone": "0267-53-6422",
      "license_no": "",
      "license_date": null,
      "expire_date": null
    },
    {
      "name": "ゆち工房",
      "name_kana": "ユチコウボウ",
      "business_type": "⑪ 菓子製造業",
      "address": "長野県佐久市常田３５６－１",
      "lat": 36.277484,
      "lng": 138.443654,
      "geocoding_level": null,
      "phone": "",
      "license_no": "01265578",
      "license_date": "2023-07-06",
      "expire_date": "2030-06-30"
    },
    {
      "name": "ゆち工房",
      "name_kana": "ユチコウボウ",
      "business_type": "㉚ 密封包装食品製造業",
      "address": "長野県佐久市常田３５６－１",
      "lat": 36.277484,
      "lng": 138.443654,
      "geocoding_level": null,
      "phone": "",
      "license_no": "01265561",
      "license_date": "2023-07-06",
      "expire_date": "2030-06-30"
    },
    {
      "name": "のぞみサンピア佐久",
      "name_kana": "ノゾミサンピアサク",
      "business_type": "⑫ 自動販売機による販売業（コップ式自動販売機（自動洗浄・屋内設置）及び営業許可の対象となる自動販売機を除く）",
      "address": "長野県佐久市根岸３２０３－２",
      "lat": 36.24042,
      "lng": 138.416366,
      "geocoding_level": null,
      "phone": "",
      "license_no": "",
      "license_date": null,
      "expire_date": null
    },
    {
      "name": "マルハン佐久",
      "name_kana": "マルハンサク",
      "business_type": "⑫ 自動販売機による販売業（コップ式自動販売機（自動洗浄・屋内設置）及び営業許可の対象となる自動販売機を除く）",
      "address": "長野県佐久市岩村田字南向田４４８１",
      "lat": 37.110593,
      "lng": 140.332349,
      "geocoding_level": null,
      "phone": "",
      "license_no": "",
      "license_date": null,
      "expire_date": null
    },
    {
      "name": "岩村田北保育園",
      "name_kana": "イワムラダキタホイクエン",
      "business_type": "① 飲食店営業",
      "address": "長野県佐久市岩村田３６０６－９",
      "lat": 36.271031,
      "lng": 138.475401,
      "geocoding_level": null,
      "phone": "0267-68-3030",
      "license_no": "01238549",
      "license_date": "2023-06-30",
      "expire_date": "2029-06-30"
    },
    {
      "name": "（株）ミールケア　ねねいふたばこども園事業所",
      "name_kana": "カブシキガイシャミールケア　ネネイフタバコドモエンジギョウショ",
      "business_type": "① 飲食店営業",
      "address": "長野県佐久市根々井１９７－１",
      "lat": 36.25777,
      "lng": 138.462856,
      "geocoding_level": null,
      "phone": "070-3369-4568",
      "license_no": "01268511",
      "license_date": "2024-03-08",
      "expire_date": "2030-06-30"
    },
    {
      "name": "ミールケア　ばんり",
      "name_kana": "ミールケア　バンリ",
      "business_type": "① 飲食店営業",
      "address": "長野県佐久市長土呂７９３－１２",
      "lat": 36.291719,
      "lng": 138.473195,
      "geocoding_level": null,
      "phone": "080-3690-1827",
      "license_no": "01211001",
      "license_date": "2024-06-28",
      "expire_date": "2030-06-30"
    },
    {
      "name": "緑の牧場学園",
      "name_kana": "ミドリノマキバガクエン",
      "business_type": "① 飲食店営業",
      "address": "長野県佐久市八幡１１１５－６７",
      "lat": 36.286705,
      "lng": 138.387143,
      "geocoding_level": null,
      "phone": "0267-58-2366",
      "license_no": "01166481",
      "license_date": "2025-03-31",
      "expire_date": "2031-03-31"
    },
    {
      "name": "ソロピッツァ　ジンガラ",
      "name_kana": "ソロピッツァ　ジンガラ",
      "business_type": "① 飲食店営業",
      "address": "長野県佐久市長土呂1243-1",
      "lat": 36.283384,
      "lng": 138.46074,
      "geocoding_level": null,
      "phone": "",
      "license_no": "01227346",
      "license_date": "2021-06-30",
      "expire_date": "2027-06-30"
    },
    {
      "name": "道の駅　ヘルシーテラス佐久南",
      "name_kana": "ミチノエキ　ヘルシーテラスサクミナミ",
      "business_type": "⑰ 農産保存食料品製造・加工業",
      "address": "長野県佐久市伴野7-1",
      "lat": 36.23618,
      "lng": 138.440753,
      "geocoding_level": null,
      "phone": "0267-78-3383",
      "license_no": "",
      "license_date": null,
      "expire_date": null
    },
    {
      "name": "A・コープファーマーズ佐久平店",
      "name_kana": "エーコープファーマーズサクダイラテン",
      "business_type": "⑰ 農産保存食料品製造・加工業",
      "address": "長野県佐久市中込６１０－３",
      "lat": 36.241325,
      "lng": 138.466176,
      "geocoding_level": null,
      "phone": "0267-88-8141",
      "license_no": "",
      "license_date": null,
      "expire_date": null
    },
    {
      "name": "小雀保育園",
      "name_kana": "コスズメホイクエン",
      "business_type": "㉖ 集団給食施設",
      "address": "長野県佐久市岩村田1158-10",
      "lat": 36.274711,
      "lng": 138.475825,
      "geocoding_level": null,
      "phone": "0267-67-2287",
      "license_no": "",
      "license_date": null,
      "expire_date": null
    },
    {
      "name": "セブン・イレブン　佐久インター西店",
      "name_kana": "セブンイレブン　サクインターニシテン",
      "business_type": "① 飲食店営業",
      "address": "長野県佐久市岩村田北１－２８－４",
      "lat": 36.285885,
      "lng": 138.478831,
      "geocoding_level": null,
      "phone": "0267-68-1711",
      "license_no": "01207354",
      "license_date": "2021-06-30",
      "expire_date": "2026-06-30"
    },
    {
      "name": "酒肴や１５１",
      "name_kana": "サケサカナヤイコイ",
      "business_type": "① 飲食店営業",
      "address": "長野県佐久市岩村田６１９　２F",
      "lat": 36.271031,
      "lng": 138.475401,
      "geocoding_level": null,
      "phone": "",
      "license_no": "01271894",
      "license_date": "2024-09-20",
      "expire_date": "2031-06-30"
    },
    {
      "name": "株式会社細萱食品",
      "name_kana": "カブシキガイシャホソガヤショクヒン",
      "business_type": "㉔ その他の食料品製造・加工業",
      "address": "長野県佐久市岩村田2528-1",
      "lat": 36.262676,
      "lng": 138.476711,
      "geocoding_level": null,
      "phone": "0267887808",
      "license_no": "",
      "license_date": null,
      "expire_date": null
    },
    {
      "name": "ニューデイズキオスク佐久平駅店",
      "name_kana": "ニューデイズキオスクサクダイラエキテン",
      "business_type": "⑩ コンビニエンスストア",
      "address": "長野県佐久市佐久平駅東５２",
      "lat": 36.277988,
      "lng": 138.46428,
      "geocoding_level": null,
      "phone": "0267-65-7043",
      "license_no": "",
      "license_date": null,
      "expire_date": null
    },
    {
      "name": "有限会社　平安産業",
      "name_kana": "ユウゲンガイシャヘイアンサンギョウ",
      "business_type": "⑧ 米穀類販売業",
      "address": "長野県佐久市甲2163-1",
      "lat": 36.259049,
      "lng": 138.403642,
      "geocoding_level": null,
      "phone": "0267-58-2927",
      "license_no": "",
      "license_date": null,
      "expire_date": null
    },
    {
      "name": "佐久市特別養護老人ホーム　シルバーランド　きしの",
      "name_kana": "サクシトクベツヨウゴロウジンホーム　シルバーランド　キシノ",
      "business_type": "① 飲食店営業",
      "address": "長野県佐久市根岸１１３－１",
      "lat": 36.239318,
      "lng": 138.428068,
      "geocoding_level": null,
      "phone": "0267-64-6635",
      "license_no": "01193717",
      "license_date": "2022-10-31",
      "expire_date": "2029-10-31"
    },
    {
      "name": "特別養護老人ホーム　うすだコスモ苑",
      "name_kana": "トクベツヨウゴロウジンホーム　ウスダコスモエン",
      "business_type": "① 飲食店営業",
      "address": "長野県佐久市臼田８６",
      "lat": 36.200162,
      "lng": 138.475763,
      "geocoding_level": null,
      "phone": "0267-82-2214",
      "license_no": "01243700",
      "license_date": "2025-03-31",
      "expire_date": "2031-03-31"
    },
    {
      "name": "井出精米所",
      "name_kana": "イデセイマイジョ",
      "business_type": "⑳ 精穀・製粉業",
      "address": "長野県佐久市伴野2317",
      "lat": 36.251575,
      "lng": 138.413932,
      "geocoding_level": null,
      "phone": "0267-62-0284",
      "license_no": "",
      "license_date": null,
      "expire_date": null
    },
    {
      "name": "佐久市学校給食北部センター",
      "name_kana": "サクシガッコウキュウショクホクブセンター",
      "business_type": "㉖ 集団給食施設",
      "address": "長野県佐久市長土呂64-22",
      "lat": 36.29061,
      "lng": 138.480834,
      "geocoding_level": null,
      "phone": "0267-67-5694",
      "license_no": "",
      "license_date": null,
      "expire_date": null
    },
    {
      "name": "株式会社西友　岩村田相生店",
      "name_kana": "カブシキガイシャセイユウ　イワムラダアイオイテン",
      "business_type": "⑪ 百貨店、総合スーパー",
      "address": "長野県佐久市岩村田字観音堂2119-1",
      "lat": 36.271031,
      "lng": 138.475401,
      "geocoding_level": null,
      "phone": "0267-65-7330",
      "license_no": "",
      "license_date": null,
      "expire_date": null
    },
    {
      "name": "株式会社西友　佐久野沢店　若菜",
      "name_kana": "カブシキガイシャセイユウ　サクノザワテン　ワカナ",
      "business_type": "① 飲食店営業",
      "address": "長野県佐久市野沢一丁目３１６-１ 西友内",
      "lat": 36.223849,
      "lng": 138.469744,
      "geocoding_level": null,
      "phone": "0267-64-8860",
      "license_no": "01177563",
      "license_date": "2025-10-31",
      "expire_date": "2031-10-31"
    },
    {
      "name": "株式会社西友　佐久野沢店",
      "name_kana": "カブシキガイシャセイユウ　サクノザワテン",
      "business_type": "⑪ 百貨店、総合スーパー",
      "address": "長野県佐久市野沢字一丁田316-1",
      "lat": 36.224687,
      "lng": 138.461236,
      "geocoding_level": null,
      "phone": "0267-64-8860",
      "license_no": "",
      "license_date": null,
      "expire_date": null
    },
    {
      "name": "株式会社西友　望月店",
      "name_kana": "カブシキガイシャセイユウ　モチヅキテン",
      "business_type": "⑪ 百貨店、総合スーパー",
      "address": "長野県佐久市協和字下田119-1",
      "lat": 36.203033,
      "lng": 138.309061,
      "geocoding_level": null,
      "phone": "0267-54-2300",
      "license_no": "",
      "license_date": null,
      "expire_date": null
    },
    {
      "name": "株式会社西友　岩村田相生店　若菜",
      "name_kana": "カブシキガイシャセイユウ　イワムラダアイオイテン　ワカナ",
      "business_type": "① 飲食店営業",
      "address": "長野県佐久市岩村田観音堂２１１９－１ 西友岩村田相生店内",
      "lat": 36.270301,
      "lng": 138.475471,
      "geocoding_level": null,
      "phone": "0267-68-4529",
      "license_no": "01202130",
      "license_date": "2022-06-30",
      "expire_date": "2028-06-30"
    },
    {
      "name": "株式会社西友　岩村田相生店",
      "name_kana": "カブシキガイシャセイユウ　イワムラタアイオイテン",
      "business_type": "④ 魚介類販売業",
      "address": "長野県佐久市岩村田観音堂2119-1",
      "lat": 36.270301,
      "lng": 138.475471,
      "geocoding_level": null,
      "phone": "0267-65-7330",
      "license_no": "01141783",
      "license_date": "2023-06-30",
      "expire_date": "2029-06-30"
    },
    {
      "name": "株式会社西友　望月店",
      "name_kana": "カブシキガイシャセイユウ　モチヅキテン",
      "business_type": "④ 魚介類販売業",
      "address": "長野県佐久市協和下田119-1",
      "lat": 36.203033,
      "lng": 138.309061,
      "geocoding_level": null,
      "phone": "0267-54-2300",
      "license_no": "01159405",
      "license_date": "2023-09-30",
      "expire_date": "2029-09-30"
    },
    {
      "name": "株式会社西友　望月店　若菜",
      "name_kana": "カブシキガイシャセイユウ　モチヅキテン　ワカナ",
      "business_type": "① 飲食店営業",
      "address": "長野県佐久市協和下田119-1",
      "lat": 36.203033,
      "lng": 138.309061,
      "geocoding_level": null,
      "phone": "0267-54-2300",
      "license_no": "01212091",
      "license_date": "2024-09-30",
      "expire_date": "2030-09-30"
    },
    {
      "name": "食事処　花てまり",
      "name_kana": "ショクジドコロ　ハナテマリ",
      "business_type": "① 飲食店営業",
      "address": "長野県佐久市中込１－８－６",
      "lat": 36.231484,
      "lng": 138.476793,
      "geocoding_level": null,
      "phone": "080-8411-3994",
      "license_no": "01263101",
      "license_date": "2023-02-24",
      "expire_date": "2029-05-31"
    },
    {
      "name": "食事処　花てまり",
      "name_kana": "ショクジドコロ　ハナテマリ",
      "business_type": "㉕ そうざい製造業",
      "address": "長野県佐久市中込１－８－６",
      "lat": 36.231484,
      "lng": 138.476793,
      "geocoding_level": null,
      "phone": "080-8411-3994",
      "license_no": "01263118",
      "license_date": "2023-02-24",
      "expire_date": "2029-05-31"
    },
    {
      "name": "サテライト介護老人保健施設　なかごみ",
      "name_kana": "サテライトカイゴロウジンホケンシセツ　ナカゴミ",
      "business_type": "① 飲食店営業",
      "address": "長野県佐久市中込３－１５－６",
      "lat": 36.226909,
      "lng": 138.477832,
      "geocoding_level": null,
      "phone": "090-9354-5348",
      "license_no": "01245515",
      "license_date": "2025-05-30",
      "expire_date": "2031-05-31"
    },
    {
      "name": "佐久市学校給食臼田センター",
      "name_kana": "サクシガッコウキュウショクウスダセンター",
      "business_type": "㉖ 集団給食施設",
      "address": "長野県佐久市下小田切１６５－１",
      "lat": 36.189852,
      "lng": 138.475712,
      "geocoding_level": null,
      "phone": "0267-82-2547",
      "license_no": "",
      "license_date": null,
      "expire_date": null
    },
    {
      "name": "臼田ライスセンター",
      "name_kana": "ウスダライスセンター",
      "business_type": "⑳ 精穀・製粉業",
      "address": "長野県佐久市桜井207-2",
      "lat": 36.234291,
      "lng": 138.446269,
      "geocoding_level": null,
      "phone": "",
      "license_no": "",
      "license_date": null,
      "expire_date": null
    },
    {
      "name": "Ｍｏｒｏｋａｗａ　Ｒｉｃｅ",
      "name_kana": "モロカワ　ライス",
      "business_type": "⑳ 精穀・製粉業",
      "address": "長野県佐久市茂田井3670",
      "lat": 36.285092,
      "lng": 138.344274,
      "geocoding_level": null,
      "phone": "0267-53-4100",
      "license_no": "",
      "license_date": null,
      "expire_date": null
    },
    {
      "name": "ウエルシア佐久インターウェーブ店",
      "name_kana": "ウエルシアサクインターウェーブテン",
      "business_type": "⑪ 百貨店、総合スーパー",
      "address": "長野県佐久市小田井613-1",
      "lat": 36.29189,
      "lng": 138.487569,
      "geocoding_level": null,
      "phone": "0267658188",
      "license_no": "",
      "license_date": null,
      "expire_date": null
    },
    {
      "name": "ウエルシア佐久インターウェーブ店",
      "name_kana": "ウエルシアサクインターウェーブテン",
      "business_type": "⑫ 自動販売機による販売業（コップ式自動販売機（自動洗浄・屋内設置）及び営業許可の対象となる自動販売機を除く）",
      "address": "長野県佐久市小田井613-1",
      "lat": 36.29189,
      "lng": 138.487569,
      "geocoding_level": null,
      "phone": "0267658188",
      "license_no": "",
      "license_date": null,
      "expire_date": null
    },
    {
      "name": "有限会社髙塚商店",
      "name_kana": "ユウゲンガイシャタカツカショウテン",
      "business_type": "⑳ 精穀・製粉業",
      "address": "長野県佐久市協和字原田2169-3",
      "lat": 36.203033,
      "lng": 138.309061,
      "geocoding_level": null,
      "phone": "0267-53-6140",
      "license_no": "",
      "license_date": null,
      "expire_date": null
    },
    {
      "name": "アミーゴ",
      "name_kana": "アミーゴ",
      "business_type": "① 飲食店営業",
      "address": "長野県佐久市中込2-18-18",
      "lat": 36.229122,
      "lng": 138.4754,
      "geocoding_level": null,
      "phone": "0267-78-5226",
      "license_no": "01257656",
      "license_date": "2021-09-09",
      "expire_date": "2027-05-31"
    },
    {
      "name": "みなみ",
      "name_kana": "ミナミ",
      "business_type": "① 飲食店営業",
      "address": "長野県佐久市中込２－８－１１",
      "lat": 36.229271,
      "lng": 138.474801,
      "geocoding_level": null,
      "phone": "",
      "license_no": "01262009",
      "license_date": "2022-09-30",
      "expire_date": "2029-05-31"
    },
    {
      "name": "wine & cafe KF スタイル",
      "name_kana": "ワインアンドカフェ　ケイエフスタイル",
      "business_type": "① 飲食店営業",
      "address": "長野県佐久市佐久平駅南11-4",
      "lat": 36.276353,
      "lng": 138.465491,
      "geocoding_level": null,
      "phone": "0267-77-7735",
      "license_no": "01257721",
      "license_date": "2021-09-17",
      "expire_date": "2028-06-30"
    },
    {
      "name": "佐久市学校給食南部センター",
      "name_kana": "サクシガッコウキュウショクナンブセンター",
      "business_type": "㉖ 集団給食施設",
      "address": "長野県佐久市原563-1",
      "lat": 36.227405,
      "lng": 138.470673,
      "geocoding_level": null,
      "phone": "",
      "license_no": "",
      "license_date": null,
      "expire_date": null
    },
    {
      "name": "sweets loveさんぽ",
      "name_kana": "スイーツラブサンポ",
      "business_type": "⑬ その他の食料・飲料販売業",
      "address": "長野県佐久市佐久平駅南11-10 イオンモール佐久平 1Fセントラルコートサブ会場催事さんぽ",
      "lat": 36.275156,
      "lng": 138.463251,
      "geocoding_level": null,
      "phone": "090-2109-5296",
      "license_no": "",
      "license_date": null,
      "expire_date": null
    },
    {
      "name": "(有)市川・ライスセンター",
      "name_kana": "イチカワ　ライスセンター",
      "business_type": "⑳ 精穀・製粉業",
      "address": "長野県佐久市本新町23-1",
      "lat": 36.216226,
      "lng": 138.459792,
      "geocoding_level": null,
      "phone": "0267-63-6362",
      "license_no": "",
      "license_date": null,
      "expire_date": null
    },
    {
      "name": "メフォス東日本１０３４７号店",
      "name_kana": "メフォスヒガシニホンイチゼロサンヨンナナゴウテン",
      "business_type": "① 飲食店営業",
      "address": "長野県佐久市小田井４６２－１",
      "lat": 36.310454,
      "lng": 138.482005,
      "geocoding_level": null,
      "phone": "0267-66-1111",
      "license_no": "01246154",
      "license_date": "2025-06-30",
      "expire_date": "2031-06-30"
    },
    {
      "name": "ファミリーマートＪＡ佐久浅間医療センター店",
      "name_kana": "ファミリーマートジェイエイサクアサマイリョウセンターテン",
      "business_type": "⑩ コンビニエンスストア",
      "address": "長野県佐久市中込3400番地28",
      "lat": 36.251824,
      "lng": 138.472076,
      "geocoding_level": null,
      "phone": "0267-64-5031",
      "license_no": "",
      "license_date": null,
      "expire_date": null
    },
    {
      "name": "ラポール・さく",
      "name_kana": "ラポール　サク",
      "business_type": "① 飲食店営業",
      "address": "長野県佐久市新子田1387番地４",
      "lat": 36.262045,
      "lng": 138.496976,
      "geocoding_level": null,
      "phone": "0267-68-1888",
      "license_no": "01259971",
      "license_date": "2022-05-13",
      "expire_date": "2028-06-30"
    },
    {
      "name": "カーム　しらかば",
      "name_kana": "カーム　シラカバ",
      "business_type": "① 飲食店営業",
      "address": "長野県佐久市協和２３６１－１",
      "lat": 36.260951,
      "lng": 138.360761,
      "geocoding_level": null,
      "phone": "0267-53-0117",
      "license_no": "01249727",
      "license_date": "2025-09-30",
      "expire_date": "2031-09-30"
    },
    {
      "name": "ウエルシア佐久野沢店",
      "name_kana": "ウエルシアサクノザワテン",
      "business_type": "⑪ 百貨店、総合スーパー",
      "address": "長野県佐久市野沢248-1",
      "lat": 36.223545,
      "lng": 138.460535,
      "geocoding_level": null,
      "phone": "0267-64-8978",
      "license_no": "",
      "license_date": null,
      "expire_date": null
    },
    {
      "name": "ウエルシア佐久野沢店",
      "name_kana": "ウエルシアサクノザワテン",
      "business_type": "⑫ 自動販売機による販売業（コップ式自動販売機（自動洗浄・屋内設置）及び営業許可の対象となる自動販売機を除く）",
      "address": "長野県佐久市野沢248-1",
      "lat": 36.223545,
      "lng": 138.460535,
      "geocoding_level": null,
      "phone": "0267-64-8978",
      "license_no": "",
      "license_date": null,
      "expire_date": null
    },
    {
      "name": "ウエルシア佐久中込店",
      "name_kana": "サクナカゴミテン",
      "business_type": "⑪ 百貨店、総合スーパー",
      "address": "長野県佐久市中込447-5",
      "lat": 36.232952,
      "lng": 138.474619,
      "geocoding_level": null,
      "phone": "0267-64-6755",
      "license_no": "",
      "license_date": null,
      "expire_date": null
    },
    {
      "name": "すき家　141号佐久平店",
      "name_kana": "スキヤ　ヒャクヨンジュウイチゴウサクダイラテン",
      "business_type": "① 飲食店営業",
      "address": "長野県佐久市長土呂260-1",
      "lat": 36.280945,
      "lng": 138.470156,
      "geocoding_level": null,
      "phone": "",
      "license_no": "01144531",
      "license_date": "2023-06-30",
      "expire_date": "2029-06-30"
    },
    {
      "name": "すき家　141号佐久平店",
      "name_kana": "スキヤ　ヒャクヨンジュウイチゴウサクダイラテン",
      "business_type": "⑬ その他の食料・飲料販売業",
      "address": "長野県佐久市長土呂260-1",
      "lat": 36.280945,
      "lng": 138.470156,
      "geocoding_level": null,
      "phone": "",
      "license_no": "",
      "license_date": null,
      "expire_date": null
    },
    {
      "name": "すき家　１４１号　佐久跡部店",
      "name_kana": "スキヤ　ジュウイチゴウ　サクアトベテン",
      "business_type": "① 飲食店営業",
      "address": "長野県佐久市跡部４６-４",
      "lat": 36.231581,
      "lng": 138.45719,
      "geocoding_level": null,
      "phone": "",
      "license_no": "01188606",
      "license_date": "2025-10-31",
      "expire_date": "2031-10-31"
    },
    {
      "name": "すき家　１４１号　佐久跡部店",
      "name_kana": "スキヤ　ヒャクヨンジュウイチゴウ　サクアトベテン",
      "business_type": "⑬ その他の食料・飲料販売業",
      "address": "長野県佐久市跡部46-4",
      "lat": 36.231581,
      "lng": 138.45719,
      "geocoding_level": null,
      "phone": "",
      "license_no": "",
      "license_date": null,
      "expire_date": null
    },
    {
      "name": "ウエルシア佐久市役所前店",
      "name_kana": "ウエルシアサクシヤクショマエテン",
      "business_type": "⑪ 百貨店、総合スーパー",
      "address": "長野県佐久市中込3016-3",
      "lat": 36.24614,
      "lng": 138.476109,
      "geocoding_level": null,
      "phone": "0267-64-2550",
      "license_no": "",
      "license_date": null,
      "expire_date": null
    },
    {
      "name": "ウエルシア佐久市役所前店",
      "name_kana": "ウエルシアサクシヤクショマエテン",
      "business_type": "⑫ 自動販売機による販売業（コップ式自動販売機（自動洗浄・屋内設置）及び営業許可の対象となる自動販売機を除く）",
      "address": "長野県佐久市中込3016-3",
      "lat": 36.24614,
      "lng": 138.476109,
      "geocoding_level": null,
      "phone": "0267-64-2550",
      "license_no": "",
      "license_date": null,
      "expire_date": null
    },
    {
      "name": "佐久市立大沢保育園",
      "name_kana": "サクシリツオオサワホイクエン",
      "business_type": "㉖ 集団給食施設",
      "address": "長野県佐久市大沢789-1",
      "lat": 36.209928,
      "lng": 138.455376,
      "geocoding_level": null,
      "phone": "0267-62-1128",
      "license_no": "",
      "license_date": null,
      "expire_date": null
    },
    {
      "name": "佐久市立中込第一保育園",
      "name_kana": "サクシリツナカゴミダイイチホイクエン",
      "business_type": "㉖ 集団給食施設",
      "address": "長野県佐久市中込3-24-5",
      "lat": 36.225527,
      "lng": 138.478328,
      "geocoding_level": null,
      "phone": "0267-62-0644",
      "license_no": "",
      "license_date": null,
      "expire_date": null
    },
    {
      "name": "ココノホップ",
      "name_kana": "ココノホップ",
      "business_type": "① 飲食店営業",
      "address": "長野県佐久市",
      "lat": 36.248797,
      "lng": 138.47685,
      "geocoding_level": null,
      "phone": "080-1317-2818",
      "license_no": "01231541",
      "license_date": "2025-07-31",
      "expire_date": "2030-07-31"
    },
    {
      "name": "泉保育園",
      "name_kana": "イズミホイクエン",
      "business_type": "㉖ 集団給食施設",
      "address": "長野県佐久市三塚300-2",
      "lat": 36.229756,
      "lng": 138.449488,
      "geocoding_level": null,
      "phone": "0267-62-1259",
      "license_no": "",
      "license_date": null,
      "expire_date": null
    },
    {
      "name": "中込第二保育園",
      "name_kana": "ナカゴミダイニホイクエン",
      "business_type": "㉖ 集団給食施設",
      "address": "長野県佐久市中込1790",
      "lat": 36.239121,
      "lng": 138.471659,
      "geocoding_level": null,
      "phone": "0267-62-0432",
      "license_no": "",
      "license_date": null,
      "expire_date": null
    },
    {
      "name": "城山保育園",
      "name_kana": "ジョウヤマホイクエン",
      "business_type": "㉖ 集団給食施設",
      "address": "長野県佐久市平賀4195",
      "lat": 36.229395,
      "lng": 138.504114,
      "geocoding_level": null,
      "phone": "0267-78-3691",
      "license_no": "",
      "license_date": null,
      "expire_date": null
    },
    {
      "name": "東保育園",
      "name_kana": "ヒガシホイクエン",
      "business_type": "㉖ 集団給食施設",
      "address": "長野県佐久市新子田880-2",
      "lat": 36.258518,
      "lng": 138.503603,
      "geocoding_level": null,
      "phone": "0267-67-2271",
      "license_no": "",
      "license_date": null,
      "expire_date": null
    },
    {
      "name": "平根保育園",
      "name_kana": "ヒラネホイクエン",
      "business_type": "㉖ 集団給食施設",
      "address": "長野県佐久市上平尾847-3",
      "lat": 36.282023,
      "lng": 138.498916,
      "geocoding_level": null,
      "phone": "0267-67-2094",
      "license_no": "",
      "license_date": null,
      "expire_date": null
    },
    {
      "name": "岩村田保育園",
      "name_kana": "イワムラダホイクエン",
      "business_type": "㉖ 集団給食施設",
      "address": "長野県佐久市岩村田5088",
      "lat": 36.268784,
      "lng": 138.486145,
      "geocoding_level": null,
      "phone": "0267-67-2281",
      "license_no": "",
      "license_date": null,
      "expire_date": null
    },
    {
      "name": "中佐都保育園",
      "name_kana": "ナカサトホイクエン",
      "business_type": "㉖ 集団給食施設",
      "address": "長野県佐久市塚原787-1",
      "lat": 36.269024,
      "lng": 138.449734,
      "geocoding_level": null,
      "phone": "0267-67-3419",
      "license_no": "",
      "license_date": null,
      "expire_date": null
    },
    {
      "name": "高瀬保育園",
      "name_kana": "タカセホイクエン",
      "business_type": "㉖ 集団給食施設",
      "address": "長野県佐久市鳴瀬1371",
      "lat": 36.254728,
      "lng": 138.440609,
      "geocoding_level": null,
      "phone": "0267-67-2155",
      "license_no": "",
      "license_date": null,
      "expire_date": null
    },
    {
      "name": "切原保育園",
      "name_kana": "キリハラホイクエン",
      "business_type": "㉖ 集団給食施設",
      "address": "長野県佐久市中小田切96",
      "lat": 36.180928,
      "lng": 138.464672,
      "geocoding_level": null,
      "phone": "0267-82-2180",
      "license_no": "",
      "license_date": null,
      "expire_date": null
    },
    {
      "name": "田口保育園",
      "name_kana": "タグチホイクエン",
      "business_type": "㉖ 集団給食施設",
      "address": "長野県佐久市田口3117",
      "lat": 36.195961,
      "lng": 138.499716,
      "geocoding_level": null,
      "phone": "0267-82-2602",
      "license_no": "",
      "license_date": null,
      "expire_date": null
    },
    {
      "name": "青沼保育園",
      "name_kana": "アオヌマホイクエン",
      "business_type": "㉖ 集団給食施設",
      "address": "長野県佐久市入沢232-2",
      "lat": 36.178827,
      "lng": 138.491182,
      "geocoding_level": null,
      "phone": "0267-82-3110",
      "license_no": "",
      "license_date": null,
      "expire_date": null
    },
    {
      "name": "もちづき保育園",
      "name_kana": "モチヅキホイクエン",
      "business_type": "㉖ 集団給食施設",
      "address": "長野県佐久市協和7430-1",
      "lat": 36.250967,
      "lng": 138.359629,
      "geocoding_level": null,
      "phone": "0267-54-7430",
      "license_no": "",
      "license_date": null,
      "expire_date": null
    },
    {
      "name": "あさしな保育園",
      "name_kana": "アサシナホイクエン",
      "business_type": "㉖ 集団給食施設",
      "address": "長野県佐久市御馬寄715-1",
      "lat": 36.268175,
      "lng": 138.407581,
      "geocoding_level": null,
      "phone": "0267-51-5005",
      "license_no": "",
      "license_date": null,
      "expire_date": null
    },
    {
      "name": "ＡＤＡＭＯ",
      "name_kana": "アダモ",
      "business_type": "⑬ その他の食料・飲料販売業",
      "address": "長野県佐久市春日大河原峠",
      "lat": 36.112397,
      "lng": 138.319394,
      "geocoding_level": null,
      "phone": "",
      "license_no": "",
      "license_date": null,
      "expire_date": null
    },
    {
      "name": "麺屋　えびす",
      "name_kana": "メンヤ　エビス",
      "business_type": "① 飲食店営業",
      "address": "長野県佐久市岩村田１４５６－１",
      "lat": 36.271342,
      "lng": 138.465628,
      "geocoding_level": null,
      "phone": "0267-77-7506",
      "license_no": "01236920",
      "license_date": "2023-06-30",
      "expire_date": "2029-06-30"
    },
    {
      "name": "ｕｃｈｉｄｅ　ＣＡＦＥ",
      "name_kana": "ウチデ　カフェ",
      "business_type": "① 飲食店営業",
      "address": "長野県佐久市野沢13-1",
      "lat": 36.223819,
      "lng": 138.468477,
      "geocoding_level": null,
      "phone": "0267-88-5080",
      "license_no": "01257898",
      "license_date": "2021-10-08",
      "expire_date": "2027-10-31"
    },
    {
      "name": "イオンモール佐久平店駐車場",
      "name_kana": "イオンモールサクダイラテンチュウシャジョウ",
      "business_type": "① 飲食店営業",
      "address": "長野県佐久市佐久平駅南11－10",
      "lat": 36.275156,
      "lng": 138.463251,
      "geocoding_level": null,
      "phone": "",
      "license_no": "01264914",
      "license_date": "2023-05-23",
      "expire_date": "2028-05-31"
    },
    {
      "name": "佐久市学校給食浅科センター",
      "name_kana": "サクシガッコウキュウショクアサシナセンター",
      "business_type": "㉖ 集団給食施設",
      "address": "長野県佐久市甲2003-1",
      "lat": 36.268239,
      "lng": 138.406526,
      "geocoding_level": null,
      "phone": "0267-58-2103",
      "license_no": "",
      "license_date": null,
      "expire_date": null
    },
    {
      "name": "佐久市学校給食望月センター",
      "name_kana": "サクシガッコウキュウショクモチヅキセンター",
      "business_type": "㉖ 集団給食施設",
      "address": "長野県佐久市協和6925",
      "lat": 36.249647,
      "lng": 138.358678,
      "geocoding_level": null,
      "phone": "",
      "license_no": "",
      "license_date": null,
      "expire_date": null
    },
    {
      "name": "松本農場",
      "name_kana": "マツモトノウジョウ",
      "business_type": "㉔ その他の食料品製造・加工業",
      "address": "長野県佐久市小宮山162-1",
      "lat": 36.228696,
      "lng": 138.442523,
      "geocoding_level": null,
      "phone": "0267-62-9253",
      "license_no": "",
      "license_date": null,
      "expire_date": null
    },
    {
      "name": "山浦　哲",
      "name_kana": "ヤマウラ　サトル",
      "business_type": "⑳ 精穀・製粉業",
      "address": "長野県佐久市御馬寄321",
      "lat": 36.266625,
      "lng": 138.411296,
      "geocoding_level": null,
      "phone": "0267-58-2775",
      "license_no": "",
      "license_date": null,
      "expire_date": null
    },
    {
      "name": "長野吉田工業株式会社　ワークス小田井",
      "name_kana": "ナガノヨシダコウギョウカブシキガイシャ　ワークスオタイ",
      "business_type": "㉗ 器具、容器包装の製造・加工業（合成樹脂が使用された器具又は容器包装の製造、加工に限る。）",
      "address": "長野県佐久市小田井1077-21",
      "lat": 36.296966,
      "lng": 138.496916,
      "geocoding_level": null,
      "phone": "0267-68-9111",
      "license_no": "",
      "license_date": null,
      "expire_date": null
    },
    {
      "name": "長野吉田工業株式会社　本社",
      "name_kana": "ナガノヨシダコウギョウカブシキガイシャ　ホンシャ",
      "business_type": "㉗ 器具、容器包装の製造・加工業（合成樹脂が使用された器具又は容器包装の製造、加工に限る。）",
      "address": "長野県佐久市中込３４２１",
      "lat": 36.252583,
      "lng": 138.476031,
      "geocoding_level": null,
      "phone": "0267-62-7771",
      "license_no": "",
      "license_date": null,
      "expire_date": null
    },
    {
      "name": "彩り",
      "name_kana": "イロドリ",
      "business_type": "① 飲食店営業",
      "address": "長野県佐久市",
      "lat": 36.248797,
      "lng": 138.47685,
      "geocoding_level": null,
      "phone": "",
      "license_no": "01261100",
      "license_date": "2022-07-25",
      "expire_date": "2027-07-31"
    },
    {
      "name": "にっこり農園なかしま",
      "name_kana": "ニッコリノウエンナカシマ",
      "business_type": "⑧ 米穀類販売業",
      "address": "長野県佐久市下越3-3",
      "lat": 36.19934,
      "lng": 138.48632,
      "geocoding_level": null,
      "phone": "0267-82-5711",
      "license_no": "",
      "license_date": null,
      "expire_date": null
    },
    {
      "name": "ゆうきと寿し",
      "name_kana": "ユウキトズシ",
      "business_type": "① 飲食店営業",
      "address": "長野県佐久市岩村田１７６３",
      "lat": 36.267181,
      "lng": 138.46579,
      "geocoding_level": null,
      "phone": "0267-88-6619",
      "license_no": "01235575",
      "license_date": "2023-06-30",
      "expire_date": "2029-06-30"
    },
    {
      "name": "ケンタッキーフライドチキン　イオン佐久平店",
      "name_kana": "ケンタッキーフライドチキン　イオンサクダイラテン",
      "business_type": "⑬ その他の食料・飲料販売業",
      "address": "長野県佐久市佐久平駅南11-10",
      "lat": 36.275156,
      "lng": 138.463251,
      "geocoding_level": null,
      "phone": "",
      "license_no": "",
      "license_date": null,
      "expire_date": null
    },
    {
      "name": "樫山工業　精機工場食堂",
      "name_kana": "カシヤマコウギョウ　セイキコウジョウショクドウ",
      "business_type": "① 飲食店営業",
      "address": "長野県佐久市根々井49-3",
      "lat": 36.258358,
      "lng": 138.469121,
      "geocoding_level": null,
      "phone": "0267678014",
      "license_no": "01258224",
      "license_date": "2021-11-05",
      "expire_date": "2028-06-30"
    },
    {
      "name": "樫山工業　第二工場食堂",
      "name_kana": "カシヤマコウギョウ　ダイニコウジョウショクドウ",
      "business_type": "① 飲食店営業",
      "address": "長野県佐久市横和１番地１",
      "lat": 36.256288,
      "lng": 138.466237,
      "geocoding_level": null,
      "phone": "0267-67-8014",
      "license_no": "01264309",
      "license_date": "2023-05-02",
      "expire_date": "2029-06-30"
    },
    {
      "name": "斉藤商店",
      "name_kana": "サイトウショウテン",
      "business_type": "① 飲食店営業",
      "address": "長野県佐久市",
      "lat": 36.248797,
      "lng": 138.47685,
      "geocoding_level": null,
      "phone": "",
      "license_no": "01239359",
      "license_date": "2022-05-31",
      "expire_date": "2027-05-31"
    },
    {
      "name": "越中屋商店",
      "name_kana": "エッチュウヤショウテン",
      "business_type": "㉙ 漬物製造業",
      "address": "長野県佐久市中込１－２９－５",
      "lat": 36.228347,
      "lng": 138.478173,
      "geocoding_level": null,
      "phone": "0267-62-0024",
      "license_no": "01258103",
      "license_date": "2021-10-22",
      "expire_date": "2027-05-31"
    },
    {
      "name": "（株）越中屋商店",
      "name_kana": "カブシキガイシャエッチュウヤショウテン",
      "business_type": "① 飲食店営業",
      "address": "長野県佐久市中込１－２９－５",
      "lat": 36.228347,
      "lng": 138.478173,
      "geocoding_level": null,
      "phone": "0267-62-0024",
      "license_no": "01106880",
      "license_date": "2025-05-30",
      "expire_date": "2030-05-31"
    },
    {
      "name": "（株）越中屋商店",
      "name_kana": "カブシキガイシャエッチュウヤショウテン",
      "business_type": "④ 魚介類販売業",
      "address": "長野県佐久市中込１－２９－５",
      "lat": 36.228347,
      "lng": 138.478173,
      "geocoding_level": null,
      "phone": "0267-62-0024",
      "license_no": "01106907",
      "license_date": "2025-05-30",
      "expire_date": "2030-05-31"
    },
    {
      "name": "つばさホール　佐久中央店",
      "name_kana": "ツバサホール　サクチュウオウテン",
      "business_type": "① 飲食店営業",
      "address": "長野県佐久市中込3150-1",
      "lat": 36.254961,
      "lng": 138.479107,
      "geocoding_level": null,
      "phone": "0120-123-300",
      "license_no": "01258135",
      "license_date": "2021-10-29",
      "expire_date": "2027-05-31"
    },
    {
      "name": "佐久医療センター職員食堂",
      "name_kana": "サクイリョウセンターショクインショクドウ",
      "business_type": "③ 乳類販売業",
      "address": "長野県佐久市中込",
      "lat": 36.242424,
      "lng": 138.471229,
      "geocoding_level": null,
      "phone": "",
      "license_no": "",
      "license_date": null,
      "expire_date": null
    },
    {
      "name": "イオン佐久平店屋上",
      "name_kana": "イオンサクダイラオクジョウ",
      "business_type": "③ 乳類販売業",
      "address": "長野県佐久市佐久平駅南",
      "lat": 36.274995,
      "lng": 138.464359,
      "geocoding_level": null,
      "phone": "",
      "license_no": "",
      "license_date": null,
      "expire_date": null
    },
    {
      "name": "イオン佐久平１Ｆ食品側",
      "name_kana": "イオンサクダイライッカイショクヒンガワ",
      "business_type": "③ 乳類販売業",
      "address": "長野県佐久市佐久平駅南",
      "lat": 36.274995,
      "lng": 138.464359,
      "geocoding_level": null,
      "phone": "",
      "license_no": "",
      "license_date": null,
      "expire_date": null
    },
    {
      "name": "ナムコランド佐久平店キッズコーナー",
      "name_kana": "ナムコランドサクダイラテンキッズコーナー",
      "business_type": "③ 乳類販売業",
      "address": "長野県佐久市佐久平駅南",
      "lat": 36.274995,
      "lng": 138.464359,
      "geocoding_level": null,
      "phone": "",
      "license_no": "",
      "license_date": null,
      "expire_date": null
    },
    {
      "name": "佐久平総合技術高等学校",
      "name_kana": "サクダイラソウゴウギジュツコウトウガッコウ",
      "business_type": "③ 乳類販売業",
      "address": "長野県佐久市岩村田",
      "lat": 36.271564,
      "lng": 138.476227,
      "geocoding_level": null,
      "phone": "",
      "license_no": "",
      "license_date": null,
      "expire_date": null
    },
    {
      "name": "佐久医療センター２Ｆ東病棟",
      "name_kana": "サクイリョウセンターニカイミナミビョウトウ",
      "business_type": "③ 乳類販売業",
      "address": "長野県佐久市中込",
      "lat": 36.242424,
      "lng": 138.471229,
      "geocoding_level": null,
      "phone": "",
      "license_no": "",
      "license_date": null,
      "expire_date": null
    },
    {
      "name": "ツルヤ野沢店（ＢＰ）",
      "name_kana": "ツルヤノザワテン",
      "business_type": "③ 乳類販売業",
      "address": "長野県佐久市野沢 字瀧谷１－１９１",
      "lat": 36.224687,
      "lng": 138.461236,
      "geocoding_level": null,
      "phone": "",
      "license_no": "",
      "license_date": null,
      "expire_date": null
    },
    {
      "name": "パチンコパゴパゴ野沢店",
      "name_kana": "パチンコパゴパゴノザワテン",
      "business_type": "⑤ コップ式自動販売機（自動洗浄・屋内設置）",
      "address": "長野県佐久市本新町200－1",
      "lat": 36.213167,
      "lng": 138.463778,
      "geocoding_level": null,
      "phone": "0267637111",
      "license_no": "",
      "license_date": null,
      "expire_date": null
    },
    {
      "name": "株式会社サイゼリヤイオンモール佐久平店",
      "name_kana": "カブシキガイシャサイゼリヤイオンモールサクダイラテン",
      "business_type": "⑬ その他の食料・飲料販売業",
      "address": "長野県佐久市佐久平駅南11-10 イオンモール佐久平２Ｆ",
      "lat": 36.275156,
      "lng": 138.463251,
      "geocoding_level": null,
      "phone": "0267-66-6167",
      "license_no": "",
      "license_date": null,
      "expire_date": null
    },
    {
      "name": "そば処　内",
      "name_kana": "ソバドコロ　ウチ",
      "business_type": "① 飲食店営業",
      "address": "長野県佐久市小田井６１６",
      "lat": 36.291371,
      "lng": 138.489869,
      "geocoding_level": null,
      "phone": "080-2379-1110",
      "license_no": "01258174",
      "license_date": "2021-10-29",
      "expire_date": "2028-06-30"
    },
    {
      "name": "そば処　内",
      "name_kana": "ソバドコロ　ウチ",
      "business_type": "㉔ 麺類製造業",
      "address": "長野県佐久市小田井６１６",
      "lat": 36.291371,
      "lng": 138.489869,
      "geocoding_level": null,
      "phone": "080-2379-1110",
      "license_no": "01258181",
      "license_date": "2021-10-29",
      "expire_date": "2028-06-30"
    },
    {
      "name": "ニチイケアセンター佐久",
      "name_kana": "ニチイケアセンターサク",
      "business_type": "㉖ 集団給食施設",
      "address": "長野県佐久市岩村田5010-1",
      "lat": 36.275861,
      "lng": 138.473279,
      "geocoding_level": null,
      "phone": "",
      "license_no": "",
      "license_date": null,
      "expire_date": null
    },
    {
      "name": "ニチイケアセンターなかごみ",
      "name_kana": "ニチイケアセンターナカゴミ",
      "business_type": "㉖ 集団給食施設",
      "address": "長野県佐久市中込字中原3639-35",
      "lat": 36.251126,
      "lng": 138.468126,
      "geocoding_level": null,
      "phone": "",
      "license_no": "",
      "license_date": null,
      "expire_date": null
    },
    {
      "name": "ニチイケアセンターなかごみ",
      "name_kana": "ニチイケアセンターナカゴミ",
      "business_type": "㉖ 集団給食施設",
      "address": "長野県佐久市中込字中原3639-35",
      "lat": 36.266159,
      "lng": 138.403665,
      "geocoding_level": null,
      "phone": "",
      "license_no": "",
      "license_date": null,
      "expire_date": null
    },
    {
      "name": "市民交流ひろば　太陽のひろば",
      "name_kana": "シミンコウリュウヒロバ　タイヨウノヒロバ",
      "business_type": "⑬ その他の食料・飲料販売業",
      "address": "長野県佐久市佐久平駅南4-3",
      "lat": 36.275404,
      "lng": 138.461441,
      "geocoding_level": null,
      "phone": "",
      "license_no": "",
      "license_date": null,
      "expire_date": null
    },
    {
      "name": "佐久市農業祭",
      "name_kana": "サクシノウギョウサイ",
      "business_type": "① 飲食店営業",
      "address": "長野県佐久市中込３０５６",
      "lat": 36.248778,
      "lng": 138.476773,
      "geocoding_level": null,
      "phone": "0267-62-2111",
      "license_no": "01184497",
      "license_date": "2022-05-31",
      "expire_date": "2027-05-31"
    },
    {
      "name": "イオンモール佐久平",
      "name_kana": "イオンモールサクダイラ",
      "business_type": "⑬ その他の食料・飲料販売業",
      "address": "長野県佐久市佐久平駅南11-10",
      "lat": 36.275862,
      "lng": 138.466076,
      "geocoding_level": null,
      "phone": "",
      "license_no": "",
      "license_date": null,
      "expire_date": null
    },
    {
      "name": "Mons　Mare",
      "name_kana": "モンス　マーレ",
      "business_type": "① 飲食店営業",
      "address": "長野県佐久市",
      "lat": 36.248797,
      "lng": 138.47685,
      "geocoding_level": null,
      "phone": "",
      "license_no": "01258217",
      "license_date": "2021-10-29",
      "expire_date": "2026-10-31"
    },
    {
      "name": "タリーズコーヒー佐久平店",
      "name_kana": "タリーズコーヒーサクダイラテン",
      "business_type": "① 飲食店営業",
      "address": "長野県佐久市岩村田５５０２番地４１",
      "lat": 36.271734,
      "lng": 138.461582,
      "geocoding_level": null,
      "phone": "0267-78-5088",
      "license_no": "01261890",
      "license_date": "2022-09-22",
      "expire_date": "2029-06-30"
    },
    {
      "name": "JAファーム佐久店",
      "name_kana": "ジェイエイファームサクテン",
      "business_type": "⑦ 野菜果物販売業",
      "address": "長野県佐久市佐久市27-1",
      "lat": 36.248797,
      "lng": 138.47685,
      "geocoding_level": null,
      "phone": "0267-66-3300",
      "license_no": "",
      "license_date": null,
      "expire_date": null
    },