{
  "meta": {
    "updated": 1783568789,
    "sources": [
      {
        "source": "厚生労働省 食品衛生申請等システム（オープンデータ）",
        "license": "公共データ利用規約（第1.0版, PDL1.0）"
      }
    ]
  },
  "data": [
    {
      "name": "ハイパーフィット南岩国",
      "name_kana": "ハイパーフィットミナミイワクニ",
      "business_type": "⑫ 自動販売機による販売業（コップ式自動販売機（自動洗浄・屋内設置）及び営業許可の対象となる自動販売機を除く）",
      "address": "山口県岩国市南岩国町2-5-38",
      "lat": 34.136916,
      "lng": 132.194535,
      "geocoding_level": null,
      "phone": "0827-28-622",
      "license_no": "",
      "license_date": null,
      "expire_date": null
    },
    {
      "name": "西日本フード株式会社",
      "name_kana": "ニシニッポンフード",
      "business_type": "① 魚介類販売業（包装済みの魚介類のみの販売）",
      "address": "山口県岩国市周東町差川１７４９番地１",
      "lat": 34.075685,
      "lng": 132.023736,
      "geocoding_level": null,
      "phone": "0827-84-5000",
      "license_no": "",
      "license_date": null,
      "expire_date": null
    },
    {
      "name": "西日本フード株式会社",
      "name_kana": "ニシニッポンフード",
      "business_type": "② 食肉販売業（包装済みの食肉のみの販売）",
      "address": "山口県岩国市周東町差川１７４９番地１",
      "lat": 34.075685,
      "lng": 132.023736,
      "geocoding_level": null,
      "phone": "0827-84-5000",
      "license_no": "",
      "license_date": null,
      "expire_date": null
    },
    {
      "name": "西日本フード株式会社",
      "name_kana": "ニシニッポンフード",
      "business_type": "⑦ 野菜果物販売業",
      "address": "山口県岩国市周東町差川１７４９番地１",
      "lat": 34.075685,
      "lng": 132.023736,
      "geocoding_level": null,
      "phone": "0827-84-5000",
      "license_no": "",
      "license_date": null,
      "expire_date": null
    },
    {
      "name": "西日本フード株式会社",
      "name_kana": "ニシニッポンフード",
      "business_type": "⑬ その他の食料・飲料販売業",
      "address": "山口県岩国市周東町差川１７４９番地１",
      "lat": 34.075685,
      "lng": 132.023736,
      "geocoding_level": null,
      "phone": "0827-84-5000",
      "license_no": "",
      "license_date": null,
      "expire_date": null
    },
    {
      "name": "ダイソー　南岩国店",
      "name_kana": "ダイソー　ミナミイワクニテン",
      "business_type": "⑬ その他の食料・飲料販売業",
      "address": "山口県岩国市南岩国町３－５－５８",
      "lat": 34.131405,
      "lng": 132.201717,
      "geocoding_level": null,
      "phone": "",
      "license_no": "",
      "license_date": null,
      "expire_date": null
    },
    {
      "name": "コーナンホームストック美和店",
      "name_kana": "コーナンホームストックミワテン",
      "business_type": "⑪ 百貨店、総合スーパー",
      "address": "山口県岩国市美和町渋前字壱町田1395番地1",
      "lat": 34.220908,
      "lng": 132.093018,
      "geocoding_level": null,
      "phone": "0827-95-1231",
      "license_no": "",
      "license_date": null,
      "expire_date": null
    },
    {
      "name": "三菱ふそうトラック・バス株式会社　中国ふそう岩国支店",
      "name_kana": "ミツビシフソウトラック・バスカブシキガイシャ　チュウゴクフソウイワクニシテン",
      "business_type": "② 調理機能を有する自動販売機（要許可）",
      "address": "山口県岩国市岩国五丁目6-15",
      "lat": 34.175536,
      "lng": 132.182772,
      "geocoding_level": null,
      "phone": "0827-41-0125",
      "license_no": "令４岩健第20-213号",
      "license_date": "2022-11-04",
      "expire_date": "2027-11-30"
    },
    {
      "name": "MakingBodyFitnessGYM",
      "name_kana": "メイキングボディフィットネスジム",
      "business_type": "⑫ 自動販売機による販売業（コップ式自動販売機（自動洗浄・屋内設置）及び営業許可の対象となる自動販売機を除く）",
      "address": "山口県岩国市南岩国町1-24-59-1",
      "lat": 34.134126,
      "lng": 132.201456,
      "geocoding_level": null,
      "phone": "",
      "license_no": "",
      "license_date": null,
      "expire_date": null
    },
    {
      "name": "ｱｸﾄｽWill_Gマルキュウ錦見",
      "name_kana": "アクトスウィルジーマルキュウニシキミ",
      "business_type": "⑫ 自動販売機による販売業（コップ式自動販売機（自動洗浄・屋内設置）及び営業許可の対象となる自動販売機を除く）",
      "address": "山口県岩国市錦見8-21-56",
      "lat": 34.164735,
      "lng": 132.199897,
      "geocoding_level": null,
      "phone": "",
      "license_no": "",
      "license_date": null,
      "expire_date": null
    },
    {
      "name": "味六食堂　山口岩国店",
      "name_kana": "アジロクショクドウ　ヤマグチイワクニテン",
      "business_type": "① 飲食店営業",
      "address": "山口県岩国市装束町一丁目4-4",
      "lat": 34.193757,
      "lng": 132.231079,
      "geocoding_level": null,
      "phone": "070-1455-630一",
      "license_no": "令8岩健第20-1の2-9号",
      "license_date": "2026-04-23",
      "expire_date": "2032-05-31"
    },
    {
      "name": "やまや南岩国店",
      "name_kana": "ヤマヤミナミイワクニテン",
      "business_type": "① 魚介類販売業（包装済みの魚介類のみの販売）",
      "address": "山口県岩国市南岩国町3-22-63",
      "lat": 34.132354,
      "lng": 132.199292,
      "geocoding_level": null,
      "phone": "",
      "license_no": "",
      "license_date": null,
      "expire_date": null
    },
    {
      "name": "やまや南岩国店",
      "name_kana": "ヤマヤミナミイワクニテン",
      "business_type": "② 食肉販売業（包装済みの食肉のみの販売）",
      "address": "山口県岩国市南岩国町3-22-63",
      "lat": 34.132354,
      "lng": 132.199292,
      "geocoding_level": null,
      "phone": "",
      "license_no": "",
      "license_date": null,
      "expire_date": null
    },
    {
      "name": "やまや南岩国店",
      "name_kana": "ヤマヤミナミイワクニテン",
      "business_type": "③ 乳類販売業",
      "address": "山口県岩国市南岩国町3-22-63",
      "lat": 34.132354,
      "lng": 132.199292,
      "geocoding_level": null,
      "phone": "",
      "license_no": "",
      "license_date": null,
      "expire_date": null
    },
    {
      "name": "アルク南岩国店　清流物語",
      "name_kana": "アルクミナミイワクニテン　セイリュウモノガタリ",
      "business_type": "⑫ 自動販売機による販売業（コップ式自動販売機（自動洗浄・屋内設置）及び営業許可の対象となる自動販売機を除く）",
      "address": "山口県岩国市南岩国町3-8-63",
      "lat": 34.127745,
      "lng": 132.200922,
      "geocoding_level": null,
      "phone": "",
      "license_no": "",
      "license_date": null,
      "expire_date": null
    },
    {
      "name": "アルク玖珂店　清流物語",
      "name_kana": "アルククガテン　セイリュウモノガタリ",
      "business_type": "⑫ 自動販売機による販売業（コップ式自動販売機（自動洗浄・屋内設置）及び営業許可の対象となる自動販売機を除く）",
      "address": "山口県岩国市玖珂町1014-1",
      "lat": 34.096663,
      "lng": 132.087453,
      "geocoding_level": null,
      "phone": "",
      "license_no": "",
      "license_date": null,
      "expire_date": null
    },
    {
      "name": "アルク西岩国店　清流物語",
      "name_kana": "アルクニシイワクニテン　セイリュウモノガタリ",
      "business_type": "⑫ 自動販売機による販売業（コップ式自動販売機（自動洗浄・屋内設置）及び営業許可の対象となる自動販売機を除く）",
      "address": "山口県岩国市錦見5-17-13",
      "lat": 34.165158,
      "lng": 132.19138,
      "geocoding_level": null,
      "phone": "",
      "license_no": "",
      "license_date": null,
      "expire_date": null
    },
    {
      "name": "マルキュウ川西店　清流物語",
      "name_kana": "マルキュウカワニシテン　セイリュウモノガタリ",
      "business_type": "⑫ 自動販売機による販売業（コップ式自動販売機（自動洗浄・屋内設置）及び営業許可の対象となる自動販売機を除く）",
      "address": "山口県岩国市川西2-7-16",
      "lat": 34.158,
      "lng": 132.17664,
      "geocoding_level": null,
      "phone": "",
      "license_no": "",
      "license_date": null,
      "expire_date": null
    },
    {
      "name": "マルキュウ由宇店　清流物語",
      "name_kana": "マルキュウユウテン　セイリュウモノガタリ",
      "business_type": "⑫ 自動販売機による販売業（コップ式自動販売機（自動洗浄・屋内設置）及び営業許可の対象となる自動販売機を除く）",
      "address": "山口県岩国市由宇町北1-4-1",
      "lat": 34.048496,
      "lng": 132.211273,
      "geocoding_level": null,
      "phone": "",
      "license_no": "",
      "license_date": null,
      "expire_date": null
    },
    {
      "name": "中央フード平田店　清流物語",
      "name_kana": "チュウオウフードヒラタテン　セイリュウモノガタリ",
      "business_type": "⑫ 自動販売機による販売業（コップ式自動販売機（自動洗浄・屋内設置）及び営業許可の対象となる自動販売機を除く）",
      "address": "山口県岩国市南岩国町二丁目76-27",
      "lat": 34.139305,
      "lng": 132.192386,
      "geocoding_level": null,
      "phone": "",
      "license_no": "",
      "license_date": null,
      "expire_date": null
    },
    {
      "name": "中央フード山手店　清流物語",
      "name_kana": "チュウオウフードヤマテテン　セイリュウモノガタリ",
      "business_type": "⑫ 自動販売機による販売業（コップ式自動販売機（自動洗浄・屋内設置）及び営業許可の対象となる自動販売機を除く）",
      "address": "山口県岩国市山手町2-7-9",
      "lat": 34.16566,
      "lng": 132.214732,
      "geocoding_level": null,
      "phone": "",
      "license_no": "",
      "license_date": null,
      "expire_date": null
    },
    {
      "name": "中央フード川下店　清流物語",
      "name_kana": "チュウオウフードカワシモテン　セイリュウモノガタリ",
      "business_type": "⑫ 自動販売機による販売業（コップ式自動販売機（自動洗浄・屋内設置）及び営業許可の対象となる自動販売機を除く）",
      "address": "山口県岩国市中津町2-16-5",
      "lat": 34.154698,
      "lng": 132.218187,
      "geocoding_level": null,
      "phone": "",
      "license_no": "",
      "license_date": null,
      "expire_date": null
    },
    {
      "name": "中央フード多田店　清流物語",
      "name_kana": "チュウオウフードタダテン　セイリュウモノガタリ",
      "business_type": "⑫ 自動販売機による販売業（コップ式自動販売機（自動洗浄・屋内設置）及び営業許可の対象となる自動販売機を除く）",
      "address": "山口県岩国市多田2-111-7",
      "lat": 34.180087,
      "lng": 132.165827,
      "geocoding_level": null,
      "phone": "",
      "license_no": "",
      "license_date": null,
      "expire_date": null
    },
    {
      "name": "ジョイフル山口周東店",
      "name_kana": "ジョイフルヤマグチシュウトウテン",
      "business_type": "① 飲食店営業",
      "address": "山口県岩国市周東町下久原1869-1",
      "lat": 34.09187,
      "lng": 132.044558,
      "geocoding_level": null,
      "phone": "0827-83-0211",
      "license_no": "令6岩健第20-151号",
      "license_date": "2024-08-27",
      "expire_date": "2030-08-31"
    },
    {
      "name": "フレスタ　室の木店",
      "name_kana": "フレスタ　ムロノキテン",
      "business_type": "⑪ 百貨店、総合スーパー",
      "address": "山口県岩国市室の木町一丁目4番72号",
      "lat": 34.170237,
      "lng": 132.212579,
      "geocoding_level": null,
      "phone": "0827-30-1818",
      "license_no": "",
      "license_date": null,
      "expire_date": null
    },
    {
      "name": "フレスタ　室の木店(寿司)",
      "name_kana": "フレスタ　ムロノキテン　スシ",
      "business_type": "① 飲食店営業",
      "address": "山口県岩国市室の木町一丁目4番72号",
      "lat": 34.170237,
      "lng": 132.212579,
      "geocoding_level": null,
      "phone": "0827-30-1818",
      "license_no": "令7岩健第20-224号",
      "license_date": "2025-11-14",
      "expire_date": "2031-11-30"
    },
    {
      "name": "フレスタ　室の木店(惣菜)",
      "name_kana": "フレスタ　ムロノキテン　ソウザイ",
      "business_type": "① 飲食店営業",
      "address": "山口県岩国市室の木町一丁目4番72号",
      "lat": 34.170237,
      "lng": 132.212579,
      "geocoding_level": null,
      "phone": "0827-30-1818",
      "license_no": "令7岩健第20-223号",
      "license_date": "2025-11-14",
      "expire_date": "2031-11-30"
    },
    {
      "name": "フレスタ　室の木店",
      "name_kana": "フレスタ　ムロノキテン",
      "business_type": "⑪ 菓子製造業",
      "address": "山口県岩国市室の木町一丁目4番72号",
      "lat": 34.170237,
      "lng": 132.212579,
      "geocoding_level": null,
      "phone": "0827-30-1818",
      "license_no": "令7岩健第20-227号",
      "license_date": "2025-11-14",
      "expire_date": "2031-11-30"
    },
    {
      "name": "フレスタ　室の木店",
      "name_kana": "フレスタ　ムロノキテン",
      "business_type": "③ 食肉販売業",
      "address": "山口県岩国市室の木町一丁目4番72号",
      "lat": 34.170237,
      "lng": 132.212579,
      "geocoding_level": null,
      "phone": "0827-30-1818",
      "license_no": "令7岩健第20-225号",
      "license_date": "2025-11-14",
      "expire_date": "2031-11-30"
    },
    {
      "name": "フレスタ　室の木店",
      "name_kana": "フレスタ　ムロノキテン",
      "business_type": "④ 魚介類販売業",
      "address": "山口県岩国市室の木町一丁目4番72号",
      "lat": 34.170237,
      "lng": 132.212579,
      "geocoding_level": null,
      "phone": "0827-30-1818",
      "license_no": "令7岩健第20-226号",
      "license_date": "2025-11-14",
      "expire_date": "2031-11-30"
    },
    {
      "name": "ウォンツ岩国室の木店",
      "name_kana": "ウォンツイワクニムロノキテン",
      "business_type": "⑬ その他の食料・飲料販売業",
      "address": "山口県岩国市室の木町1-2-38",
      "lat": 34.170251,
      "lng": 132.2145,
      "geocoding_level": null,
      "phone": "0827-30-0222",
      "license_no": "",
      "license_date": null,
      "expire_date": null
    },
    {
      "name": "ウォンツ南岩国店",
      "name_kana": "ウォンツミナミイワクニテン",
      "business_type": "⑬ その他の食料・飲料販売業",
      "address": "山口県岩国市南岩国町1-20-36",
      "lat": 34.135496,
      "lng": 132.202748,
      "geocoding_level": null,
      "phone": "0827-32-6767",
      "license_no": "",
      "license_date": null,
      "expire_date": null
    },
    {
      "name": "ウォンツ周東店",
      "name_kana": "ウォンツシュウトウテン",
      "business_type": "⑬ その他の食料・飲料販売業",
      "address": "山口県岩国市周東町下久原436",
      "lat": 34.092653,
      "lng": 132.050907,
      "geocoding_level": null,
      "phone": "0827-83-0801",
      "license_no": "",
      "license_date": null,
      "expire_date": null
    },
    {
      "name": "ウォンツ由宇店",
      "name_kana": "ウォンツユウテン",
      "business_type": "⑬ その他の食料・飲料販売業",
      "address": "山口県岩国市由宇町中央1-6-1",
      "lat": 34.04552,
      "lng": 132.212566,
      "geocoding_level": null,
      "phone": "0827-62-1220",
      "license_no": "",
      "license_date": null,
      "expire_date": null
    },
    {
      "name": "ウォンツフジ南岩国店",
      "name_kana": "ウォンツフジミナミイワクニテン",
      "business_type": "⑬ その他の食料・飲料販売業",
      "address": "山口県岩国市南岩国町3-22-63",
      "lat": 34.132354,
      "lng": 132.199292,
      "geocoding_level": null,
      "phone": "0827-34-0317",
      "license_no": "",
      "license_date": null,
      "expire_date": null
    },
    {
      "name": "ウォンツ岩国保津店",
      "name_kana": "ウォンツイワクニホヅテン",
      "business_type": "⑬ その他の食料・飲料販売業",
      "address": "山口県岩国市保津町2-13-34",
      "lat": 34.081832,
      "lng": 132.207721,
      "geocoding_level": null,
      "phone": "0827-39-1077",
      "license_no": "",
      "license_date": null,
      "expire_date": null
    },
    {
      "name": "ウォンツ岩国中津店",
      "name_kana": "ウォンツイワクニナカツテン",
      "business_type": "⑬ その他の食料・飲料販売業",
      "address": "山口県岩国市中津町2-4-33",
      "lat": 34.153981,
      "lng": 132.216357,
      "geocoding_level": null,
      "phone": "0827-28-6997",
      "license_no": "",
      "license_date": null,
      "expire_date": null
    },
    {
      "name": "ウォンツ岩国多田店",
      "name_kana": "ウォンツイワクニタダテン",
      "business_type": "⑬ その他の食料・飲料販売業",
      "address": "山口県岩国市多田100-9",
      "lat": 34.172958,
      "lng": 132.158317,
      "geocoding_level": null,
      "phone": "0827-44-2570",
      "license_no": "",
      "license_date": null,
      "expire_date": null
    },
    {
      "name": "ウォンツ西岩国店",
      "name_kana": "ウォンツニシイワクニテン",
      "business_type": "⑬ その他の食料・飲料販売業",
      "address": "山口県岩国市錦見6丁目14番34号",
      "lat": 34.164042,
      "lng": 132.195961,
      "geocoding_level": null,
      "phone": "0827-44-2500",
      "license_no": "",
      "license_date": null,
      "expire_date": null
    },
    {
      "name": "A-プライス岩国店",
      "name_kana": "エープライスイワクニテン",
      "business_type": "⑪ 百貨店、総合スーパー",
      "address": "山口県岩国市立石町2丁目7-48",
      "lat": 34.166745,
      "lng": 132.219164,
      "geocoding_level": null,
      "phone": "0827-24-6811",
      "license_no": "",
      "license_date": null,
      "expire_date": null
    },
    {
      "name": "ジョイフル南岩国店",
      "name_kana": "ジョイフルミナミイワクニテン",
      "business_type": "① 飲食店営業",
      "address": "山口県岩国市南岩国町三丁目12-5",
      "lat": 34.128559,
      "lng": 132.199297,
      "geocoding_level": null,
      "phone": "0827-34-0151",
      "license_no": "令4岩健第20-305号",
      "license_date": "2023-02-20",
      "expire_date": "2029-02-28"
    },
    {
      "name": "ファミリーマート玖珂インター店",
      "name_kana": "ファミリーマートクガインターテン",
      "business_type": "⑩ コンビニエンスストア",
      "address": "山口県岩国市玖珂町字市成5157-2",
      "lat": 34.088258,
      "lng": 132.081084,
      "geocoding_level": null,
      "phone": "0827-81-0202",
      "license_no": "",
      "license_date": null,
      "expire_date": null
    },
    {
      "name": "もち吉　岩国店",
      "name_kana": "モチキチ　イワクニテン",
      "business_type": "⑬ その他の食料・飲料販売業",
      "address": "山口県岩国市山手町1丁目9-18 suomi　haitsu　103",
      "lat": 34.16929,
      "lng": 132.217507,
      "geocoding_level": null,
      "phone": "0827292371",
      "license_no": "",
      "license_date": null,
      "expire_date": null
    },
    {
      "name": "山口ダイハツ販売株式会社　岩国店",
      "name_kana": "ヤマグチダイハツハンバイカブシキガイシャ　イワクニテン",
      "business_type": "⑤ コップ式自動販売機（自動洗浄・屋内設置）",
      "address": "山口県岩国市室の木町一丁目７－４１",
      "lat": 34.170562,
      "lng": 132.210163,
      "geocoding_level": null,
      "phone": "",
      "license_no": "",
      "license_date": null,
      "expire_date": null
    },
    {
      "name": "株式会社やさか",
      "name_kana": "カブシキガイシャヤサカ",
      "business_type": "② 調理機能を有する自動販売機（要許可）",
      "address": "山口県岩国市美和町百合谷平野281-2",
      "lat": 34.228851,
      "lng": 132.14492,
      "geocoding_level": null,
      "phone": "",
      "license_no": "令7岩健第20-222号",
      "license_date": "2025-11-14",
      "expire_date": "2030-11-30"
    },
    {
      "name": "バイキングレストラン志高",
      "name_kana": "バイキングレストランシダカ",
      "business_type": "① 飲食店営業",
      "address": "山口県岩国市新港町二丁目6番30号",
      "lat": 34.183097,
      "lng": 132.231349,
      "geocoding_level": null,
      "phone": "0827-23-3304",
      "license_no": "令5岩健第20-105号",
      "license_date": "2023-08-08",
      "expire_date": "2030-02-28"
    },
    {
      "name": "かまどか山口岩国店",
      "name_kana": "カマドカヤマグチイワクニテン",
      "business_type": "① 飲食店営業",
      "address": "山口県岩国市新港町二丁目6番30号",
      "lat": 34.183087,
      "lng": 132.231316,
      "geocoding_level": null,
      "phone": "0827-23-3303",
      "license_no": "令5岩健第20-106号",
      "license_date": "2023-08-08",
      "expire_date": "2030-02-28"
    },
    {
      "name": "錦町農産加工株式会社",
      "name_kana": "ニシキチョウノウサンカコウカブシキガイシャ",
      "business_type": "㉔ その他の食料品製造・加工業",
      "address": "山口県岩国市錦町府谷131",
      "lat": 34.278162,
      "lng": 131.968403,
      "geocoding_level": null,
      "phone": "0827723357",
      "license_no": "",
      "license_date": null,
      "expire_date": null
    },
    {
      "name": "錦町農産加工株式会社",
      "name_kana": "ニシキチョウノウサンカコウカブシキガイシャ",
      "business_type": "㉕ そうざい製造業",
      "address": "山口県岩国市錦町府谷131",
      "lat": 34.280768,
      "lng": 131.994017,
      "geocoding_level": null,
      "phone": "0827-72-3357",
      "license_no": "令6岩健第20-81号",
      "license_date": "2024-05-21",
      "expire_date": "2030-05-31"
    },
    {
      "name": "錦町農産加工株式会社",
      "name_kana": "ニシキチョウノウサンカコウカブシキガイシャ",
      "business_type": "㉚ 密封包装食品製造業",
      "address": "山口県岩国市錦町府谷131",
      "lat": 34.280768,
      "lng": 131.994017,
      "geocoding_level": null,
      "phone": "0827-72-3357",
      "license_no": "令6岩健第20-82号",
      "license_date": "2024-05-22",
      "expire_date": "2030-05-31"
    },
    {
      "name": "錦町農産加工株式会社",
      "name_kana": "ニシキチョウノウサンカコウカブシキガイシャ",
      "business_type": "⑭ 清涼飲料水製造業",
      "address": "山口県岩国市錦町府谷145",
      "lat": 34.279034,
      "lng": 131.967964,
      "geocoding_level": null,
      "phone": "0827-72-3357",
      "license_no": "令8岩健第20-14-1号",
      "license_date": "2026-05-19",
      "expire_date": "2032-05-31"
    },
    {
      "name": "ファースト企画",
      "name_kana": "ファーストキカク",
      "business_type": "① 飲食店営業",
      "address": "山口県岩国市山口県下一円（下関市を除く。）",
      "lat": 33.957834,
      "lng": 130.941525,
      "geocoding_level": null,
      "phone": "",
      "license_no": "令３岩健第663-1号",
      "license_date": "2021-06-07",
      "expire_date": "2026-08-31"
    },
    {
      "name": "前田食品",
      "name_kana": "マエダショクヒン",
      "business_type": "① 飲食店営業",
      "address": "山口県岩国市三笠町一丁目１－１",
      "lat": 34.167789,
      "lng": 132.225044,
      "geocoding_level": null,
      "phone": "",
      "license_no": "令5岩健第20-33号",
      "license_date": "2023-04-28",
      "expire_date": "2028-05-31"
    },
    {
      "name": "居楽屋　千年の宴",
      "name_kana": "イラクヤ　センネンノウタゲ",
      "business_type": "⑬ その他の食料・飲料販売業",
      "address": "山口県岩国市麻里布町二丁目4番27号 プレステージ岩国　2階",
      "lat": 34.171136,
      "lng": 132.224104,
      "geocoding_level": null,
      "phone": "0827-23-0288",
      "license_no": "",
      "license_date": null,
      "expire_date": null
    },
    {
      "name": "目利きの銀次",
      "name_kana": "メキキノギンジ",
      "business_type": "⑬ その他の食料・飲料販売業",
      "address": "山口県岩国市麻里布町二丁目4番27号 プレステージ岩国　1階",
      "lat": 34.171136,
      "lng": 132.224104,
      "geocoding_level": null,
      "phone": "0827-23-8488",
      "license_no": "",
      "license_date": null,
      "expire_date": null
    },
    {
      "name": "目利きの銀次",
      "name_kana": "メキキノギンジ",
      "business_type": "① 飲食店営業",
      "address": "山口県岩国市麻里布町二丁目4番27号 プレステージ岩国　1階",
      "lat": 34.171141,
      "lng": 132.224141,
      "geocoding_level": null,
      "phone": "0827-23-8488",
      "license_no": "令4岩健第20-276号",
      "license_date": "2023-01-24",
      "expire_date": "2029-02-28"
    },
    {
      "name": "セブンイレブン岩国関戸店",
      "name_kana": "セブンイレブンイワクニセキドテン",
      "business_type": "⑩ コンビニエンスストア",
      "address": "山口県岩国市関戸1000-1",
      "lat": 34.176027,
      "lng": 132.182752,
      "geocoding_level": null,
      "phone": "0827-41-3076",
      "license_no": "",
      "license_date": null,
      "expire_date": null
    },
    {
      "name": "京ひみこ（ゆめタウン南岩国店）",
      "name_kana": "キョウヒミコ　ユメタウンミナミイワクニテン",
      "business_type": "⑬ その他の食料・飲料販売業",
      "address": "山口県岩国市南岩国町一丁目20-30",
      "lat": 34.134582,
      "lng": 132.202815,
      "geocoding_level": null,
      "phone": "0827-32-2111",
      "license_no": "",
      "license_date": null,
      "expire_date": null
    },
    {
      "name": "日本酒バル　蔵真",
      "name_kana": "ニホンシュバル　クラマ",
      "business_type": "① 飲食店営業",
      "address": "山口県岩国市麻里布町三丁目18-1-103",
      "lat": 34.171739,
      "lng": 132.220915,
      "geocoding_level": null,
      "phone": "",
      "license_no": "令３岩健第20-102号",
      "license_date": "2021-06-07",
      "expire_date": "2027-11-30"
    },
    {
      "name": "しゃぶ葉 岩国店",
      "name_kana": "シャブヨウイワクニテン",
      "business_type": "① 飲食店営業",
      "address": "山口県岩国市麻里布町７丁目１２－８",
      "lat": 34.171547,
      "lng": 132.216177,
      "geocoding_level": null,
      "phone": "0827-30-3855",
      "license_no": "令7岩健第20-32号",
      "license_date": "2025-05-14",
      "expire_date": "2031-05-31"
    },
    {
      "name": "しゃぶ葉 岩国店",
      "name_kana": "シャブヨウイワクニテン",
      "business_type": "⑬ その他の食料・飲料販売業",
      "address": "山口県岩国市麻里布町７丁目１２－８",
      "lat": 34.171551,
      "lng": 132.216164,
      "geocoding_level": null,
      "phone": "0827-30-3855",
      "license_no": "",
      "license_date": null,
      "expire_date": null
    },
    {
      "name": "ガスト 岩国店",
      "name_kana": "ガストイワクニテン",
      "business_type": "⑬ その他の食料・飲料販売業",
      "address": "山口県岩国市立石町３丁目１－３２",
      "lat": 34.176369,
      "lng": 132.22526,
      "geocoding_level": null,
      "phone": "0827-30-4047",
      "license_no": "",
      "license_date": null,
      "expire_date": null
    },
    {
      "name": "イーティーズ川下店",
      "name_kana": "イーティーズカワシモテン",
      "business_type": "① 飲食店営業",
      "address": "山口県岩国市中津町一丁目17-4 ダイレックス川下店内",
      "lat": 34.151901,
      "lng": 132.215287,
      "geocoding_level": null,
      "phone": "0827-28-5515",
      "license_no": "令6岩健第20-87号",
      "license_date": "2024-05-24",
      "expire_date": "2030-05-31"
    },
    {
      "name": "第一交通　南岩国",
      "name_kana": "ダイイチコウツウ　ミナミイワクニ",
      "business_type": "② 調理機能を有する自動販売機（要許可）",
      "address": "山口県岩国市南岩国町四丁目65-28",
      "lat": 34.127745,
      "lng": 132.19868,
      "geocoding_level": null,
      "phone": "",
      "license_no": "令3岩健第663-185号",
      "license_date": "2021-11-24",
      "expire_date": "2026-11-30"
    },
    {
      "name": "久保田美装（株）就労継続支援Ｂ型　ひよりの里",
      "name_kana": "クボタビソウカブシキガイシャ　シュウロウケイゾクシエンビーガタ　ヒヨリノサト",
      "business_type": "⑪ 菓子製造業",
      "address": "山口県岩国市美和町黒沢68-56",
      "lat": 34.239323,
      "lng": 132.131091,
      "geocoding_level": null,
      "phone": "0827-95-0588",
      "license_no": "令5岩健第20-327号",
      "license_date": "2024-02-09",
      "expire_date": "2030-02-28"
    },
    {
      "name": "あいらの杜 新岩国駅前",
      "name_kana": "アイラノモリシンイワクニエキマエ",
      "business_type": "① 飲食店営業",
      "address": "山口県岩国市御庄３-114-2",
      "lat": 34.170535,
      "lng": 132.154978,
      "geocoding_level": null,
      "phone": "0827-46-1920",
      "license_no": "令5岩健第20-364号",
      "license_date": "2024-03-26",
      "expire_date": "2030-05-31"
    },
    {
      "name": "村重養蜂場",
      "name_kana": "ムラシゲヨウホウジョウ",
      "business_type": "㉔ その他の食料品製造・加工業",
      "address": "山口県岩国市通津743-3",
      "lat": 34.076527,
      "lng": 132.18955,
      "geocoding_level": null,
      "phone": "",
      "license_no": "",
      "license_date": null,
      "expire_date": null
    },
    {
      "name": "バッケンモーツアルト　ゆめタウン南岩国店",
      "name_kana": "バッケンモーツアルト　ユメタウンミナミイワクニテン",
      "business_type": "① 飲食店営業",
      "address": "山口県岩国市南岩国町一丁目20-30 ゆめタウン南岩国店内1F",
      "lat": 34.134582,
      "lng": 132.202815,
      "geocoding_level": null,
      "phone": "0827-32-0818",
      "license_no": "令7岩健第20-100号",
      "license_date": "2025-08-01",
      "expire_date": "2031-08-31"
    },
    {
      "name": "バッケンモーツアルト　フジグラン岩国店",
      "name_kana": "バッケンモーツアルト　フジグランイワクニテン",
      "business_type": "① 飲食店営業",
      "address": "山口県岩国市麻里布町二丁目9-8 フジグラン岩国店内1F",
      "lat": 34.168691,
      "lng": 132.223372,
      "geocoding_level": null,
      "phone": "0827-23-7365",
      "license_no": "令7岩健第20-121号",
      "license_date": "2025-08-26",
      "expire_date": "2031-08-31"
    },
    {
      "name": "ミコーミートギャラリー",
      "name_kana": "ミコーミートギャラリー",
      "business_type": "⑬ その他の食料・飲料販売業",
      "address": "山口県岩国市周東町上久原324-5",
      "lat": 34.080106,
      "lng": 132.071338,
      "geocoding_level": null,
      "phone": "0827-83-1500",
      "license_no": "",
      "license_date": null,
      "expire_date": null
    },
    {
      "name": "ミコーミートギャラリーアルク玖珂店",
      "name_kana": "ミコーミートギャラリーアルククガテン",
      "business_type": "③ 食肉販売業",
      "address": "山口県岩国市玖珂町1014-1",
      "lat": 34.096663,
      "lng": 132.087453,
      "geocoding_level": null,
      "phone": "0827-81-1129",
      "license_no": "令3岩健第663-162号",
      "license_date": "2021-11-12",
      "expire_date": "2027-11-30"
    },
    {
      "name": "株式会社ミコー食品",
      "name_kana": "カブシキガイシャミコーショクヒン",
      "business_type": "⑬ その他の食料・飲料販売業",
      "address": "山口県岩国市周東町上久原324-5",
      "lat": 34.080125,
      "lng": 132.071328,
      "geocoding_level": null,
      "phone": "0827-83-1500",
      "license_no": "",
      "license_date": null,
      "expire_date": null
    },
    {
      "name": "ミートギャラリー",
      "name_kana": "ミートギャラリー",
      "business_type": "② 食肉販売業（包装済みの食肉のみの販売）",
      "address": "山口県岩国市周東町下久原1229",
      "lat": 34.091423,
      "lng": 132.050394,
      "geocoding_level": null,
      "phone": "",
      "license_no": "",
      "license_date": null,
      "expire_date": null
    },
    {
      "name": "ゆめタウン南岩国",
      "name_kana": "ユメタウンミナミイワクニ",
      "business_type": "⑪ 百貨店、総合スーパー",
      "address": "山口県岩国市南岩国町一丁目20-30",
      "lat": 34.134528,
      "lng": 132.202603,
      "geocoding_level": null,
      "phone": "0827-32-2111",
      "license_no": "",
      "license_date": null,
      "expire_date": null
    },
    {
      "name": "ひとくち餃子の頂　岩国駅前店",
      "name_kana": "ヒトクチギョウザノイタダキ　イワクニエキマエテン",
      "business_type": "① 飲食店営業",
      "address": "山口県岩国市麻里布町三丁目1-28 森ビル1F",
      "lat": 34.171989,
      "lng": 132.223379,
      "geocoding_level": null,
      "phone": "",
      "license_no": "令7岩健第20-300号",
      "license_date": "2026-03-17",
      "expire_date": "2032-05-31"
    },
    {
      "name": "希望の里",
      "name_kana": "キボウノサト",
      "business_type": "㉔ その他の食料品製造・加工業",
      "address": "山口県岩国市三笠町二丁目3-17",
      "lat": 34.167459,
      "lng": 132.228286,
      "geocoding_level": null,
      "phone": "",
      "license_no": "",
      "license_date": null,
      "expire_date": null
    },
    {
      "name": "焼肉きんぐ岩国店",
      "name_kana": "ヤキニクキングイワクニテン",
      "business_type": "① 飲食店営業",
      "address": "山口県岩国市立石町一丁目8番10号",
      "lat": 34.15814,
      "lng": 132.195528,
      "geocoding_level": null,
      "phone": "0827356553",
      "license_no": "令4岩健第20-130号",
      "license_date": "2022-07-27",
      "expire_date": "2028-08-31"
    },
    {
      "name": "ローソン岩国周東下久原店",
      "name_kana": "ローソンイワクニシュウトウシモクバラテン",
      "business_type": "① 飲食店営業",
      "address": "山口県岩国市周東町下久原1653-5",
      "lat": 34.092699,
      "lng": 132.048827,
      "geocoding_level": null,
      "phone": "0827-84-4260",
      "license_no": "令3岩健第663-5号",
      "license_date": "2021-06-29",
      "expire_date": "2027-08-31"
    },
    {
      "name": "クスリ岩崎チェーン　玖珂店",
      "name_kana": "クスリイワサキチェーン　クガテン",
      "business_type": "⑬ その他の食料・飲料販売業",
      "address": "山口県岩国市玖珂町字豆田1010-1",
      "lat": 34.094628,
      "lng": 132.083129,
      "geocoding_level": null,
      "phone": "0827-82-6163",
      "license_no": "",
      "license_date": null,
      "expire_date": null
    },
    {
      "name": "クスリ岩崎チェーン　岩国平田店",
      "name_kana": "クスリイワサキチェーン　イワクニヒラタテン",
      "business_type": "⑬ その他の食料・飲料販売業",
      "address": "山口県岩国市南岩国町二丁目465番地1",
      "lat": 34.139039,
      "lng": 132.192565,
      "geocoding_level": null,
      "phone": "0827-32-3500",
      "license_no": "",
      "license_date": null,
      "expire_date": null
    },
    {
      "name": "アルゾ南岩国店",
      "name_kana": "アルゾミナミイワクニテン",
      "business_type": "⑪ 百貨店、総合スーパー",
      "address": "山口県岩国市南岩国町2丁目5番36号",
      "lat": 34.138026,
      "lng": 132.195093,
      "geocoding_level": null,
      "phone": "080-3899-0130",
      "license_no": "",
      "license_date": null,
      "expire_date": null
    },
    {
      "name": "小規模多機能ホーム　錦帯橋・みどりの家",
      "name_kana": "ショウキボタキノウホーム　キンタイキョウ・ミドリノイエ",
      "business_type": "㉖ 集団給食施設",
      "address": "山口県岩国市岩国1丁目20-36",
      "lat": 34.166916,
      "lng": 132.181152,
      "geocoding_level": null,
      "phone": "0827-28-4877",
      "license_no": "",
      "license_date": null,
      "expire_date": null
    },
    {
      "name": "せせらぎ",
      "name_kana": "セセラギ",
      "business_type": "① 飲食店営業",
      "address": "山口県岩国市関戸一丁目109 錦果楼1Ｆ",
      "lat": 34.185089,
      "lng": 132.174072,
      "geocoding_level": null,
      "phone": "0827-44-1133",
      "license_no": "令3岩健第663-123号",
      "license_date": "2021-10-28",
      "expire_date": "2027-11-30"
    },
    {
      "name": "とろろ加工場",
      "name_kana": "トロロカコウジョウ",
      "business_type": "㉕ そうざい製造業",
      "address": "山口県岩国市玖珂町3271-4",
      "lat": 34.094628,
      "lng": 132.083129,
      "geocoding_level": null,
      "phone": "",
      "license_no": "令3岩健第663-7号",
      "license_date": "2021-07-14",
      "expire_date": "2026-08-31"
    },
    {
      "name": "932：372791：ユニオン石油工業株式会社",
      "name_kana": "ユニオンセキユコウギョウカブシキガイシャ",
      "business_type": "⑫ 自動販売機による販売業（コップ式自動販売機（自動洗浄・屋内設置）及び営業許可の対象となる自動販売機を除く）",
      "address": "山口県岩国市装束町１丁目５－１９",
      "lat": 34.193025,
      "lng": 132.232071,
      "geocoding_level": null,
      "phone": "",
      "license_no": "",
      "license_date": null,
      "expire_date": null
    },
    {
      "name": "1319：398555：アラインテック株式会社　ＵＴ",
      "name_kana": "アラインテックカブシキガイシャ　ユーティリティー",
      "business_type": "⑫ 自動販売機による販売業（コップ式自動販売機（自動洗浄・屋内設置）及び営業許可の対象となる自動販売機を除く）",
      "address": "山口県岩国市長野１８１５－７",
      "lat": 34.05222,
      "lng": 132.212365,
      "geocoding_level": null,
      "phone": "",
      "license_no": "",
      "license_date": null,
      "expire_date": null
    },
    {
      "name": "1584：100010850：（ＷＳ）山口平成病院１F職員休憩スペース",
      "name_kana": "ヤマグチヘイセイビョウインイッカイショクインキュウケイスペース",
      "business_type": "⑬ その他の食料・飲料販売業",
      "address": "山口県岩国市玖珂町11340",
      "lat": 34.094628,
      "lng": 132.083129,
      "geocoding_level": null,
      "phone": "",
      "license_no": "",
      "license_date": null,
      "expire_date": null
    },
    {
      "name": "くいもの屋わん　岩国店",
      "name_kana": "クイモノヤワン　イワクニテン",
      "business_type": "① 飲食店営業",
      "address": "山口県岩国市麻里布町二丁目4-24 小林興業セントラルビル1F",
      "lat": 34.170947,
      "lng": 132.224141,
      "geocoding_level": null,
      "phone": "0827-30-7555",
      "license_no": "令3岩健第663-9号",
      "license_date": "2021-07-14",
      "expire_date": "2027-08-31"
    },
    {
      "name": "じゃんじゃか　南岩国店",
      "name_kana": "ジャンジャカ　ミナミイワクニテン",
      "business_type": "③ 食肉販売業",
      "address": "山口県岩国市南岩国町三丁目22-63",
      "lat": 34.131023,
      "lng": 132.199416,
      "geocoding_level": null,
      "phone": "0827-35-0122",
      "license_no": "令3岩健第663-10号",
      "license_date": "2021-07-21",
      "expire_date": "2027-08-31"
    },
    {
      "name": "じゃんじゃか　南岩国店",
      "name_kana": "ジャンジャカ　ミナミイワクニテン",
      "business_type": "① 飲食店営業",
      "address": "山口県岩国市南岩国町三丁目22-63",
      "lat": 34.131023,
      "lng": 132.199416,
      "geocoding_level": null,
      "phone": "0827-35-0122",
      "license_no": "令4岩健第20-19号",
      "license_date": "2022-05-09",
      "expire_date": "2028-05-31"
    },
    {
      "name": "庄屋　ゆめタウン南岩国店",
      "name_kana": "ショウヤ　ユメタウンミナミイワクニテン",
      "business_type": "① 飲食店営業",
      "address": "山口県岩国市南岩国町１丁目20-30 ゆめタウン南岩国店1F",
      "lat": 34.134582,
      "lng": 132.202815,
      "geocoding_level": null,
      "phone": "0827-35-5921",
      "license_no": "令6岩健第20-118号",
      "license_date": "2024-07-22",
      "expire_date": "2030-08-31"
    },
    {
      "name": "破天荒酒場",
      "name_kana": "ハテンコウサカバ",
      "business_type": "① 飲食店営業",
      "address": "山口県岩国市麻里布町三丁目3-22",
      "lat": 34.171294,
      "lng": 132.222838,
      "geocoding_level": null,
      "phone": "",
      "license_no": "令3岩健第663-15号",
      "license_date": "2021-07-28",
      "expire_date": "2027-08-31"
    },
    {
      "name": "タコパンチ",
      "name_kana": "タコパンチ",
      "business_type": "① 飲食店営業",
      "address": "山口県岩国市麻里布町三丁目2-8",
      "lat": 34.171502,
      "lng": 132.222835,
      "geocoding_level": null,
      "phone": "070-5526-1438",
      "license_no": "令7岩健第20-70号",
      "license_date": "2025-06-25",
      "expire_date": "2031-08-31"
    },
    {
      "name": "レストラン　ムーバレー",
      "name_kana": "レストラン　ムーバレー",
      "business_type": "① 飲食店営業",
      "address": "山口県岩国市美川町根笠1564-1",
      "lat": 34.188636,
      "lng": 131.99472,
      "geocoding_level": null,
      "phone": "0827-77-0111",
      "license_no": "令3岩健第663-14号",
      "license_date": "2021-07-28",
      "expire_date": "2027-08-31"
    },
    {
      "name": "有限会社かんべや",
      "name_kana": "ユウゲンガイシャカンベヤ",
      "business_type": "① 飲食店営業",
      "address": "山口県岩国市今津町一丁目9-22-101号",
      "lat": 34.167563,
      "lng": 132.22003,
      "geocoding_level": null,
      "phone": "0827-21-5177",
      "license_no": "令3岩健第663－16号",
      "license_date": "2021-07-30",
      "expire_date": "2027-08-31"
    },
    {
      "name": "灘海園",
      "name_kana": "ナダミエン",
      "business_type": "㉖ 集団給食施設",
      "address": "山口県岩国市愛宕町１丁目５番１号",
      "lat": 34.145924,
      "lng": 132.19954,
      "geocoding_level": null,
      "phone": "0827320315",
      "license_no": "",
      "license_date": null,
      "expire_date": null
    },
    {
      "name": "特別養護老人ホーム光葉苑",
      "name_kana": "トクベツヨウゴロウジンホームコウヨウエン",
      "business_type": "㉖ 集団給食施設",
      "address": "山口県岩国市下317番地2",
      "lat": 34.160308,
      "lng": 132.092984,
      "geocoding_level": null,
      "phone": "0827-47-3500",
      "license_no": "",
      "license_date": null,
      "expire_date": null
    },
    {
      "name": "シャンドママン",
      "name_kana": "シャンドママン",
      "business_type": "⑪ 菓子製造業",
      "address": "山口県岩国市平田5-37-7",
      "lat": 34.140007,
      "lng": 132.19089,
      "geocoding_level": null,
      "phone": "",
      "license_no": "令3岩健第663-19号",
      "license_date": "2021-08-02",
      "expire_date": "2026-08-31"
    },
    {
      "name": "オレンジ",
      "name_kana": "オレンジ",
      "business_type": "① 飲食店営業",
      "address": "山口県岩国市由宇町中央二丁目1-6",
      "lat": 34.044149,
      "lng": 132.212058,
      "geocoding_level": null,
      "phone": "",
      "license_no": "令3岩健第663-24号",
      "license_date": "2021-08-04",
      "expire_date": "2026-08-31"
    },
    {
      "name": "社会福祉法人　曙保育園",
      "name_kana": "シャカイフクシホウジンアケボノホイクエン",
      "business_type": "㉖ 集団給食施設",
      "address": "山口県岩国市錦見二丁目11-30",
      "lat": 34.165105,
      "lng": 132.195518,
      "geocoding_level": null,
      "phone": "0827-41-1226",
      "license_no": "",
      "license_date": null,
      "expire_date": null
    },
    {
      "name": "認定こども園　藤河幼稚園",
      "name_kana": "ニンテイコドモエンフジカワヨウチエン",
      "business_type": "㉖ 集団給食施設",
      "address": "山口県岩国市多田1257-1",
      "lat": 34.182975,
      "lng": 132.165315,
      "geocoding_level": null,
      "phone": "0827-41-1873",
      "license_no": "",
      "license_date": null,
      "expire_date": null
    },
    {
      "name": "みよしや",
      "name_kana": "ミヨシヤ",
      "business_type": "① 飲食店営業",
      "address": "山口県岩国市本郷町本郷1570-1",
      "lat": 34.294623,
      "lng": 132.038877,
      "geocoding_level": null,
      "phone": "0827-75-2020",
      "license_no": "令3岩健第663-26号",
      "license_date": "2021-08-04",
      "expire_date": "2027-08-31"
    },
    {
      "name": "本郷フード",
      "name_kana": "ホンゴウフード",
      "business_type": "③ 食肉販売業",
      "address": "山口県岩国市本郷町本郷1570-3",
      "lat": 34.294623,
      "lng": 132.038877,
      "geocoding_level": null,
      "phone": "0827-75-2023",
      "license_no": "令3岩健第663-28号",
      "license_date": "2021-08-04",
      "expire_date": "2027-08-31"
    },
    {
      "name": "本郷フード",
      "name_kana": "ホンゴウフード",
      "business_type": "④ 魚介類販売業",
      "address": "山口県岩国市本郷町本郷1570-3",
      "lat": 34.294623,
      "lng": 132.038877,
      "geocoding_level": null,
      "phone": "0827-75-2023",
      "license_no": "令3岩健第663-27号",
      "license_date": "2021-08-04",
      "expire_date": "2027-08-31"
    },
    {
      "name": "セブン-イレブン南岩国1丁目店",
      "name_kana": "セブン-イレブンミナミイワクニイッチョウメテン",
      "business_type": "① 飲食店営業",
      "address": "山口県岩国市南岩国町一丁目20-45",
      "lat": 34.135759,
      "lng": 132.201996,
      "geocoding_level": null,
      "phone": "0827-32-8780",
      "license_no": "令3岩健第663-30号",
      "license_date": "2021-08-04",
      "expire_date": "2027-08-31"
    },
    {
      "name": "山口住田株式会社",
      "name_kana": "ヤマグチスミダカブシキガイシャ",
      "business_type": "⑬ その他の食料・飲料販売業",
      "address": "山口県岩国市山手町一丁目21-2",
      "lat": 34.168053,
      "lng": 132.21547,
      "geocoding_level": null,
      "phone": "0827-23-1230",
      "license_no": "",
      "license_date": null,
      "expire_date": null
    },
    {
      "name": "認定こども園　光顔幼稚園",
      "name_kana": "ニンテイコドモエンコウゲンヨウチエン",
      "business_type": "㉖ 集団給食施設",
      "address": "山口県岩国市御庄1691",
      "lat": 34.165595,
      "lng": 132.144495,
      "geocoding_level": null,
      "phone": "0827-46-0024",
      "license_no": "",
      "license_date": null,
      "expire_date": null
    },
    {
      "name": "れーめん亭",
      "name_kana": "レーメンテイ",
      "business_type": "① 飲食店営業",
      "address": "山口県岩国市麻里布町三丁目12-19",
      "lat": 34.170629,
      "lng": 132.221618,
      "geocoding_level": null,
      "phone": "0827-22-8151",
      "license_no": "令3岩健第663-31号",
      "license_date": "2021-08-05",
      "expire_date": "2027-08-31"
    },
    {
      "name": "E－BASE",
      "name_kana": "イーベース",
      "business_type": "① 飲食店営業",
      "address": "山口県岩国市三笠町1-1-1",
      "lat": 34.167789,
      "lng": 132.225044,
      "geocoding_level": null,
      "phone": "",
      "license_no": "令4岩健第571-41号",
      "license_date": "2022-03-11",
      "expire_date": "2027-05-31"
    },
    {
      "name": "ボラーチョス",
      "name_kana": "ボラーチョス",
      "business_type": "① 飲食店営業",
      "address": "山口県岩国市三笠町1丁目1-1",
      "lat": 34.167024,
      "lng": 132.225163,
      "geocoding_level": null,
      "phone": "",
      "license_no": "令4岩健第20－316号",
      "license_date": "2023-03-02",
      "expire_date": "2028-05-31"
    },
    {
      "name": "山本商店",
      "name_kana": "ヤマモトショウテン",
      "business_type": "① 飲食店営業",
      "address": "山口県岩国市三笠町1丁目1-1",
      "lat": 34.167789,
      "lng": 132.225044,
      "geocoding_level": null,
      "phone": "",
      "license_no": "令7岩健第20-269号",
      "license_date": "2026-02-13",
      "expire_date": "2031-02-28"
    },
    {
      "name": "あつあつ揚立てっちゃん南岩国店",
      "name_kana": "アツアツアゲタテテッチャンミナミイワクニテン",
      "business_type": "① 飲食店営業",
      "address": "山口県岩国市南岩国町2-4-8",
      "lat": 34.137003,
      "lng": 132.19386,
      "geocoding_level": null,
      "phone": "0827-31-3055",
      "license_no": "令3岩健第663-33号",
      "license_date": "2021-08-05",
      "expire_date": "2027-08-31"
    },
    {
      "name": "玖珂パーキングエリア下り線",
      "name_kana": "クガパーキングエリアクダリセン",
      "business_type": "⑩ コンビニエンスストア",
      "address": "山口県岩国市玖珂町字　鉢尻340-19",
      "lat": 34.094628,
      "lng": 132.083129,
      "geocoding_level": null,
      "phone": "0827-82-6959",
      "license_no": "",
      "license_date": null,
      "expire_date": null
    },
    {
      "name": "２Ｆ厨房",
      "name_kana": "ニカイチュウボウ",
      "business_type": "㉕ そうざい製造業",
      "address": "山口県岩国市玖珂町510-2",
      "lat": 34.095749,
      "lng": 132.079033,
      "geocoding_level": null,
      "phone": "0827-82-3115",
      "license_no": "令3岩健第663-205号",
      "license_date": "2021-12-02",
      "expire_date": "2027-02-28"
    },
    {
      "name": "桃李庵",
      "name_kana": "トウリアン",
      "business_type": "① 飲食店営業",
      "address": "山口県岩国市玖珂町517-1",
      "lat": 34.095101,
      "lng": 132.079557,
      "geocoding_level": null,
      "phone": "0827-82-2400",
      "license_no": "令4岩健第20-44号",
      "license_date": "2022-05-18",
      "expire_date": "2027-05-31"
    },
    {
      "name": "竈",
      "name_kana": "カマド",
      "business_type": "⑪ 菓子製造業",
      "address": "山口県岩国市玖珂町517-1",
      "lat": 34.095101,
      "lng": 132.079557,
      "geocoding_level": null,
      "phone": "0827-82-5560",
      "license_no": "令4岩健第20-45号",
      "license_date": "2022-05-18",
      "expire_date": "2027-05-31"
    },
    {
      "name": "山賊セントラルキッチン",
      "name_kana": "サンゾクセントラルキッチン",
      "business_type": "① 飲食店営業",
      "address": "山口県岩国市玖珂町1382-1",
      "lat": 34.106901,
      "lng": 132.095119,
      "geocoding_level": null,
      "phone": "",
      "license_no": "令4岩健第20-46号",
      "license_date": "2022-05-18",
      "expire_date": "2027-05-31"
    },
    {
      "name": "山賊砦",
      "name_kana": "サンゾクトリデ",
      "business_type": "① 飲食店営業",
      "address": "山口県岩国市錦町大野889",
      "lat": 34.30316,
      "lng": 131.929569,
      "geocoding_level": null,
      "phone": "",
      "license_no": "令5岩健第20-56号",
      "license_date": "2023-05-17",
      "expire_date": "2028-05-31"
    },
    {
      "name": "4F厨房",
      "name_kana": "ヨンカイチュウボウ",
      "business_type": "① 飲食店営業",
      "address": "山口県岩国市玖珂町510-2",
      "lat": 34.095749,
      "lng": 132.079033,
      "geocoding_level": null,
      "phone": "0827-82-3115",
      "license_no": "令5岩健第20-135号",
      "license_date": "2023-08-28",
      "expire_date": "2029-08-31"
    },
    {
      "name": "竈",
      "name_kana": "カマド",
      "business_type": "① 飲食店営業",
      "address": "山口県岩国市玖珂町517-1",
      "lat": 34.095101,
      "lng": 132.079557,
      "geocoding_level": null,
      "phone": "0827-82-3115",
      "license_no": "令5岩健第20-136号",
      "license_date": "2023-08-28",
      "expire_date": "2028-08-31"
    },
    {
      "name": "3F厨房",
      "name_kana": "サンカイチュウボウ",
      "business_type": "① 飲食店営業",
      "address": "山口県岩国市玖珂町510-2",
      "lat": 34.095749,
      "lng": 132.079033,
      "geocoding_level": null,
      "phone": "0827-82-3115",
      "license_no": "令5岩健第20-218号",
      "license_date": "2023-11-01",
      "expire_date": "2029-11-30"
    },
    {
      "name": "中華園",
      "name_kana": "チュウカエン",
      "business_type": "① 飲食店営業",
      "address": "山口県岩国市玖珂町514-11",
      "lat": 34.096004,
      "lng": 132.079891,
      "geocoding_level": null,
      "phone": "0827-28-5756",
      "license_no": "令3岩健第663-39号",
      "license_date": "2021-08-13",
      "expire_date": "2027-08-31"
    },
    {
      "name": "KeMBY’s Diner/Himalaya Kitchen",
      "name_kana": "ケンビーズ ダイナー　ヒマラヤ キッチン",
      "business_type": "① 飲食店営業",
      "address": "山口県岩国市麻里布町四丁目7-4 大安ビル1F",
      "lat": 34.17241,
      "lng": 132.221838,
      "geocoding_level": null,
      "phone": "0827-28-5642",
      "license_no": "令3岩健第663-40号",
      "license_date": "2021-08-13",
      "expire_date": "2027-11-30"
    },
    {
      "name": "Hiroshima Micro Brewery",
      "name_kana": "ヒロシママイクロブルワリー",
      "business_type": "㉑ 酒類製造業",
      "address": "山口県岩国市麻里布町四丁目７",
      "lat": 34.172501,
      "lng": 132.22129,
      "geocoding_level": null,
      "phone": "",
      "license_no": "令5岩健第20-118号",
      "license_date": "2023-08-15",
      "expire_date": "2029-08-31"
    },
    {
      "name": "日清医療食品㈱　美川苑事業所",
      "name_kana": "ニッシンイリョウショクヒンカブ　ミカワエンジギョウショ",
      "business_type": "① 飲食店営業",
      "address": "山口県岩国市美川町小川437-1",
      "lat": 34.24219,
      "lng": 132.000693,
      "geocoding_level": null,
      "phone": "0827-76-0358",
      "license_no": "令4岩健第20-312号",
      "license_date": "2023-02-27",
      "expire_date": "2029-02-28"
    },
    {
      "name": "日清医療食品　なんわ荘事業所",
      "name_kana": "ニッシンイリョウショクヒン　ナンワソウジギョウショ",
      "business_type": "① 飲食店営業",
      "address": "山口県岩国市尾津町五丁目7-30",
      "lat": 34.132026,
      "lng": 132.210311,
      "geocoding_level": null,
      "phone": "0827-34-0100",
      "license_no": "令7岩健第20-264号",
      "license_date": "2026-02-06",
      "expire_date": "2032-05-31"
    },
    {
      "name": "九州惣菜株式会社",
      "name_kana": "キュウシュウソウザイカブシキガイシャ",
      "business_type": "① 飲食店営業",
      "address": "山口県岩国市南岩国町二丁目5-36",
      "lat": 34.138026,
      "lng": 132.195093,
      "geocoding_level": null,
      "phone": "0827-31-7744",
      "license_no": "令3岩健第663-43号",
      "license_date": "2021-08-13",
      "expire_date": "2027-08-31"
    },
    {
      "name": "岩国ケアセンターそよ風",
      "name_kana": "イワクニケアセンターソヨカゼ",
      "business_type": "① 飲食店営業",
      "address": "山口県岩国市今津町一丁目12番27号",
      "lat": 34.166324,
      "lng": 132.22131,
      "geocoding_level": null,
      "phone": "0827-29-0377",
      "license_no": "令3岩健第663-44号",
      "license_date": "2021-08-13",
      "expire_date": "2027-08-31"
    },
    {
      "name": "岩国市立麻里布小学校",
      "name_kana": "イワクニシリツマリフショウガッコウ",
      "business_type": "① 飲食店営業",
      "address": "山口県岩国市山手町一丁目7-41",
      "lat": 34.169263,
      "lng": 132.216588,
      "geocoding_level": null,
      "phone": "0827-21-7111",
      "license_no": "令4岩健第20-331号",
      "license_date": "2023-03-24",
      "expire_date": "2029-05-31"
    },
    {
      "name": "医療法人　岩国みなみ病院",
      "name_kana": "イリョウホウジン　イワクニミナミビョウイン",
      "business_type": "① 飲食店営業",
      "address": "山口県岩国市南岩国町二丁目77-23",
      "lat": 34.138603,
      "lng": 132.19278,
      "geocoding_level": null,
      "phone": "0827-32-4100",
      "license_no": "令5岩健第20-155号",
      "license_date": "2023-09-21",
      "expire_date": "2029-11-30"
    },
    {
      "name": "医療法人　岩国病院",
      "name_kana": "イリョウホウジン　イワクニビョウイン",
      "business_type": "① 飲食店営業",
      "address": "山口県岩国市岩国三丁目2-7",
      "lat": 34.163347,
      "lng": 132.183852,
      "geocoding_level": null,
      "phone": "0827-41-0659",
      "license_no": "令6岩健第20-56号",
      "license_date": "2024-05-14",
      "expire_date": "2030-05-31"
    },
    {
      "name": "岩国学校給食センター",
      "name_kana": "イワクニガッコウキュウショクセンター",
      "business_type": "① 飲食店営業",
      "address": "山口県岩国市尾津町五丁目11番2号",
      "lat": 34.129952,
      "lng": 132.22101,
      "geocoding_level": null,
      "phone": "0827-34-1212",
      "license_no": "令6岩健第20-291号",
      "license_date": "2025-03-27",
      "expire_date": "2031-05-31"
    },
    {
      "name": "スパーブ",
      "name_kana": "スパーブ",
      "business_type": "① 飲食店営業",
      "address": "山口県岩国市通津南開作3736",
      "lat": 34.166745,
      "lng": 132.219164,
      "geocoding_level": null,
      "phone": "0827-38-0700",
      "license_no": "令3岩健第663-45号",
      "license_date": "2021-08-13",
      "expire_date": "2027-08-31"
    },
    {
      "name": "陽だまり",
      "name_kana": "ヒダマリ",
      "business_type": "① 飲食店営業",
      "address": "山口県岩国市美和町渋前1392-1",
      "lat": 34.223348,
      "lng": 132.093602,
      "geocoding_level": null,
      "phone": "080-1942-5632",
      "license_no": "令3岩健第663-47号",
      "license_date": "2021-08-17",
      "expire_date": "2027-08-31"
    },
    {
      "name": "陽だまり",
      "name_kana": "ヒダマリ",
      "business_type": "㉕ そうざい製造業",
      "address": "山口県岩国市美和町渋前1392-1",
      "lat": 34.223348,
      "lng": 132.093602,
      "geocoding_level": null,
      "phone": "0827-96-1594",
      "license_no": "令6岩健第20-108号",
      "license_date": "2024-06-21",
      "expire_date": "2030-08-31"
    },
    {
      "name": "縁-ｅｄｇｅ-",
      "name_kana": "エッジ",
      "business_type": "① 飲食店営業",
      "address": "山口県岩国市元町一丁目1-4",
      "lat": 34.171393,
      "lng": 132.22659,
      "geocoding_level": null,
      "phone": "080-1924-9899",
      "license_no": "令3岩健第663-48号",
      "license_date": "2021-08-17",
      "expire_date": "2027-08-31"
    },
    {
      "name": "クスリ岩崎チェーン　岩国平田店",
      "name_kana": "クスリイワサキチェーン　イワクニヒラタテン",
      "business_type": "⑬ その他の食料・飲料販売業",
      "address": "山口県岩国市南岩国町二丁目465番地1",
      "lat": 34.14,
      "lng": 132.195537,
      "geocoding_level": null,
      "phone": "0827-32-3500",
      "license_no": "",
      "license_date": null,
      "expire_date": null
    },
    {
      "name": "クスリ岩崎チェーン　玖珂店",
      "name_kana": "クスリイワサキチェーン　クガテン",
      "business_type": "⑬ その他の食料・飲料販売業",
      "address": "山口県岩国市玖珂町字豆田1010-1",
      "lat": 34.094628,
      "lng": 132.083129,
      "geocoding_level": null,
      "phone": "0827-82-6163",
      "license_no": "",
      "license_date": null,
      "expire_date": null
    },
    {
      "name": "株式会社HALLE JAPON",
      "name_kana": "カブシキガイシャアルジャポン",
      "business_type": "㉕ 行商",
      "address": "山口県岩国市含む県内一円（但し、下関市を除く）",
      "lat": 33.957529,
      "lng": 130.941175,
      "geocoding_level": null,
      "phone": "",
      "license_no": "",
      "license_date": null,
      "expire_date": null
    },
    {
      "name": "小川豆腐店",
      "name_kana": "オガワトウフテン",
      "business_type": "㉒ 豆腐製造業",
      "address": "山口県岩国市青木町二丁目5-35",
      "lat": 34.099985,
      "lng": 132.197504,
      "geocoding_level": null,
      "phone": "0827-38-0166",
      "license_no": "令3岩健第663-52号",
      "license_date": "2021-08-23",
      "expire_date": "2027-08-31"
    },
    {
      "name": "株式会社岩国魚市場",
      "name_kana": "カブシキガイシャイワクニウオイチバ",
      "business_type": "⑤ 魚介類競り売り営業",
      "address": "山口県岩国市尾津町五丁目11-1",
      "lat": 34.128955,
      "lng": 132.219209,
      "geocoding_level": null,
      "phone": "0827-32-7700",
      "license_no": "令4岩健第20-78号",
      "license_date": "2022-05-23",
      "expire_date": "2028-05-31"
    },
    {
      "name": "株式会社　岩国魚市場",
      "name_kana": "カブシキガイシャ　ウオイチバ",
      "business_type": "④ 魚介類販売業",
      "address": "山口県岩国市尾津町五丁目11-1",
      "lat": 34.129723,
      "lng": 132.218871,
      "geocoding_level": null,
      "phone": "",
      "license_no": "令8岩健第20-4の1-4号",
      "license_date": "2026-05-16",
      "expire_date": "2026-05-16"
    },
    {
      "name": "横田商店",
      "name_kana": "ヨコタショウテン",
      "business_type": "① 飲食店営業",
      "address": "山口県岩国市今津町三丁目18-24",
      "lat": 34.162303,
      "lng": 132.215981,
      "geocoding_level": null,
      "phone": "0827-21-1462",
      "license_no": "令3岩健第663-55号",
      "license_date": "2021-08-24",
      "expire_date": "2027-08-31"
    },
    {
      "name": "横田商店",
      "name_kana": "ヨコタショウテン",
      "business_type": "㉙ 漬物製造業",
      "address": "山口県岩国市今津町三丁目18-24",
      "lat": 34.162303,
      "lng": 132.215981,
      "geocoding_level": null,
      "phone": "0827-21-1462",
      "license_no": "令4岩健第20-304号",
      "license_date": "2023-02-21",
      "expire_date": "2029-02-28"
    },
    {
      "name": "美河フランク号",
      "name_kana": "ミカワフランクゴウ",
      "business_type": "① 飲食店営業",
      "address": "山口県岩国市三笠町一丁目1-1",
      "lat": 34.167789,
      "lng": 132.225044,
      "geocoding_level": null,
      "phone": "",
      "license_no": "令8岩健第20-1の6-6号",
      "license_date": "2026-05-01",
      "expire_date": "2031-05-31"
    },
    {
      "name": "すずか農園",
      "name_kana": "スズカノウエン",
      "business_type": "① 飲食店営業",
      "address": "山口県岩国市三笠町一丁目1-1",
      "lat": 34.167789,
      "lng": 132.225044,
      "geocoding_level": null,
      "phone": "",
      "license_no": "令5岩健第20-26号",
      "license_date": "2023-04-26",
      "expire_date": "2028-05-31"
    },
    {
      "name": "カラオケ喫茶まりりん",
      "name_kana": "カラオケキッサマリリン",
      "business_type": "① 飲食店営業",
      "address": "山口県岩国市保津町二丁目4-66",
      "lat": 34.084351,
      "lng": 132.209302,
      "geocoding_level": null,
      "phone": "0827-38-3010",
      "license_no": "令3岩健第663-56号",
      "license_date": "2021-08-30",
      "expire_date": "2026-08-31"
    },
    {
      "name": "季節料理　はまゆう",
      "name_kana": "キセツリョウリ　ハマユウ",
      "business_type": "① 飲食店営業",
      "address": "山口県岩国市青木町三丁目31-7",
      "lat": 34.093794,
      "lng": 132.205196,
      "geocoding_level": null,
      "phone": "",
      "license_no": "令3岩健第663-57号",
      "license_date": "2021-08-30",
      "expire_date": "2027-08-31"
    },
    {
      "name": "菓子処　一呂",
      "name_kana": "カシドコロ　イチロ",
      "business_type": "⑪ 菓子製造業",
      "address": "山口県岩国市岩国一丁目1-7-4F",
      "lat": 34.168015,
      "lng": 132.180496,
      "geocoding_level": null,
      "phone": "0827-43-1111",
      "license_no": "令3岩健第663-58号",
      "license_date": "2021-08-30",
      "expire_date": "2027-08-31"
    },
    {
      "name": "岩国国際観光ホテル株式会社",
      "name_kana": "イワクニコクサイカンコウホテルカブシキガイシャ",
      "business_type": "① 飲食店営業",
      "address": "山口県岩国市岩国一丁目1-7-1F",
      "lat": 34.168063,
      "lng": 132.180438,
      "geocoding_level": null,
      "phone": "0827-43-1111",
      "license_no": "令7岩健第20-275号",
      "license_date": "2026-02-20",
      "expire_date": "2032-02-29"
    },
    {
      "name": "錦帯橋DINING　桜",
      "name_kana": "キンタイキョウダイニング　サクラ",
      "business_type": "① 飲食店営業",
      "address": "山口県岩国市岩国一丁目1-7-2F",
      "lat": 34.168063,
      "lng": 132.180438,
      "geocoding_level": null,
      "phone": "0827-43-1111",
      "license_no": "令7岩健第20-276号",
      "license_date": "2026-02-20",
      "expire_date": "2032-02-29"
    },
    {
      "name": "岩国国際観光ホテル株式会社",
      "name_kana": "イワクニコクサイカンコウホテルカブシキガイシャ",
      "business_type": "① 飲食店営業",
      "address": "山口県岩国市岩国一丁目1-7-3F",
      "lat": 34.168063,
      "lng": 132.180438,
      "geocoding_level": null,
      "phone": "0827-43-1111",
      "license_no": "令7岩健第20-277号",
      "license_date": "2026-02-20",
      "expire_date": "2032-02-29"
    },
    {
      "name": "岩国国際観光ホテル株式会社",
      "name_kana": "イワクニコクサイカンコウホテルカブシキガイシャ",
      "business_type": "① 飲食店営業",
      "address": "山口県岩国市岩国一丁目1-7-4F",
      "lat": 34.168063,
      "lng": 132.180438,
      "geocoding_level": null,
      "phone": "0827-43-1111",
      "license_no": "令7岩健第20-278号",
      "license_date": "2026-02-20",
      "expire_date": "2032-02-29"
    },
    {
      "name": "セブン-イレブン玖珂千束店",
      "name_kana": "セブンイレブンクガセンゾクテン",
      "business_type": "① 飲食店営業",
      "address": "山口県岩国市玖珂町千束6611-1",
      "lat": 34.093004,
      "lng": 132.069911,
      "geocoding_level": null,
      "phone": "0827-80-0201",
      "license_no": "令3岩健第663-61号",
      "license_date": "2021-08-30",
      "expire_date": "2027-08-31"
    },
    {
      "name": "ケンタッキーフライドチキン南岩国店",
      "name_kana": "ケンタッキーフライドチキンミナミイワクニテン",
      "business_type": "① 飲食店営業",
      "address": "山口県岩国市南岩国町一丁目24-8",
      "lat": 34.133675,
      "lng": 132.20241,
      "geocoding_level": null,
      "phone": "0827-34-0022",
      "license_no": "令3岩健第663-62号",
      "license_date": "2021-08-30",
      "expire_date": "2027-08-31"
    },
    {
      "name": "花咲　中央フード平田",
      "name_kana": "ハナサキチュウオウフードヒラタ",
      "business_type": "① 飲食店営業",
      "address": "山口県岩国市南岩国町二丁目76-27 中央フード平田店内",
      "lat": 34.139305,
      "lng": 132.192386,
      "geocoding_level": null,
      "phone": "0827-31-4311",
      "license_no": "令4岩健第20-61号",
      "license_date": "2022-05-19",
      "expire_date": "2028-05-31"
    },
    {
      "name": "花咲　アルク西岩国",
      "name_kana": "ハナサキアルクニシイワクニ",
      "business_type": "① 飲食店営業",
      "address": "山口県岩国市錦見五丁目17-13 アルク西岩国店内",
      "lat": 34.165158,
      "lng": 132.19138,
      "geocoding_level": null,
      "phone": "0827-41-1233",
      "license_no": "令4岩健第20-62号",
      "license_date": "2022-05-19",
      "expire_date": "2028-05-31"
    },
    {
      "name": "岩国アンデルセン",
      "name_kana": "イワクニアンデルセン",
      "business_type": "① 飲食店営業",
      "address": "山口県岩国市麻里布町二丁目1-18",
      "lat": 34.171666,
      "lng": 132.224268,
      "geocoding_level": null,
      "phone": "0827-21-2242",
      "license_no": "令3岩健第663-65号",
      "license_date": "2021-08-31",
      "expire_date": "2027-08-31"
    },
    {
      "name": "岩国アンデルセン",
      "name_kana": "イワクニアンデルセン",
      "business_type": "⑪ 菓子製造業",
      "address": "山口県岩国市麻里布町二丁目1-18",
      "lat": 34.171666,
      "lng": 132.224268,
      "geocoding_level": null,
      "phone": "0827-21-2242",
      "license_no": "令3岩健第663-64号",
      "license_date": "2021-08-31",
      "expire_date": "2027-08-31"
    },
    {
      "name": "ローソン岩国川西三丁目店",
      "name_kana": "ローソンイワクニカワニシサンチョウメテン",
      "business_type": "① 飲食店営業",
      "address": "山口県岩国市川西三丁目７番20号",
      "lat": 34.155496,
      "lng": 132.17471,
      "geocoding_level": null,
      "phone": "",
      "license_no": "令3岩健第663-66号",
      "license_date": "2021-08-31",
      "expire_date": "2027-08-31"
    },
    {
      "name": "ローソン岩国川西三丁目店",
      "name_kana": "ローソンイワクニカワニシサンチョウメテン",
      "business_type": "⑩ コンビニエンスストア",
      "address": "山口県岩国市川西三丁目７番20号",
      "lat": 34.155496,
      "lng": 132.17471,
      "geocoding_level": null,
      "phone": "",
      "license_no": "",
      "license_date": null,
      "expire_date": null
    },
    {
      "name": "株式会社　錦月堂本舗",
      "name_kana": "カブシキガイシャ　キンゲツドウホンポ",
      "business_type": "⑪ 菓子製造業",
      "address": "山口県岩国市麻里布町三丁目3-3",
      "lat": 34.17121,
      "lng": 132.223121,
      "geocoding_level": null,
      "phone": "0827-23-1150",
      "license_no": "令3岩健第663-71号",
      "license_date": "2021-08-31",
      "expire_date": "2027-08-31"
    },
    {
      "name": "ECLIPSE",
      "name_kana": "エクリプス",
      "business_type": "① 飲食店営業",
      "address": "山口県岩国市麻里布町三丁目13-13 マリフ３１３ビル２階２０８号室",
      "lat": 34.170876,
      "lng": 132.221647,
      "geocoding_level": null,
      "phone": "090-9508-3855",
      "license_no": "令4岩健第20-7号",
      "license_date": "2022-04-20",
      "expire_date": "2028-05-31"
    },
    {
      "name": "ヘルシーな惣菜の店　やまね",
      "name_kana": "ヘルシーナソウザイノミセ　ヤマネ",
      "business_type": "① 飲食店営業",
      "address": "山口県岩国市周東町下久原970",
      "lat": 34.087826,
      "lng": 132.04993,
      "geocoding_level": null,
      "phone": "0827-84-1474",
      "license_no": "令3岩健第663-73号",
      "license_date": "2021-08-31",
      "expire_date": "2027-08-31"
    },
    {
      "name": "有限会社風の便り",
      "name_kana": "ユウゲンガイシャカゼノタヨリ",
      "business_type": "① 飲食店営業",
      "address": "山口県岩国市平田二丁目18-12",
      "lat": 34.144517,
      "lng": 132.1755,
      "geocoding_level": null,
      "phone": "0827-32-1118",
      "license_no": "令3岩健第663-74号",
      "license_date": "2021-08-31",
      "expire_date": "2026-08-31"
    },
    {
      "name": "COCCI NELLA",
      "name_kana": "コッチ　ネッラ",
      "business_type": "㉕ そうざい製造業",
      "address": "山口県岩国市天尾1000番地5",
      "lat": 34.202661,
      "lng": 132.049062,
      "geocoding_level": null,
      "phone": "0827-37-0370",
      "license_no": "令7岩健第20-147号",
      "license_date": "2025-10-14",
      "expire_date": "2031-11-30"
    },
    {
      "name": "カンパーニュ",
      "name_kana": "カンパーニュ",
      "business_type": "① 飲食店営業",
      "address": "山口県岩国市川西二丁目7-25",
      "lat": 34.157602,
      "lng": 132.176889,
      "geocoding_level": null,
      "phone": "0827-43-4477",
      "license_no": "令3岩健第663-75号",
      "license_date": "2021-08-31",
      "expire_date": "2027-08-31"
    },
    {
      "name": "麻里布珈琲",
      "name_kana": "マリフコーヒー",
      "business_type": "① 飲食店営業",
      "address": "山口県岩国市麻里布町六丁目13-5 河本ビル1F",
      "lat": 34.169642,
      "lng": 132.217764,
      "geocoding_level": null,
      "phone": "0827-21-8721",
      "license_no": "令3岩健第663-222号",
      "license_date": "2022-01-26",
      "expire_date": "2028-02-29"
    },
    {
      "name": "肉やま",
      "name_kana": "ニクヤマ",
      "business_type": "① 飲食店営業",
      "address": "山口県岩国市立石町三丁目1-40",
      "lat": 34.165063,
      "lng": 132.21777,
      "geocoding_level": null,
      "phone": "0827-23-4129",
      "license_no": "令6岩健第20-178号",
      "license_date": "2024-10-23",
      "expire_date": "2030-11-30"
    },
    {
      "name": "麻里布珈琲ロースター　錦帯橋前店",
      "name_kana": "マリフコーヒーロースター　キンタイキョウマエテン",
      "business_type": "① 飲食店営業",
      "address": "山口県岩国市岩国一丁目2-2",
      "lat": 34.16714,
      "lng": 132.179474,
      "geocoding_level": null,
      "phone": "0827-28-2433",
      "license_no": "令7岩健第20-249号",
      "license_date": "2025-12-11",
      "expire_date": "2032-02-29"
    },
    {
      "name": "特定非営利活動法人たんぽぽわたげの会　たんぽぽ保育園",
      "name_kana": "トクテイヒエイリカツドウホウジンタンポポワタゲノカイタンポポホイクエン",
      "business_type": "㉖ 集団給食施設",
      "address": "山口県岩国市周東町下久原771-16",
      "lat": 34.094124,
      "lng": 132.050965,
      "geocoding_level": null,
      "phone": "0827-84-7373",
      "license_no": "",
      "license_date": null,
      "expire_date": null
    },
    {
      "name": "ＣＯＣＣＩ　ＮＥＬＬＡ",
      "name_kana": "コッチ　ネッラ",
      "business_type": "① 飲食店営業",
      "address": "山口県岩国市天尾1000番地5",
      "lat": 34.177921,
      "lng": 132.067568,
      "geocoding_level": null,
      "phone": "0827-37-0370",
      "license_no": "令3岩健第663-78号",
      "license_date": "2021-09-02",
      "expire_date": "2027-11-30"
    },
    {
      "name": "Fuhne",
      "name_kana": "フウネ",
      "business_type": "① 飲食店営業",
      "address": "山口県岩国市由宇町神東1330-2",
      "lat": 34.006417,
      "lng": 132.213217,
      "geocoding_level": null,
      "phone": "090-4148-4522",
      "license_no": "令3岩健第663-82号",
      "license_date": "2021-09-15",
      "expire_date": "2027-11-30"
    },
    {
      "name": "COCCI NELLA",
      "name_kana": "コッチ　ネッラ",
      "business_type": "⑬ その他の食料・飲料販売業",
      "address": "山口県岩国市天尾1000番地5",
      "lat": 34.202661,
      "lng": 132.049062,
      "geocoding_level": null,
      "phone": "0827-37-0370",
      "license_no": "",
      "license_date": null,
      "expire_date": null
    },
    {
      "name": "森林体験交流施設”丸太村”",
      "name_kana": "シンリンタイケンコウリュウシセツマルタムラ",
      "business_type": "① 飲食店営業",
      "address": "山口県岩国市周東町用田137-2",
      "lat": 34.079474,
      "lng": 132.049863,
      "geocoding_level": null,
      "phone": "0827-84-1213",
      "license_no": "令7岩健第20-183号",
      "license_date": "2025-11-11",
      "expire_date": "2031-11-30"
    },
    {
      "name": "森林体験交流施設”丸太村”",
      "name_kana": "シンリンタイケンコウリュウシセツマルタムラ",
      "business_type": "⑬ その他の食料・飲料販売業",
      "address": "山口県岩国市周東町用田137-2",
      "lat": 34.079474,
      "lng": 132.049863,
      "geocoding_level": null,
      "phone": "0827-84-1213",
      "license_no": "",
      "license_date": null,
      "expire_date": null
    },
    {
      "name": "株式会社原田食品　周東工場",
      "name_kana": "カブシキガイシャハラダショクヒン　シュウトウコウジョウ",
      "business_type": "㉔ その他の食料品製造・加工業",
      "address": "山口県岩国市周東町上久原1901-1",
      "lat": 34.066109,
      "lng": 132.050039,
      "geocoding_level": null,
      "phone": "0827-74-2300",
      "license_no": "",
      "license_date": null,
      "expire_date": null
    },
    {
      "name": "株式会社原田食品　周東工場",
      "name_kana": "カブシキガイシャハラダショクヒンシュウトウコウジョウ",
      "business_type": "⑪ 菓子製造業",
      "address": "山口県岩国市周東町上久原1901-1",
      "lat": 34.066138,
      "lng": 132.050079,
      "geocoding_level": null,
      "phone": "0827-84-2300",
      "license_no": "令4岩健第20-277号",
      "license_date": "2023-01-30",
      "expire_date": "2029-02-28"
    },
    {
      "name": "株式会社原田食品　周東工場",
      "name_kana": "カブシキガイシャハラダショクヒン　シュウトウコウジョウ",
      "business_type": "㉚ 密封包装食品製造業",
      "address": "山口県岩国市周東町上久原1901番地1",
      "lat": 34.066138,
      "lng": 132.050079,
      "geocoding_level": null,
      "phone": "0827-84-2300",
      "license_no": "令6岩健第20-67号",
      "license_date": "2024-05-17",
      "expire_date": "2030-05-31"
    },
    {
      "name": "Fuhne",
      "name_kana": "フウネ",
      "business_type": "⑪ 菓子製造業",
      "address": "山口県岩国市由宇町神東1330-2",
      "lat": 34.006417,
      "lng": 132.213217,
      "geocoding_level": null,
      "phone": "090-4148-4522",
      "license_no": "令3岩健第663-83号",
      "license_date": "2021-09-15",
      "expire_date": "2027-11-30"
    },
    {
      "name": "琴緒",
      "name_kana": "コト",
      "business_type": "① 飲食店営業",
      "address": "山口県岩国市麻里布町一丁目4-1 第二新岩国ビル6Ｆ",
      "lat": 34.172741,
      "lng": 132.224325,
      "geocoding_level": null,
      "phone": "090-8714-7575",
      "license_no": "令3岩健第663-79号",
      "license_date": "2021-09-06",
      "expire_date": "2027-11-30"
    },
    {
      "name": "里山ひよじ村養蜂部",
      "name_kana": "サトヤマヒヨジムラヨウホウブ",
      "business_type": "㉔ その他の食料品製造・加工業",
      "address": "山口県岩国市玖珂町5769-1",
      "lat": 34.089097,
      "lng": 132.076468,
      "geocoding_level": null,
      "phone": "",
      "license_no": "",
      "license_date": null,
      "expire_date": null
    },
    {
      "name": "株式会社セントラル・コールド・ストレージ",
      "name_kana": "セントラル・コールド・ストレージ",
      "business_type": "㉙ その他",
      "address": "山口県岩国市尾津町五丁目11-1",
      "lat": 34.128955,
      "lng": 132.219209,
      "geocoding_level": null,
      "phone": "0827-34-1503",
      "license_no": "",
      "license_date": null,
      "expire_date": null
    },
    {
      "name": "スシロー岩国麻里布店",
      "name_kana": "スシローイワクニマリフテン",
      "business_type": "① 飲食店営業",
      "address": "山口県岩国市麻里布町五丁目15番35号",
      "lat": 34.175095,
      "lng": 132.222177,
      "geocoding_level": null,
      "phone": "0827-30-5550",
      "license_no": "令3岩健第663-182号",
      "license_date": "2021-11-24",
      "expire_date": "2027-11-30"
    },
    {
      "name": "スシロー岩国麻里布店",
      "name_kana": "スシローイワクニマリフテン",
      "business_type": "① 魚介類販売業（包装済みの魚介類のみの販売）",
      "address": "山口県岩国市麻里布町五丁目15番35号",
      "lat": 34.175095,
      "lng": 132.222177,
      "geocoding_level": null,
      "phone": "0827-30-5550",
      "license_no": "",
      "license_date": null,
      "expire_date": null
    },
    {
      "name": "コメダ珈琲店　フジ南岩国店",
      "name_kana": "コメダコーヒーテンフジミナミイワクニテン",
      "business_type": "① 飲食店営業",
      "address": "山口県岩国市南岩国町三丁目22番63号",
      "lat": 34.132354,
      "lng": 132.199292,
      "geocoding_level": null,
      "phone": "",
      "license_no": "令5岩健第20-69号",
      "license_date": "2023-06-02",
      "expire_date": "2029-08-31"
    },
    {
      "name": "有限会社のむら食品",
      "name_kana": "ユウゲンガイシャノムラショクヒン",
      "business_type": "㉚ 密封包装食品製造業",
      "address": "山口県岩国市柱野46",
      "lat": 34.155764,
      "lng": 132.14353,
      "geocoding_level": null,
      "phone": "0827-46-0875",
      "license_no": "令7岩健第20-115号",
      "license_date": "2025-08-21",
      "expire_date": "2030-08-31"
    },
    {
      "name": "企業組合山代の里",
      "name_kana": "キギョウクミアイヤマシロノサト",
      "business_type": "㉔ その他の食料品製造・加工業",
      "address": "山口県岩国市本郷町本郷1694-1",
      "lat": 34.289053,
      "lng": 132.037851,
      "geocoding_level": null,
      "phone": "0827-75-2100",
      "license_no": "",
      "license_date": null,
      "expire_date": null
    },
    {
      "name": "企業組合山代の里",
      "name_kana": "キギョウクミアイヤマシヨノサト",
      "business_type": "㉕ そうざい製造業",
      "address": "山口県岩国市本郷町本郷1694-1",
      "lat": 34.289053,
      "lng": 132.037851,
      "geocoding_level": null,
      "phone": "0827-75-2100",
      "license_no": "令3岩健第663-84号",
      "license_date": "2021-09-22",
      "expire_date": "2028-08-31"
    },
    {
      "name": "企業組合山代の里",
      "name_kana": "キギョウクミアイヤマシロノサト",
      "business_type": "㉙ 漬物製造業",
      "address": "山口県岩国市本郷町本郷1694-1",
      "lat": 34.289053,
      "lng": 132.037851,
      "geocoding_level": null,
      "phone": "0827-75-2100",
      "license_no": "令4岩健第20-336号",
      "license_date": "2023-03-31",
      "expire_date": "2029-08-31"
    },
    {
      "name": "企業組合山代の里",
      "name_kana": "キギョウクミアイヤマシロノサト",
      "business_type": "㉚ 密封包装食品製造業",
      "address": "山口県岩国市本郷町本郷1694-1",
      "lat": 34.289053,
      "lng": 132.037851,
      "geocoding_level": null,
      "phone": "0827-75-2100",
      "license_no": "令4岩健第20-337号",
      "license_date": "2023-03-31",
      "expire_date": "2029-08-31"
    },
    {
      "name": "塚本蜂場",
      "name_kana": "ツカモトホウジョウ",
      "business_type": "㉔ その他の食料品製造・加工業",
      "address": "山口県岩国市阿品656番地",
      "lat": 34.186745,
      "lng": 132.136794,
      "geocoding_level": null,
      "phone": "0827-43-2348",
      "license_no": "",
      "license_date": null,
      "expire_date": null
    },
    {
      "name": "はま寿司　岩国店",
      "name_kana": "ハマズシ　イワクニテン",
      "business_type": "① 飲食店営業",
      "address": "山口県岩国市山手町四丁目3番20号",
      "lat": 34.160866,
      "lng": 132.204021,
      "geocoding_level": null,
      "phone": "0827301111",
      "license_no": "令6岩健第20-179号",
      "license_date": "2024-10-23",
      "expire_date": "2030-11-30"
    },
    {
      "name": "岩国市立ひがし保育園",
      "name_kana": "イワクニシリツヒガシホイクエン",
      "business_type": "㉖ 集団給食施設",
      "address": "山口県岩国市桂町二丁目4-56",
      "lat": 34.171622,
      "lng": 132.233291,
      "geocoding_level": null,
      "phone": "0827-21-0854",
      "license_no": "",
      "license_date": null,
      "expire_date": null
    },
    {
      "name": "岩国市立かわしも保育園",
      "name_kana": "イワクニシリツカワシモホイクエン",
      "business_type": "㉖ 集団給食施設",
      "address": "山口県岩国市中津町二丁目7-20",
      "lat": 34.151625,
      "lng": 132.215861,
      "geocoding_level": null,
      "phone": "0827-21-1657",
      "license_no": "",
      "license_date": null,
      "expire_date": null
    },
    {
      "name": "岩国市立くろいそ保育園",
      "name_kana": "イワクニシリツクロイソホイクエン",
      "business_type": "㉖ 集団給食施設",
      "address": "山口県岩国市黒磯町二丁目47-43",
      "lat": 34.104099,
      "lng": 132.193516,
      "geocoding_level": null,
      "phone": "0827-31-6330",
      "license_no": "",
      "license_date": null,
      "expire_date": null
    },
    {
      "name": "岩国市立えきまえ保育園",
      "name_kana": "イワクニシリツエキマエホイクエン",
      "business_type": "㉖ 集団給食施設",
      "address": "山口県岩国市麻里布町七丁目1-5",
      "lat": 34.171395,
      "lng": 132.21906,
      "geocoding_level": null,
      "phone": "0827-22-5830",
      "license_no": "",
      "license_date": null,
      "expire_date": null
    },
    {
      "name": "ＳＡＩＧＯＮ　ＭＡＲＴ",
      "name_kana": "サイゴンマート",
      "business_type": "⑬ その他の食料・飲料販売業",
      "address": "山口県岩国市麻里布町三丁目3-4-6 見室不動産ビル1階北側",
      "lat": 34.17124,
      "lng": 132.222755,
      "geocoding_level": null,
      "phone": "",
      "license_no": "",
      "license_date": null,
      "expire_date": null
    },
    {
      "name": "Ｉｗａｋｕｎｉ　ｃａｆｅ　ｈａｌｉｈａｌｉ",
      "name_kana": "イワクニ　カフェ　ハリハリ",
      "business_type": "① 飲食店営業",
      "address": "山口県岩国市錦見七丁目1-29",
      "lat": 34.160038,
      "lng": 132.184594,
      "geocoding_level": null,
      "phone": "",
      "license_no": "令3岩健第663-85号",
      "license_date": "2021-09-24",
      "expire_date": "2027-11-30"
    },
    {
      "name": "スタンド　Ｃｌａｉｌ",
      "name_kana": "スタンド　クレール",
      "business_type": "① 飲食店営業",
      "address": "山口県岩国市麻里布町三丁目19-1 色彩館ビル1Ｆ",
      "lat": 34.171107,
      "lng": 132.220932,
      "geocoding_level": null,
      "phone": "0827-23-2557",
      "license_no": "令3岩健第663-86号",
      "license_date": "2021-09-29",
      "expire_date": "2027-11-30"
    },
    {
      "name": "トーア化成（株）",
      "name_kana": "トーアカセイカブ",
      "business_type": "㉗ 器具、容器包装の製造・加工業（合成樹脂が使用された器具又は容器包装の製造、加工に限る。）",
      "address": "山口県岩国市小瀬1420-3",
      "lat": 34.228882,
      "lng": 132.18164,
      "geocoding_level": null,
      "phone": "0827-57-7855",
      "license_no": "",
      "license_date": null,
      "expire_date": null
    },
    {
      "name": "渚",
      "name_kana": "ナギサ",
      "business_type": "① 飲食店営業",
      "address": "山口県岩国市麻里布町六丁目1-24 億萬ビル103",
      "lat": 34.170973,
      "lng": 132.219614,
      "geocoding_level": null,
      "phone": "",
      "license_no": "令3岩健第663-93号",
      "license_date": "2021-10-06",
      "expire_date": "2027-11-30"
    },
    {
      "name": "TARO",
      "name_kana": "タロウ",
      "business_type": "⑰ 農産保存食料品製造・加工業",
      "address": "山口県岩国市由宇町港2丁目19",
      "lat": 34.045786,
      "lng": 132.216125,
      "geocoding_level": null,
      "phone": "0827630044",
      "license_no": "",
      "license_date": null,
      "expire_date": null
    },
    {
      "name": "ミス・サイゴン",
      "name_kana": "ミス　サイゴン",
      "business_type": "① 飲食店営業",
      "address": "山口県岩国市麻里布町三丁目19-9",
      "lat": 34.170815,
      "lng": 132.220221,
      "geocoding_level": null,
      "phone": "",
      "license_no": "令3岩健第663-95号",
      "license_date": "2021-10-08",
      "expire_date": "2027-11-30"
    },
    {
      "name": "ambiente",
      "name_kana": "アンビエンテ",
      "business_type": "① 飲食店営業",
      "address": "山口県岩国市麻里布町二丁目3-13 麻里布ビル1F",
      "lat": 34.170625,
      "lng": 132.223237,
      "geocoding_level": null,
      "phone": "0827-23-6309",
      "license_no": "令7岩健第20-258号",
      "license_date": "2026-01-27",
      "expire_date": "2032-02-29"
    },
    {
      "name": "岩国市消費生活協同組合",
      "name_kana": "イワクニシショウヒセイカツキョウドウクミアイ",
      "business_type": "⑩ コンビニエンスストア",
      "address": "山口県岩国市今津町一丁目14-51",
      "lat": 34.166571,
      "lng": 132.218901,
      "geocoding_level": null,
      "phone": "0827-21-4563",
      "license_no": "",
      "license_date": null,
      "expire_date": null
    },
    {
      "name": "台湾料理　福来順",
      "name_kana": "タイワンリョウリ　フクライジュン",
      "business_type": "① 飲食店営業",
      "address": "山口県岩国市周東町下久原1704-1",
      "lat": 34.09252,
      "lng": 132.047954,
      "geocoding_level": null,
      "phone": "0827-84-5122",
      "license_no": "令3岩健第663-98号",
      "license_date": "2021-10-13",
      "expire_date": "2027-11-30"
    },
    {
      "name": "Ｃｏｃｏｒｏ",
      "name_kana": "ココロ",
      "business_type": "① 飲食店営業",
      "address": "山口県岩国市麻里布町三丁目10-10 水中ビル201",
      "lat": 34.170385,
      "lng": 132.220394,
      "geocoding_level": null,
      "phone": "",
      "license_no": "令3岩健第663-102号",
      "license_date": "2021-10-20",
      "expire_date": "2027-11-30"
    },
    {
      "name": "農産物加工直売　まごころの里",
      "name_kana": "ノウサンブツカコウチョクバイ　マゴコロノサト",
      "business_type": "㉔ その他の食料品製造・加工業",
      "address": "山口県岩国市美和町生見1887-4",
      "lat": 34.244658,
      "lng": 132.083889,
      "geocoding_level": null,
      "phone": "0827-97-0500",
      "license_no": "",
      "license_date": null,
      "expire_date": null
    },
    {
      "name": "農産物加工直売所　まごころの里",
      "name_kana": "ノウサンブツカコウチョクバイショ　マゴコロノサト",
      "business_type": "① 飲食店営業",
      "address": "山口県岩国市美和町生見1887-4",
      "lat": 34.244658,
      "lng": 132.083889,
      "geocoding_level": null,
      "phone": "0827-97-0500",
      "license_no": "令6岩健第20-221号",
      "license_date": "2024-11-18",
      "expire_date": "2030-11-30"
    },
    {
      "name": "農産物加工直売所　まごころの里",
      "name_kana": "ノウサンブツカコウチョクバイジョ　マゴコロノサト",
      "business_type": "⑪ 菓子製造業",
      "address": "山口県岩国市美和町生見1887-4",
      "lat": 34.244658,
      "lng": 132.083889,
      "geocoding_level": null,
      "phone": "0827-97-0500",
      "license_no": "令6岩健第20-222号",
      "license_date": "2024-11-18",
      "expire_date": "2030-11-30"
    },
    {
      "name": "コーヒー豆のニシキ",
      "name_kana": "コーヒーマメノニシキ",
      "business_type": "⑯ コーヒー製造・加工業（飲料の製造を除く。）",
      "address": "山口県岩国市麻里布町三丁目6-10",
      "lat": 34.168941,
      "lng": 132.222312,
      "geocoding_level": null,
      "phone": "0827-21-1841",
      "license_no": "",
      "license_date": null,
      "expire_date": null
    },
    {
      "name": "デイリーヤマザキ　岩国多田店",
      "name_kana": "デイリーヤマザキ　イワクニタダテン",
      "business_type": "① 飲食店営業",
      "address": "山口県岩国市多田1110-11",
      "lat": 34.181568,
      "lng": 132.165248,
      "geocoding_level": null,
      "phone": "",
      "license_no": "令3岩健第663-104号",
      "license_date": "2021-10-20",
      "expire_date": "2027-11-30"
    },
    {
      "name": "デイリーヤマザキ　岩国多田店",
      "name_kana": "デイリーヤマザキ　イワクニタダテン",
      "business_type": "⑪ 菓子製造業",
      "address": "山口県岩国市多田1110-11",
      "lat": 34.181568,
      "lng": 132.165248,
      "geocoding_level": null,
      "phone": "",
      "license_no": "令3岩健第663-105号",
      "license_date": "2021-10-20",
      "expire_date": "2027-11-30"
    },
    {
      "name": "デイリーヤマザキ　岩国多田店",
      "name_kana": "デイリーヤマザキ　イワクニタダテン",
      "business_type": "⑩ コンビニエンスストア",
      "address": "山口県岩国市多田1110-11",
      "lat": 34.18155,
      "lng": 132.165257,
      "geocoding_level": null,
      "phone": "",
      "license_no": "",
      "license_date": null,
      "expire_date": null
    },
    {
      "name": "デイリーヤマザキ岩国牛野谷町店",
      "name_kana": "デイリーヤマザキイワクニウシノヤマチテン",
      "business_type": "① 飲食店営業",
      "address": "山口県岩国市牛野谷町二丁目22-11",
      "lat": 34.154381,
      "lng": 132.199065,
      "geocoding_level": null,
      "phone": "0827-32-5035",
      "license_no": "令4岩健第20-131号",
      "license_date": "2022-07-27",
      "expire_date": "2028-08-31"
    },
    {
      "name": "デイリーヤマザキ岩国牛野谷町店",
      "name_kana": "デイリーヤマザキイワクニウシノヤマチテン",
      "business_type": "⑪ 菓子製造業",
      "address": "山口県岩国市牛野谷町二丁目22-11",
      "lat": 34.154381,
      "lng": 132.199065,
      "geocoding_level": null,
      "phone": "0827-32-5035",
      "license_no": "令4岩健第20-132号",
      "license_date": "2022-07-27",
      "expire_date": "2028-08-31"
    },
    {
      "name": "デイリーヤマザキ岩国牛野谷町店",
      "name_kana": "デイリーヤマザキイワクニウシノヤマチテン",
      "business_type": "⑩ コンビニエンスストア",
      "address": "山口県岩国市牛野谷町二丁目22-11",
      "lat": 34.154381,
      "lng": 132.199065,
      "geocoding_level": null,
      "phone": "0827-32-5035",
      "license_no": "",
      "license_date": null,
      "expire_date": null
    },
    {
      "name": "サービス付高齢者向け住宅寺迫",
      "name_kana": "サービスツキコウレイシャムケジュウタクテラサコ",
      "business_type": "① 飲食店営業",
      "address": "山口県岩国市由宇町政所3918-1",
      "lat": 34.03238,
      "lng": 132.212263,
      "geocoding_level": null,
      "phone": "0827-63-6611",
      "license_no": "令3岩健第663-107号",
      "license_date": "2021-10-25",
      "expire_date": "2027-11-30"
    },
    {
      "name": "キッチン　ことれっと",
      "name_kana": "キッチン　コトレット",
      "business_type": "① 飲食店営業",
      "address": "山口県岩国市由宇町港一丁目9-21",
      "lat": 34.046675,
      "lng": 132.213928,
      "geocoding_level": null,
      "phone": "0827-93-4135",
      "license_no": "令3岩健第663-108号",
      "license_date": "2021-10-25",
      "expire_date": "2027-11-30"
    },
    {
      "name": "ゆの里デイサービスセンター",
      "name_kana": "ユノサトデイサービスセンター",
      "business_type": "① 飲食店営業",
      "address": "山口県岩国市由宇町南沖一丁目10-25-2",
      "lat": 34.040693,
      "lng": 132.215335,
      "geocoding_level": null,
      "phone": "0827-63-2827",
      "license_no": "令3岩健第663-109号",
      "license_date": "2021-10-25",
      "expire_date": "2027-11-30"
    },
    {
      "name": "花善",
      "name_kana": "カゼン",
      "business_type": "① 飲食店営業",
      "address": "山口県岩国市麻里布町三丁目11-8",
      "lat": 34.17045,
      "lng": 132.221194,
      "geocoding_level": null,
      "phone": "",
      "license_no": "令3岩健第663-117号",
      "license_date": "2021-10-25",
      "expire_date": "2027-11-30"
    },
    {
      "name": "Ｃａｃｏ",
      "name_kana": "カコ",
      "business_type": "① 飲食店営業",
      "address": "山口県岩国市麻里布町三丁目19-1 色彩館ビル2Ｆ",
      "lat": 34.171107,
      "lng": 132.220932,
      "geocoding_level": null,
      "phone": "",
      "license_no": "令3岩健第663-115号",
      "license_date": "2021-10-25",
      "expire_date": "2027-11-30"
    },
    {
      "name": "ｍｏｍｏ",
      "name_kana": "モモ",
      "business_type": "① 飲食店営業",
      "address": "山口県岩国市麻里布町三丁目19-1 色彩館ビル301",
      "lat": 34.171107,
      "lng": 132.220932,
      "geocoding_level": null,
      "phone": "0827-24-5181",
      "license_no": "令3岩健第663-113号",
      "license_date": "2021-10-25",
      "expire_date": "2027-11-30"
    },
    {
      "name": "ｔｗｉｎｋｌｅ",
      "name_kana": "ツインクル",
      "business_type": "① 飲食店営業",
      "address": "山口県岩国市麻里布町三丁目11-25",
      "lat": 34.170956,
      "lng": 132.221033,
      "geocoding_level": null,
      "phone": "0827-23-2600",
      "license_no": "令3岩健第663-112号",
      "license_date": "2021-10-25",
      "expire_date": "2027-11-30"
    },
    {
      "name": "マキシム",
      "name_kana": "マキシム",
      "business_type": "① 飲食店営業",
      "address": "山口県岩国市麻里布町三丁目11-25",
      "lat": 34.170956,
      "lng": 132.221033,
      "geocoding_level": null,
      "phone": "",
      "license_no": "令3岩健第663-110号",
      "license_date": "2021-10-25",
      "expire_date": "2027-11-30"
    },
    {
      "name": "ら・ぺー",
      "name_kana": "ラ・ペー",
      "business_type": "① 飲食店営業",
      "address": "山口県岩国市麻里布町三丁目13-2",
      "lat": 34.171045,
      "lng": 132.222158,
      "geocoding_level": null,
      "phone": "",
      "license_no": "令3岩健第663-111号",
      "license_date": "2021-10-26",
      "expire_date": "2027-11-30"
    },
    {
      "name": "スナック  ニューヒルベリヘブン",
      "name_kana": "スナック  ニューヒルベリヘブン",
      "business_type": "① 飲食店営業",
      "address": "山口県岩国市中津町一丁目25-16",
      "lat": 34.156377,
      "lng": 132.216145,
      "geocoding_level": null,
      "phone": "0827-22-8982",
      "license_no": "令3岩健第663-116号",
      "license_date": "2021-10-26",
      "expire_date": "2027-11-30"
    },
    {
      "name": "ポエム",
      "name_kana": "ポエム",
      "business_type": "① 飲食店営業",
      "address": "山口県岩国市麻里布町三丁目2-26",
      "lat": 34.171505,
      "lng": 132.222996,
      "geocoding_level": null,
      "phone": "",
      "license_no": "令3岩健第663-118号",
      "license_date": "2021-10-26",
      "expire_date": "2027-11-30"
    },
    {
      "name": "瀧川",
      "name_kana": "タキガワ",
      "business_type": "① 飲食店営業",
      "address": "山口県岩国市横山二丁目5-31",
      "lat": 34.168381,
      "lng": 132.17659,
      "geocoding_level": null,
      "phone": "0827-41-0233",
      "license_no": "令3岩健第663-120号",
      "license_date": "2021-11-08",
      "expire_date": "2027-11-30"
    },
    {
      "name": "にしみ特産手づくりグループ",
      "name_kana": "ニシミトクサンテヅクリグループ",
      "business_type": "① 飲食店営業",
      "address": "山口県岩国市錦見五丁目18-32",
      "lat": 34.163064,
      "lng": 132.1917,
      "geocoding_level": null,
      "phone": "",
      "license_no": "令4岩健第571-37号",
      "license_date": "2021-10-28",
      "expire_date": "2026-11-30"
    },
    {
      "name": "むさし",
      "name_kana": "ムサシ",
      "business_type": "① 飲食店営業",
      "address": "山口県岩国市横山二丁目1-23",
      "lat": 34.168228,
      "lng": 132.176995,
      "geocoding_level": null,
      "phone": "0827-43-6340",
      "license_no": "令3岩健第663-122号",
      "license_date": "2021-10-28",
      "expire_date": "2027-11-30"
    },
    {
      "name": "錦亭",
      "name_kana": "ニシキテイ",
      "business_type": "① 飲食店営業",
      "address": "山口県岩国市関戸一丁目109 錦果楼　2F",
      "lat": 34.185089,
      "lng": 132.174072,
      "geocoding_level": null,
      "phone": "0827-44-1133",
      "license_no": "令４岩健第20-189号",
      "license_date": "2022-10-25",
      "expire_date": "2028-11-30"
    },
    {
      "name": "れんげ",
      "name_kana": "レンゲ",
      "business_type": "① 飲食店営業",
      "address": "山口県岩国市岩国一丁目16の10",
      "lat": 34.165385,
      "lng": 132.181094,
      "geocoding_level": null,
      "phone": "0827-43-1925",
      "license_no": "令3岩健第663-124号",
      "license_date": "2021-10-28",
      "expire_date": "2027-11-30"
    },
    {
      "name": "たつみ屋",
      "name_kana": "タツミヤ",
      "business_type": "① 飲食店営業",
      "address": "山口県岩国市岩国一丁目16-1",
      "lat": 34.165248,
      "lng": 132.181248,
      "geocoding_level": null,
      "phone": "0827-41-0782",
      "license_no": "令3岩健第663-125号",
      "license_date": "2021-10-28",
      "expire_date": "2027-11-30"
    },
    {
      "name": "欽明館",
      "name_kana": "キンメイカン",
      "business_type": "② 調理機能を有する自動販売機（要許可）",
      "address": "山口県岩国市川西三丁目12-45",
      "lat": 34.153224,
      "lng": 132.173687,
      "geocoding_level": null,
      "phone": "080-5239-4742",
      "license_no": "令3岩健第663-119号",
      "license_date": "2021-10-28",
      "expire_date": "2026-11-30"
    },
    {
      "name": "欽明館",
      "name_kana": "キンメイカン",
      "business_type": "① 飲食店営業",
      "address": "山口県岩国市川西三丁目12-45",
      "lat": 34.153224,
      "lng": 132.173687,
      "geocoding_level": null,
      "phone": "080-5239-4742",
      "license_no": "令4岩健第20-241号",
      "license_date": "2022-11-16",
      "expire_date": "2028-11-30"
    },
    {
      "name": "花園",
      "name_kana": "カエン",
      "business_type": "① 飲食店営業",
      "address": "山口県岩国市昭和町一丁目2-10",
      "lat": 34.173307,
      "lng": 132.227476,
      "geocoding_level": null,
      "phone": "0827-21-1585",
      "license_no": "令3岩健第663-126号",
      "license_date": "2021-10-29",
      "expire_date": "2027-11-30"
    },
    {
      "name": "セブン-イレブン岩国旭町店",
      "name_kana": "セブンーイレブンイワクニアサヒマチテン",
      "business_type": "① 飲食店営業",
      "address": "山口県岩国市旭町一丁目10番地6",
      "lat": 34.160053,
      "lng": 132.225665,
      "geocoding_level": null,
      "phone": "0827-21-1102",
      "license_no": "令3岩健第663-127号",
      "license_date": "2021-10-29",
      "expire_date": "2027-11-30"
    },
    {
      "name": "セブン-イレブン岩国旭町店",
      "name_kana": "セブンーイレブンイワクニアサヒマチテン",
      "business_type": "⑩ コンビニエンスストア",
      "address": "山口県岩国市旭町一丁目10番地6",
      "lat": 34.160053,
      "lng": 132.225665,
      "geocoding_level": null,
      "phone": "0827-21-1102",
      "license_no": "",
      "license_date": null,
      "expire_date": null
    },
    {
      "name": "ヴェール",
      "name_kana": "ヴェール",
      "business_type": "① 飲食店営業",
      "address": "山口県岩国市麻里布町三丁目10-4 吉田ビル101",
      "lat": 34.170086,
      "lng": 132.220616,
      "geocoding_level": null,
      "phone": "0827-22-0005",
      "license_no": "令3岩健第663-129号",
      "license_date": "2021-10-29",
      "expire_date": "2027-11-30"
    },
    {
      "name": "伽風豆虫",
      "name_kana": "カブトムシ",
      "business_type": "① 飲食店営業",
      "address": "山口県岩国市麻里布町三丁目11-5 コスモ90ビル4Ｆ",
      "lat": 34.170684,
      "lng": 132.221233,
      "geocoding_level": null,
      "phone": "",
      "license_no": "令3岩健第663-131号",
      "license_date": "2021-11-01",
      "expire_date": "2027-11-30"
    },
    {
      "name": "魚庄鮮魚店",
      "name_kana": "ウオショウセンギョテン",
      "business_type": "① 飲食店営業",
      "address": "山口県岩国市由宇町中央一丁目8-33",
      "lat": 34.046394,
      "lng": 132.211403,
      "geocoding_level": null,
      "phone": "0827-63-0157",
      "license_no": "令3岩健第663-133号",
      "license_date": "2021-11-01",
      "expire_date": "2027-11-30"
    },
    {
      "name": "魚庄鮮魚店",
      "name_kana": "ウオショウセンギョテン",
      "business_type": "④ 魚介類販売業",
      "address": "山口県岩国市由宇町中央一丁目8-33",
      "lat": 34.046394,
      "lng": 132.211403,
      "geocoding_level": null,
      "phone": "0827-63-0157",
      "license_no": "令3岩健第663-132号",
      "license_date": "2021-11-01",
      "expire_date": "2027-11-30"
    },
    {
      "name": "づぼら寿司",
      "name_kana": "ヅボラズシ",
      "business_type": "① 飲食店営業",
      "address": "山口県岩国市麻里布町二丁目3-21",
      "lat": 34.171116,
      "lng": 132.223429,
      "geocoding_level": null,
      "phone": "",
      "license_no": "令3岩健第663-134号",
      "license_date": "2021-11-04",
      "expire_date": "2027-11-30"
    },
    {
      "name": "づぼら寿司",
      "name_kana": "ヅボラズシ",
      "business_type": "⑯ 水産製品製造業",
      "address": "山口県岩国市麻里布町二丁目3-21",
      "lat": 34.171116,
      "lng": 132.223429,
      "geocoding_level": null,
      "phone": "0827-23-0690",
      "license_no": "令5岩健第20-357号",
      "license_date": "2024-03-19",
      "expire_date": "2030-05-31"
    },
    {
      "name": "白い館",
      "name_kana": "シロイヤカタ",
      "business_type": "① 飲食店営業",
      "address": "山口県岩国市麻里布町三丁目11-12",
      "lat": 34.170287,
      "lng": 132.221155,
      "geocoding_level": null,
      "phone": "",
      "license_no": "令3岩健第663-135号",
      "license_date": "2021-11-04",
      "expire_date": "2027-11-30"
    },
    {
      "name": "エピローグ",
      "name_kana": "エピローグ",
      "business_type": "① 飲食店営業",
      "address": "山口県岩国市麻里布町三丁目18-1 色彩館ビル1F",
      "lat": 34.171739,
      "lng": 132.220915,
      "geocoding_level": null,
      "phone": "0827-24-5931",
      "license_no": "令4岩健第20-148号",
      "license_date": "2022-08-25",
      "expire_date": "2028-11-30"
    },
    {
      "name": "季節料理　嵯峨",
      "name_kana": "キセツリョウリ　サガ",
      "business_type": "① 飲食店営業",
      "address": "山口県岩国市麻里布町六丁目1-23",
      "lat": 34.171082,
      "lng": 132.219546,
      "geocoding_level": null,
      "phone": "090-9065-2020",
      "license_no": "令3岩健第663-137号",
      "license_date": "2021-11-04",
      "expire_date": "2027-11-30"
    },
    {
      "name": "わかたけ",
      "name_kana": "ワカタケ",
      "business_type": "① 飲食店営業",
      "address": "山口県岩国市麻里布町三丁目10-17-102",
      "lat": 34.17071,
      "lng": 132.220577,
      "geocoding_level": null,
      "phone": "",
      "license_no": "令3岩健第663-139号",
      "license_date": "2021-11-04",
      "expire_date": "2027-11-30"
    },
    {
      "name": "ＴＩＡＲＡ",
      "name_kana": "ティアラ",
      "business_type": "① 飲食店営業",
      "address": "山口県岩国市麻里布町六丁目3-18 ラフォーレセーヌビル1Ｆ",
      "lat": 34.170235,
      "lng": 132.219681,
      "geocoding_level": null,
      "phone": "",
      "license_no": "令3岩健第663-140号",
      "license_date": "2021-11-04",
      "expire_date": "2027-11-30"
    },
    {
      "name": "炭火焼肉　ぶち　岩国店",
      "name_kana": "スミビヤキニク　ブチ　イワクニテン",
      "business_type": "① 飲食店営業",
      "address": "山口県岩国市麻里布町六丁目10-28-101",
      "lat": 34.169874,
      "lng": 132.219315,
      "geocoding_level": null,
      "phone": "0827-29-0291",
      "license_no": "令3岩健第663-143号",
      "license_date": "2021-11-04",
      "expire_date": "2027-11-30"
    },
    {
      "name": "ミュージックフレンド",
      "name_kana": "ミュージックフレンド",
      "business_type": "① 飲食店営業",
      "address": "山口県岩国市由宇町北一丁目11-7-2",
      "lat": 34.049661,
      "lng": 132.212117,
      "geocoding_level": null,
      "phone": "",
      "license_no": "令3岩健第663-144号",
      "license_date": "2021-11-04",
      "expire_date": "2026-11-30"
    },
    {
      "name": "華恋",
      "name_kana": "カレン",
      "business_type": "① 飲食店営業",
      "address": "山口県岩国市麻里布町三丁目10-16",
      "lat": 34.170687,
      "lng": 132.220462,
      "geocoding_level": null,
      "phone": "",
      "license_no": "令3岩健第663-145号",
      "license_date": "2021-11-04",
      "expire_date": "2027-11-30"
    },
    {
      "name": "じゃじゃ馬",
      "name_kana": "ジャジャウマ",
      "business_type": "① 飲食店営業",
      "address": "山口県岩国市麻里布町六丁目4-3 パークビル2Ｆ　Ａ号",
      "lat": 34.169642,
      "lng": 132.220587,
      "geocoding_level": null,
      "phone": "",
      "license_no": "令3岩健第663-147号",
      "license_date": "2021-11-04",
      "expire_date": "2027-11-30"
    },
    {
      "name": "青い鳥",
      "name_kana": "アオイトリ",
      "business_type": "① 飲食店営業",
      "address": "山口県岩国市麻里布町三丁目5-27",
      "lat": 34.17003,
      "lng": 132.221849,
      "geocoding_level": null,
      "phone": "0827-21-2777",
      "license_no": "令3岩健第663-148号",
      "license_date": "2021-11-24",
      "expire_date": "2026-11-30"
    },
    {
      "name": "カラオケＪＯＹＳＯＵＮＤ岩国駅前店",
      "name_kana": "カラオケジョイサウンドイワクニエキマエテン",
      "business_type": "① 飲食店営業",
      "address": "山口県岩国市麻里布町三丁目8-18 ＴＭＳビル",
      "lat": 34.169403,
      "lng": 132.221387,
      "geocoding_level": null,
      "phone": "0827-23-4400",
      "license_no": "令3岩健第663-150号",
      "license_date": "2021-11-04",
      "expire_date": "2027-11-30"
    },
    {
      "name": "あいのり",
      "name_kana": "アイノリ",
      "business_type": "① 飲食店営業",
      "address": "山口県岩国市麻里布町三丁目15-21",
      "lat": 34.171753,
      "lng": 132.221136,
      "geocoding_level": null,
      "phone": "",
      "license_no": "令3岩健第663-151号",
      "license_date": "2021-11-05",
      "expire_date": "2027-11-30"
    },
    {
      "name": "ＣＯＥＵＲＢＲＩＬＬＡＮＴ",
      "name_kana": "キュエルブリアント",
      "business_type": "⑪ 菓子製造業",
      "address": "山口県岩国市由宇町笠塚280-1",
      "lat": 34.030215,
      "lng": 132.186899,
      "geocoding_level": null,
      "phone": "",
      "license_no": "令3岩健第663-152号",
      "license_date": "2021-11-04",
      "expire_date": "2027-11-30"
    },
    {
      "name": "COEURBRILLANT",
      "name_kana": "キュエルブリリアント",
      "business_type": "① 飲食店営業",
      "address": "山口県岩国市由宇町笠塚280-1",
      "lat": 34.030215,
      "lng": 132.186899,
      "geocoding_level": null,
      "phone": "0827-63-4649",
      "license_no": "令6岩健第20-79号",
      "license_date": "2024-05-20",
      "expire_date": "2029-11-30"
    },
    {
      "name": "Natyuland",
      "name_kana": "ナチュランド",
      "business_type": "① 飲食店営業",
      "address": "山口県岩国市由宇町笠塚280-1",
      "lat": 34.030215,
      "lng": 132.186899,
      "geocoding_level": null,
      "phone": "0827-63-4649",
      "license_no": "令7岩健第20-202号",
      "license_date": "2025-11-14",
      "expire_date": "2030-11-30"
    },
    {
      "name": "みんと村",
      "name_kana": "ミントムラ",
      "business_type": "㉔ その他の食料品製造・加工業",
      "address": "山口県岩国市玖珂町5148-8",
      "lat": 34.086621,
      "lng": 132.080833,
      "geocoding_level": null,
      "phone": "0827-82-5982",
      "license_no": "",
      "license_date": null,
      "expire_date": null
    },
    {
      "name": "有限会社　岩国食肉",
      "name_kana": "ユウゲンガイシャ　イワクニショクニク",
      "business_type": "③ 食肉販売業",
      "address": "山口県岩国市尾津町五丁目11-1",
      "lat": 34.128955,
      "lng": 132.219209,
      "geocoding_level": null,
      "phone": "0827-32-7450",
      "license_no": "令3岩健第663-153号",
      "license_date": "2021-11-08",
      "expire_date": "2027-11-30"
    },
    {
      "name": "すき家　南岩国店",
      "name_kana": "スキヤ　ミナミイワクニテン",
      "business_type": "⑬ その他の食料・飲料販売業",
      "address": "山口県岩国市尾津町二丁目20-33",
      "lat": 34.138375,
      "lng": 132.208336,
      "geocoding_level": null,
      "phone": "",
      "license_no": "",
      "license_date": null,
      "expire_date": null
    },
    {
      "name": "すき家　2国岩国室の木店",
      "name_kana": "スキヤ　ニコクイワクニムロノキテン",
      "business_type": "⑬ その他の食料・飲料販売業",
      "address": "山口県岩国市室の木町一丁目8番38号",
      "lat": 34.170589,
      "lng": 132.207152,
      "geocoding_level": null,
      "phone": "",
      "license_no": "",
      "license_date": null,
      "expire_date": null
    },
    {
      "name": "すき家　南岩国店",
      "name_kana": "スキヤ　ミナミイワクニテン",
      "business_type": "① 飲食店営業",
      "address": "山口県岩国市尾津町二丁目20-33",
      "lat": 34.138375,
      "lng": 132.208336,
      "geocoding_level": null,
      "phone": "",
      "license_no": "令3岩健第663-12号",
      "license_date": "2021-07-26",
      "expire_date": "2027-08-31"
    },
    {
      "name": "すき家　2国岩国室の木店",
      "name_kana": "スキヤ　ニコクイワクニムロノキテン",
      "business_type": "① 飲食店営業",
      "address": "山口県岩国市室の木町１丁目8-38",
      "lat": 34.170589,
      "lng": 132.207152,
      "geocoding_level": null,
      "phone": "",
      "license_no": "令7岩健第20-9",
      "license_date": "2025-04-23",
      "expire_date": "2031-05-31"
    },
    {
      "name": "こまばスタジオ",
      "name_kana": "コマバスタジオ",
      "business_type": "① 飲食店営業",
      "address": "山口県岩国市麻里布町一丁目5-23",
      "lat": 34.174263,
      "lng": 132.224807,
      "geocoding_level": null,
      "phone": "0827-24-1893",
      "license_no": "令3岩健第663-154号",
      "license_date": "2021-11-08",
      "expire_date": "2026-11-30"
    },
    {
      "name": "ドラッグコスモス周東店",
      "name_kana": "ドラッグコスモスシュウトウテン",
      "business_type": "⑪ 百貨店、総合スーパー",
      "address": "山口県岩国市周東町下久原604-2",
      "lat": 34.090467,
      "lng": 132.058156,
      "geocoding_level": null,
      "phone": "0827-83-0230",
      "license_no": "",
      "license_date": null,
      "expire_date": null
    },
    {
      "name": "ドラッグコスモス川下店",
      "name_kana": "ドラッグコスモスカワシモテン",
      "business_type": "⑪ 百貨店、総合スーパー",
      "address": "山口県岩国市中津町３丁目５－５",
      "lat": 34.153076,
      "lng": 132.219143,
      "geocoding_level": null,
      "phone": "0827-30-7811",
      "license_no": "",
      "license_date": null,
      "expire_date": null
    },
    {
      "name": "ドラッグコスモス玖珂店",
      "name_kana": "ドラッグコスモスクガテン",
      "business_type": "⑪ 百貨店、総合スーパー",
      "address": "山口県岩国市玖珂町1116-1",
      "lat": 34.094995,
      "lng": 132.087723,
      "geocoding_level": null,
      "phone": "0827-81-0225",
      "license_no": "",
      "license_date": null,
      "expire_date": null
    },
    {
      "name": "ドラッグコスモス旭町店",
      "name_kana": "ドラッグコスモスアサヒマチテン",
      "business_type": "⑪ 百貨店、総合スーパー",
      "address": "山口県岩国市旭町２－９－５３",
      "lat": 34.160706,
      "lng": 132.226895,
      "geocoding_level": null,
      "phone": "0827-30-5155",
      "license_no": "",
      "license_date": null,
      "expire_date": null
    },
    {
      "name": "ドラッグコスモス錦帯橋店",
      "name_kana": "ドラッグコスモスキンタイキョウテン",
      "business_type": "⑪ 百貨店、総合スーパー",
      "address": "山口県岩国市岩国２丁目８－３３",
      "lat": 34.163012,
      "lng": 132.179377,
      "geocoding_level": null,
      "phone": "0827-44-2002",
      "license_no": "",
      "license_date": null,
      "expire_date": null
    },
    {
      "name": "ドラッグコスモス南岩国店",
      "name_kana": "ドラッグコスモスミナミイワクニテン",
      "business_type": "⑪ 百貨店、総合スーパー",
      "address": "山口県岩国市南岩国町５丁目２７－７",
      "lat": 34.122919,
      "lng": 132.19953,
      "geocoding_level": null,
      "phone": "0827-34-3360",
      "license_no": "",
      "license_date": null,
      "expire_date": null
    },
    {
      "name": "ドラッグコスモス室の木店",
      "name_kana": "ドラッグコスモスムロノキテン",
      "business_type": "⑪ 百貨店、総合スーパー",
      "address": "山口県岩国市室の木町１丁目７－４５",
      "lat": 34.170312,
      "lng": 132.210709,
      "geocoding_level": null,
      "phone": "0827-29-2771",
      "license_no": "",
      "license_date": null,
      "expire_date": null
    },
    {
      "name": "ＢＡＲ　ＳＥＣＯＮＤ　ＰＨＡＺ",
      "name_kana": "バーセカンドフェイズ",
      "business_type": "① 飲食店営業",
      "address": "山口県岩国市車町一丁目13-15",
      "lat": 34.155763,
      "lng": 132.21811,
      "geocoding_level": null,
      "phone": "0827-28-5034",
      "license_no": "令3岩健第663-160号",
      "license_date": "2021-11-10",
      "expire_date": "2027-11-30"
    },
    {
      "name": "和平　西岩国店",
      "name_kana": "ワヘイ　ニシイワクニテン",
      "business_type": "① 飲食店営業",
      "address": "山口県岩国市錦見三丁目7-3",
      "lat": 34.165666,
      "lng": 132.198803,
      "geocoding_level": null,
      "phone": "0827-35-4129",
      "license_no": "令3岩健第663-161号",
      "license_date": "2021-11-11",
      "expire_date": "2027-11-30"
    },
    {
      "name": "Ｋｉｔｔｙ",
      "name_kana": "キティ",
      "business_type": "① 飲食店営業",
      "address": "山口県岩国市麻里布町六丁目3-18 セーヌビル3Ｆ",
      "lat": 34.170241,
      "lng": 132.219768,
      "geocoding_level": null,
      "phone": "0827-22-6009",
      "license_no": "令3岩健第663-163号",
      "license_date": "2021-11-12",
      "expire_date": "2027-11-30"
    },