{
  "meta": {
    "updated": 1783568789,
    "sources": [
      {
        "source": "厚生労働省 食品衛生申請等システム（オープンデータ）",
        "license": "公共データ利用規約（第1.0版, PDL1.0）"
      }
    ]
  },
  "data": [
    {
      "name": "ホットヨガスタジオLAVA　くりえいと宗像",
      "name_kana": "ホットヨガスタジオラバ　クリエイトムナカタ",
      "business_type": "⑫ 自動販売機による販売業（コップ式自動販売機（自動洗浄・屋内設置）及び営業許可の対象となる自動販売機を除く）",
      "address": "福岡県宗像市くりえいと1-4-7",
      "lat": 33.811095,
      "lng": 130.564198,
      "geocoding_level": null,
      "phone": "",
      "license_no": "",
      "license_date": null,
      "expire_date": null
    },
    {
      "name": "ドン・キホーテ宗像",
      "name_kana": "ドン・キホーテムナカタ",
      "business_type": "⑤ コップ式自動販売機（自動洗浄・屋内設置）",
      "address": "福岡県宗像市原町272番1",
      "lat": 33.784822,
      "lng": 130.556992,
      "geocoding_level": null,
      "phone": "",
      "license_no": "",
      "license_date": null,
      "expire_date": null
    },
    {
      "name": "ドン・キホーテ宗像",
      "name_kana": "ドン・キホーテムナカタ",
      "business_type": "⑤ コップ式自動販売機（自動洗浄・屋内設置）",
      "address": "福岡県宗像市原町272番1",
      "lat": 33.784822,
      "lng": 130.556992,
      "geocoding_level": null,
      "phone": "",
      "license_no": "",
      "license_date": null,
      "expire_date": null
    },
    {
      "name": "カルディコーヒーファーム　サンリブくりえいと宗像店",
      "name_kana": "カルディコーヒーファーム　サンリブクリエイトムナカタテン",
      "business_type": "⑬ その他の食料・飲料販売業",
      "address": "福岡県宗像市くりえいと1-5-1 サンリブくりえいと宗像１Ｆ",
      "lat": 33.812038,
      "lng": 130.564307,
      "geocoding_level": null,
      "phone": "0940-33-6500",
      "license_no": "",
      "license_date": null,
      "expire_date": null
    },
    {
      "name": "株式会社丸珠物産　サンリブくりえいと宗像店",
      "name_kana": "カブシキガイシャマルタマブッサン　サンリブクリエイトムナカタテン",
      "business_type": "⑦ 野菜果物販売業",
      "address": "福岡県宗像市くりえいと1-5-1",
      "lat": 33.811833,
      "lng": 130.563856,
      "geocoding_level": null,
      "phone": "0940-38-0321",
      "license_no": "",
      "license_date": null,
      "expire_date": null
    },
    {
      "name": "ダイソー　ビバモール赤間店",
      "name_kana": "ダイソー　ビバモールアカマテン",
      "business_type": "⑬ その他の食料・飲料販売業",
      "address": "福岡県宗像市田久２－１－１",
      "lat": 33.805977,
      "lng": 130.568164,
      "geocoding_level": null,
      "phone": "",
      "license_no": "",
      "license_date": null,
      "expire_date": null
    },
    {
      "name": "ダイソー　くりえいと宗像店",
      "name_kana": "ダイソー　クリエイトムナカタテン",
      "business_type": "⑬ その他の食料・飲料販売業",
      "address": "福岡県宗像市くりえいと２丁目２－４",
      "lat": 33.814167,
      "lng": 130.564624,
      "geocoding_level": null,
      "phone": "",
      "license_no": "",
      "license_date": null,
      "expire_date": null
    },
    {
      "name": "スターバックスコーヒー宗像店",
      "name_kana": "スターバックスコーヒームナカタテン",
      "business_type": "⑬ その他の食料・飲料販売業",
      "address": "福岡県宗像市原町古森141-1",
      "lat": 33.782069,
      "lng": 130.557212,
      "geocoding_level": null,
      "phone": "0940-37-5010",
      "license_no": "",
      "license_date": null,
      "expire_date": null
    },
    {
      "name": "スターバックスコーヒー宗像ユリックス店",
      "name_kana": "スターバックスコーヒームナカタユリックステン",
      "business_type": "① 飲食店営業",
      "address": "福岡県宗像市久原400",
      "lat": 33.793152,
      "lng": 130.549944,
      "geocoding_level": null,
      "phone": "0940-72-8571",
      "license_no": "07宗遠保第0010187号",
      "license_date": "2025-11-25",
      "expire_date": "2033-09-30"
    },
    {
      "name": "スターバックスコーヒー宗像ユリックス店",
      "name_kana": "スターバックスコーヒームナカタユリックステン",
      "business_type": "⑬ その他の食料・飲料販売業",
      "address": "福岡県宗像市久原400",
      "lat": 33.793152,
      "lng": 130.549944,
      "geocoding_level": null,
      "phone": "0940-72-8571",
      "license_no": "",
      "license_date": null,
      "expire_date": null
    },
    {
      "name": "ANYTIME FITNESSくりえいと宗像店",
      "name_kana": "エニタイムフィットネスクリエイトムナカタテン",
      "business_type": "⑫ 自動販売機による販売業（コップ式自動販売機（自動洗浄・屋内設置）及び営業許可の対象となる自動販売機を除く）",
      "address": "福岡県宗像市くりえいと1-3-4",
      "lat": 33.810195,
      "lng": 130.564817,
      "geocoding_level": null,
      "phone": "0940625168",
      "license_no": "",
      "license_date": null,
      "expire_date": null
    },
    {
      "name": "ANYTIME FITNESSトリアーダ宗像店",
      "name_kana": "エニタイムフィットネストリアーダムナカタテン",
      "business_type": "⑫ 自動販売機による販売業（コップ式自動販売機（自動洗浄・屋内設置）及び営業許可の対象となる自動販売機を除く）",
      "address": "福岡県宗像市光岡278-1",
      "lat": 33.790744,
      "lng": 130.555941,
      "geocoding_level": null,
      "phone": "",
      "license_no": "",
      "license_date": null,
      "expire_date": null
    },
    {
      "name": "マックスバリュくりえいと宗像店",
      "name_kana": "マックスバリュクリエイトムナカタテン",
      "business_type": "⑫ 自動販売機による販売業（コップ式自動販売機（自動洗浄・屋内設置）及び営業許可の対象となる自動販売機を除く）",
      "address": "福岡県宗像市くりえいと3-3-20",
      "lat": 33.8191,
      "lng": 130.565948,
      "geocoding_level": null,
      "phone": "",
      "license_no": "",
      "license_date": null,
      "expire_date": null
    },
    {
      "name": "マルキョウ宗像店",
      "name_kana": "マルキョウムナカタテン",
      "business_type": "⑪ 百貨店、総合スーパー",
      "address": "福岡県宗像市東郷字川向1169番地",
      "lat": 33.804446,
      "lng": 130.541959,
      "geocoding_level": null,
      "phone": "",
      "license_no": "",
      "license_date": null,
      "expire_date": null
    },
    {
      "name": "サンドラッグ東郷店",
      "name_kana": "サンドラッグトウゴウテン",
      "business_type": "⑪ 百貨店、総合スーパー",
      "address": "福岡県宗像市田熊４丁目１－１７",
      "lat": 33.797435,
      "lng": 130.531084,
      "geocoding_level": null,
      "phone": "0940-37-7011",
      "license_no": "",
      "license_date": null,
      "expire_date": null
    },
    {
      "name": "中村学園事業部21740",
      "name_kana": "ナカムラガクエンジギョウブニイチナナヨンゼロ",
      "business_type": "① 飲食店営業",
      "address": "福岡県宗像市光岡久保田240-3",
      "lat": 33.790744,
      "lng": 130.555941,
      "geocoding_level": null,
      "phone": "0940363919",
      "license_no": "06宗遠保第0011106号",
      "license_date": "2024-09-24",
      "expire_date": "2031-09-30"
    },
    {
      "name": "中村学園事業部23540",
      "name_kana": "ナカムラガクエンジギョウブニサンゴヨンゼロ",
      "business_type": "① 飲食店営業",
      "address": "福岡県宗像市アスティ1丁目６番地",
      "lat": 33.794663,
      "lng": 130.609986,
      "geocoding_level": null,
      "phone": "",
      "license_no": "07宗遠保第0010088号",
      "license_date": "2025-08-25",
      "expire_date": "2032-09-30"
    },
    {
      "name": "もち吉　くりえいと宗像店",
      "name_kana": "モチキチ　クリエイトムナカタテン",
      "business_type": "⑬ その他の食料・飲料販売業",
      "address": "福岡県宗像市くりえいと1-5-6",
      "lat": 33.810536,
      "lng": 130.564838,
      "geocoding_level": null,
      "phone": "0940-32-6288",
      "license_no": "",
      "license_date": null,
      "expire_date": null
    },
    {
      "name": "最上鮮魚　サンリブ宗像店",
      "name_kana": "モガミセンギョ　サンリブムナカタテン",
      "business_type": "⑬ その他の食料・飲料販売業",
      "address": "福岡県宗像市くりえいと1丁目5-1",
      "lat": 33.81209,
      "lng": 130.563765,
      "geocoding_level": null,
      "phone": "0940332019",
      "license_no": "",
      "license_date": null,
      "expire_date": null
    },
    {
      "name": "ドン・キホーテ宗像店",
      "name_kana": "ドン・キホーテムナカタテン",
      "business_type": "⑪ 百貨店、総合スーパー",
      "address": "福岡県宗像市原町272番1",
      "lat": 33.784822,
      "lng": 130.556992,
      "geocoding_level": null,
      "phone": "0570-783-631",
      "license_no": "",
      "license_date": null,
      "expire_date": null
    },
    {
      "name": "サーティワンアイスクリームくりえいと宗像店",
      "name_kana": "サーティワンアイスクリームクリエイトムナカタテン",
      "business_type": "① 飲食店営業",
      "address": "福岡県宗像市くりえいと１－６－３",
      "lat": 33.813301,
      "lng": 130.564553,
      "geocoding_level": null,
      "phone": "0940-32-2431",
      "license_no": "05宗遠保第1990179号",
      "license_date": "2023-09-01",
      "expire_date": "2029-09-30"
    },
    {
      "name": "レガネット東郷",
      "name_kana": "レガネットトウゴウ",
      "business_type": "⑪ 百貨店、総合スーパー",
      "address": "福岡県宗像市田熊4-1-17",
      "lat": 33.797435,
      "lng": 130.531084,
      "geocoding_level": null,
      "phone": "0940-38-3366",
      "license_no": "",
      "license_date": null,
      "expire_date": null
    },
    {
      "name": "レガネット東郷",
      "name_kana": "レガネットトウゴウ",
      "business_type": "㉕ そうざい製造業",
      "address": "福岡県宗像市田熊4-1-17",
      "lat": 33.797435,
      "lng": 130.531084,
      "geocoding_level": null,
      "phone": "0940-38-3366",
      "license_no": "08宗遠保第1650047号",
      "license_date": "2026-05-21",
      "expire_date": "2033-09-30"
    },
    {
      "name": "ルミエール赤間店",
      "name_kana": "ルミエールアカマテン",
      "business_type": "⑪ 百貨店、総合スーパー",
      "address": "福岡県宗像市稲元3丁目3－1",
      "lat": 33.810641,
      "lng": 130.55046,
      "geocoding_level": null,
      "phone": "0940-35-1762",
      "license_no": "",
      "license_date": null,
      "expire_date": null
    },
    {
      "name": "丘の上ファーム",
      "name_kana": "オカノウエファーム",
      "business_type": "㉔ その他の食料品製造・加工業",
      "address": "福岡県宗像市田久1090-83",
      "lat": 33.798717,
      "lng": 130.571607,
      "geocoding_level": null,
      "phone": "0940-51-4325",
      "license_no": "",
      "license_date": null,
      "expire_date": null
    },
    {
      "name": "サンリブむなかた店",
      "name_kana": "サンリブムナカタテン",
      "business_type": "② 食肉販売業（包装済みの食肉のみの販売）",
      "address": "福岡県宗像市くりえいと1-5-1",
      "lat": 33.811833,
      "lng": 130.563856,
      "geocoding_level": null,
      "phone": "0940-35-0109",
      "license_no": "",
      "license_date": null,
      "expire_date": null
    },
    {
      "name": "ガスト 宗像店",
      "name_kana": "ガストムナカタテン",
      "business_type": "⑬ その他の食料・飲料販売業",
      "address": "福岡県宗像市光岡２７７－１ ガスト棟",
      "lat": 33.78558,
      "lng": 130.556475,
      "geocoding_level": null,
      "phone": "0940-34-2158",
      "license_no": "",
      "license_date": null,
      "expire_date": null
    },
    {
      "name": "老人ホームあかま",
      "name_kana": "ロウジンホームアカマ",
      "business_type": "③ 乳類販売業",
      "address": "福岡県宗像市田久505-1",
      "lat": 33.804051,
      "lng": 130.572461,
      "geocoding_level": null,
      "phone": "",
      "license_no": "",
      "license_date": null,
      "expire_date": null
    },
    {
      "name": "宗像ユリックステニスコート",
      "name_kana": "ムネカタユリックステニスコート",
      "business_type": "③ 乳類販売業",
      "address": "福岡県宗像市久原400",
      "lat": 33.793152,
      "lng": 130.549944,
      "geocoding_level": null,
      "phone": "",
      "license_no": "",
      "license_date": null,
      "expire_date": null
    },
    {
      "name": "くりた耳鼻咽喉科",
      "name_kana": "クリタジビインコウカ",
      "business_type": "③ 乳類販売業",
      "address": "福岡県宗像市くりえいと2-3-17",
      "lat": 33.816225,
      "lng": 130.564985,
      "geocoding_level": null,
      "phone": "",
      "license_no": "",
      "license_date": null,
      "expire_date": null
    },
    {
      "name": "緑ヶ丘学園",
      "name_kana": "ミドリガオカガクエン",
      "business_type": "③ 乳類販売業",
      "address": "福岡県宗像市大井1512-1",
      "lat": 33.791462,
      "lng": 130.512118,
      "geocoding_level": null,
      "phone": "",
      "license_no": "",
      "license_date": null,
      "expire_date": null
    },
    {
      "name": "赤間地区コミュニティセンター",
      "name_kana": "アカマチクコミュニティセンター",
      "business_type": "③ 乳類販売業",
      "address": "福岡県宗像市赤間2-3-1",
      "lat": 33.802851,
      "lng": 130.58658,
      "geocoding_level": null,
      "phone": "",
      "license_no": "",
      "license_date": null,
      "expire_date": null
    },
    {
      "name": "サンリブくりえいと宗像",
      "name_kana": "サンリブクリエイトムナカタ",
      "business_type": "③ 乳類販売業",
      "address": "福岡県宗像市くりえいと1-5-1",
      "lat": 33.811833,
      "lng": 130.563856,
      "geocoding_level": null,
      "phone": "",
      "license_no": "",
      "license_date": null,
      "expire_date": null
    },
    {
      "name": "コーポラス松永",
      "name_kana": "コーポラスマツナガ",
      "business_type": "③ 乳類販売業",
      "address": "福岡県宗像市赤間3-7-8 コーポラス松永",
      "lat": 33.803345,
      "lng": 130.589809,
      "geocoding_level": null,
      "phone": "",
      "license_no": "",
      "license_date": null,
      "expire_date": null
    },
    {
      "name": "清榮商事有限会社",
      "name_kana": "セイエイショウジユウゲンガイシャ",
      "business_type": "③ 乳類販売業",
      "address": "福岡県宗像市青葉台1-10-4",
      "lat": 33.777476,
      "lng": 130.582187,
      "geocoding_level": null,
      "phone": "",
      "license_no": "",
      "license_date": null,
      "expire_date": null
    },
    {
      "name": "大和リゾート",
      "name_kana": "ダイワリゾート",
      "business_type": "③ 乳類販売業",
      "address": "福岡県宗像市田野1303",
      "lat": 33.861403,
      "lng": 130.525034,
      "geocoding_level": null,
      "phone": "",
      "license_no": "",
      "license_date": null,
      "expire_date": null
    },
    {
      "name": "回生病院売店",
      "name_kana": "カイセイビョウインバイテン",
      "business_type": "③ 乳類販売業",
      "address": "福岡県宗像市朝町200-1",
      "lat": 33.763725,
      "lng": 130.596404,
      "geocoding_level": null,
      "phone": "",
      "license_no": "",
      "license_date": null,
      "expire_date": null
    },
    {
      "name": "ヤクルト赤間センター",
      "name_kana": "ヤクルトアカマセンター",
      "business_type": "③ 乳類販売業",
      "address": "福岡県宗像市赤間243-6",
      "lat": 33.804182,
      "lng": 130.58834,
      "geocoding_level": null,
      "phone": "",
      "license_no": "",
      "license_date": null,
      "expire_date": null
    },
    {
      "name": "ヤクルト東郷センター",
      "name_kana": "ヤクルトトウゴウセンター",
      "business_type": "③ 乳類販売業",
      "address": "福岡県宗像市田熊1-3-35",
      "lat": 33.800395,
      "lng": 130.533795,
      "geocoding_level": null,
      "phone": "",
      "license_no": "",
      "license_date": null,
      "expire_date": null
    },
    {
      "name": "サニー森林都市",
      "name_kana": "サニーシンリントシ",
      "business_type": "⑪ 百貨店、総合スーパー",
      "address": "福岡県宗像市自由ケ丘3-12-6",
      "lat": 33.794548,
      "lng": 130.57515,
      "geocoding_level": null,
      "phone": "0940-32-2091",
      "license_no": "",
      "license_date": null,
      "expire_date": null
    },
    {
      "name": "サニー日の里",
      "name_kana": "サニーヒノサト",
      "business_type": "⑪ 百貨店、総合スーパー",
      "address": "福岡県宗像市日の里1-28",
      "lat": 33.794123,
      "lng": 130.531153,
      "geocoding_level": null,
      "phone": "0940-36-1315",
      "license_no": "",
      "license_date": null,
      "expire_date": null
    },
    {
      "name": "ファミリーマートＪＲ赤間駅店",
      "name_kana": "ファミリーマートジェイアールアカマエキテン",
      "business_type": "⑩ コンビニエンスストア",
      "address": "福岡県宗像市赤間駅前1丁目1-1",
      "lat": 33.808351,
      "lng": 130.569522,
      "geocoding_level": null,
      "phone": "0940-38-8055",
      "license_no": "",
      "license_date": null,
      "expire_date": null
    },
    {
      "name": "ファミリーマートＪＲ東郷駅店",
      "name_kana": "ファミリーマートジェイアールトウゴウエキテン",
      "business_type": "⑩ コンビニエンスストア",
      "address": "福岡県宗像市田熊４丁目９－１",
      "lat": 33.794721,
      "lng": 130.528808,
      "geocoding_level": null,
      "phone": "0940-37-5022",
      "license_no": "",
      "license_date": null,
      "expire_date": null
    },
    {
      "name": "ゆめマート赤間",
      "name_kana": "ユメマートアカマ",
      "business_type": "⑪ 百貨店、総合スーパー",
      "address": "福岡県宗像市田久二丁目1番1号",
      "lat": 33.805894,
      "lng": 130.568172,
      "geocoding_level": null,
      "phone": "0940-35-6111",
      "license_no": "",
      "license_date": null,
      "expire_date": null
    },
    {
      "name": "スーパーセンタートライアル宗像店",
      "name_kana": "スーパーセンタートライアルムナカタテン",
      "business_type": "① 飲食店営業",
      "address": "福岡県宗像市稲元２丁目３－１",
      "lat": 33.808698,
      "lng": 130.548362,
      "geocoding_level": null,
      "phone": "0940-39-2555",
      "license_no": "05宗遠保第1991102号",
      "license_date": "2023-09-19",
      "expire_date": "2029-09-30"
    },
    {
      "name": "スーパーセンタートライアル宗像店",
      "name_kana": "スーパーセンタートライアルムナカタテン",
      "business_type": "⑪ 百貨店、総合スーパー",
      "address": "福岡県宗像市稲元２丁目３－１",
      "lat": 33.808698,
      "lng": 130.548362,
      "geocoding_level": null,
      "phone": "094-039-2555",
      "license_no": "",
      "license_date": null,
      "expire_date": null
    },
    {
      "name": "スーパーセンタートライアル宗像店",
      "name_kana": "スーパーセンタートライアルムナカタテン",
      "business_type": "① 飲食店営業",
      "address": "福岡県宗像市稲元２丁目３－１",
      "lat": 33.808698,
      "lng": 130.548362,
      "geocoding_level": null,
      "phone": "0940-39-2555",
      "license_no": "05宗遠保第1991101号",
      "license_date": "2023-09-19",
      "expire_date": "2029-09-30"
    },
    {
      "name": "スーパーセンタートライアル宗像店",
      "name_kana": "スーパーセンタートライアルムナカタテン",
      "business_type": "③ 食肉販売業",
      "address": "福岡県宗像市稲元２丁目３－１",
      "lat": 33.808698,
      "lng": 130.548362,
      "geocoding_level": null,
      "phone": "0940-39-2555",
      "license_no": "05宗遠保第1991104号",
      "license_date": "2023-09-19",
      "expire_date": "2029-09-30"
    },
    {
      "name": "スーパーセンタートライアル宗像店",
      "name_kana": "スーパーセンタートライアルムナカタテン",
      "business_type": "④ 魚介類販売業",
      "address": "福岡県宗像市稲元２丁目３－１",
      "lat": 33.808698,
      "lng": 130.548362,
      "geocoding_level": null,
      "phone": "0940-39-2555",
      "license_no": "05宗遠保第1991103号",
      "license_date": "2023-09-19",
      "expire_date": "2029-09-30"
    },
    {
      "name": "ひので家　サンリブ宗像店",
      "name_kana": "ヒノデヤ　サンリブムナカタテン",
      "business_type": "⑪ 百貨店、総合スーパー",
      "address": "福岡県宗像市くりえいと１‐５－１ サンリブ宗像店内",
      "lat": 33.811833,
      "lng": 130.563856,
      "geocoding_level": null,
      "phone": "0940337003",
      "license_no": "",
      "license_date": null,
      "expire_date": null
    },
    {
      "name": "KFCサンリブくりえいと宗像店",
      "name_kana": "ケンタッキーフライドチキンサンリブクリエイトムナカタテン",
      "business_type": "⑬ その他の食料・飲料販売業",
      "address": "福岡県宗像市くりえいと1丁目5-1",
      "lat": 33.81209,
      "lng": 130.563765,
      "geocoding_level": null,
      "phone": "0940-38-0212",
      "license_no": "",
      "license_date": null,
      "expire_date": null
    },
    {
      "name": "ドラッグストア　マツモトキヨシ宗像森林都市店",
      "name_kana": "ドラッグストア　マツモトキヨシムナカタシンリントシテン",
      "business_type": "⑬ その他の食料・飲料販売業",
      "address": "福岡県宗像市自由ケ丘三丁目12番4号",
      "lat": 33.793888,
      "lng": 130.575161,
      "geocoding_level": null,
      "phone": "0940320015",
      "license_no": "",
      "license_date": null,
      "expire_date": null
    },
    {
      "name": "井筒屋　宗像ショップ",
      "name_kana": "イヅツヤムナカタショップ",
      "business_type": "⑯ コーヒー製造・加工業（飲料の製造を除く。）",
      "address": "福岡県宗像市くりえいと1-5-1 サンリブくりえいと宗像1階",
      "lat": 33.811833,
      "lng": 130.563856,
      "geocoding_level": null,
      "phone": "0940-35-6132",
      "license_no": "",
      "license_date": null,
      "expire_date": null
    },
    {
      "name": "ロイヤルホスト宗像店",
      "name_kana": "ロイヤルホストムナカタテン",
      "business_type": "⑬ その他の食料・飲料販売業",
      "address": "福岡県宗像市王丸字徳丸756番地1",
      "lat": 33.780754,
      "lng": 130.545773,
      "geocoding_level": null,
      "phone": "0940-37-3456",
      "license_no": "",
      "license_date": null,
      "expire_date": null
    },
    {
      "name": "ミスタードーナツサンリブ宗像ショップ",
      "name_kana": "ミスタードーナツサンリブムナカタショップ",
      "business_type": "⑬ その他の食料・飲料販売業",
      "address": "福岡県宗像市くりえいと1-5-1 サンリブ宗像１階",
      "lat": 33.811833,
      "lng": 130.563856,
      "geocoding_level": null,
      "phone": "0940380238",
      "license_no": "",
      "license_date": null,
      "expire_date": null
    },
    {
      "name": "特別養護老人ホームあかま",
      "name_kana": "トクベツヨウゴロウジンホーム　アカマ",
      "business_type": "① 飲食店営業",
      "address": "福岡県宗像市田久3-11-1",
      "lat": 33.803347,
      "lng": 130.575261,
      "geocoding_level": null,
      "phone": "0940-38-9000",
      "license_no": "06宗遠保第0010124号",
      "license_date": "2024-07-23",
      "expire_date": "2031-09-30"
    },
    {
      "name": "日清医療食品(株)赤間病院事業所",
      "name_kana": "アカマビョウインジギョウショ",
      "business_type": "① 飲食店営業",
      "address": "福岡県宗像市石丸１－６－７",
      "lat": 33.805117,
      "lng": 130.594763,
      "geocoding_level": null,
      "phone": "094-032-2206",
      "license_no": "07宗遠保第0010057号",
      "license_date": "2025-05-30",
      "expire_date": "2031-09-30"
    },
    {
      "name": "北九州宗像中央病院",
      "name_kana": "キタキュウシュウムナカタチュウオウビョウイン",
      "business_type": "㉖ 集団給食施設",
      "address": "福岡県宗像市稲元二丁目2番5号",
      "lat": 33.807852,
      "lng": 130.548474,
      "geocoding_level": null,
      "phone": "",
      "license_no": "",
      "license_date": null,
      "expire_date": null
    },
    {
      "name": "宗像ユリックス",
      "name_kana": "ムナカタユリックス",
      "business_type": "⑬ その他の食料・飲料販売業",
      "address": "福岡県宗像市久原400番地",
      "lat": 33.793152,
      "lng": 130.549944,
      "geocoding_level": null,
      "phone": "092-762-4706",
      "license_no": "",
      "license_date": null,
      "expire_date": null
    },
    {
      "name": "如水庵サンリブ宗像店",
      "name_kana": "ジョスイアンサンリブムナカタテン",
      "business_type": "⑬ その他の食料・飲料販売業",
      "address": "福岡県宗像市くりえいと1-5-1 サンリブくりえいと宗像1階",
      "lat": 33.812036,
      "lng": 130.563727,
      "geocoding_level": null,
      "phone": "0940380252",
      "license_no": "",
      "license_date": null,
      "expire_date": null
    },
    {
      "name": "マックスバリュくりえいと宗像店",
      "name_kana": "マックスバリュクリエイトムナカタテン",
      "business_type": "③ 乳類販売業",
      "address": "福岡県宗像市くりえいと3丁目3番20号",
      "lat": 33.8191,
      "lng": 130.565948,
      "geocoding_level": null,
      "phone": "0940-39-2100",
      "license_no": "",
      "license_date": null,
      "expire_date": null
    },
    {
      "name": "マックスバリュくりえいと宗像店",
      "name_kana": "マックスバリュクリエイトムナカタテン",
      "business_type": "⑪ 百貨店、総合スーパー",
      "address": "福岡県宗像市くりえいと3丁目3番20号",
      "lat": 33.8191,
      "lng": 130.565948,
      "geocoding_level": null,
      "phone": "0940-39-2100",
      "license_no": "",
      "license_date": null,
      "expire_date": null
    },
    {
      "name": "株式会社ミスターマックス宗像店",
      "name_kana": "カブシキカイシャミスターマックスムナカタテン",
      "business_type": "⑪ 百貨店、総合スーパー",
      "address": "福岡県宗像市石丸３丁目７番１号",
      "lat": 33.809925,
      "lng": 130.597758,
      "geocoding_level": null,
      "phone": "0940-32-8111",
      "license_no": "",
      "license_date": null,
      "expire_date": null
    },
    {
      "name": "銀座に志かわくりえいと宗像",
      "name_kana": "ギンザニシカワクリエイトムナカタ",
      "business_type": "⑬ その他の食料・飲料販売業",
      "address": "福岡県宗像市くりえいと2丁目5-26",
      "lat": 33.817156,
      "lng": 130.564737,
      "geocoding_level": null,
      "phone": "",
      "license_no": "",
      "license_date": null,
      "expire_date": null
    },
    {
      "name": "スシロー宗像光岡店",
      "name_kana": "スシロームナカタミツオカテン",
      "business_type": "① 飲食店営業",
      "address": "福岡県宗像市光岡字古賀田294-1",
      "lat": 33.790744,
      "lng": 130.555941,
      "geocoding_level": null,
      "phone": "0940-34-8838",
      "license_no": "05宗遠保第1991110号",
      "license_date": "2023-09-01",
      "expire_date": "2031-09-30"
    },
    {
      "name": "宗像王丸・天然温泉　やまつばさ",
      "name_kana": "ムナカタオウマル・テンネンオンセン　ヤマツバサ",
      "business_type": "⑫ 自動販売機による販売業（コップ式自動販売機（自動洗浄・屋内設置）及び営業許可の対象となる自動販売機を除く）",
      "address": "福岡県宗像市王丸５０５－１４",
      "lat": 33.782829,
      "lng": 130.545554,
      "geocoding_level": null,
      "phone": "",
      "license_no": "",
      "license_date": null,
      "expire_date": null
    },
    {
      "name": "ワールドプラスジム宗像",
      "name_kana": "ワールドプラスジムムナカタ",
      "business_type": "⑤ コップ式自動販売機（自動洗浄・屋内設置）",
      "address": "福岡県宗像市野坂2652－1",
      "lat": 33.788904,
      "lng": 130.564957,
      "geocoding_level": null,
      "phone": "",
      "license_no": "",
      "license_date": null,
      "expire_date": null
    },
    {
      "name": "ＨＯＷ宗像病院売店",
      "name_kana": "ハウムナカタビョウインバイテン",
      "business_type": "⑩ コンビニエンスストア",
      "address": "福岡県宗像市光岡１３０",
      "lat": 33.787392,
      "lng": 130.559158,
      "geocoding_level": null,
      "phone": "0940-36-3396",
      "license_no": "",
      "license_date": null,
      "expire_date": null
    },
    {
      "name": "ＨＯＷ宗像医師会病院売店",
      "name_kana": "ハウムナカタイシカイビョウインバイテン",
      "business_type": "⑩ コンビニエンスストア",
      "address": "福岡県宗像市田熊５丁目５番３号",
      "lat": 33.800031,
      "lng": 130.5271,
      "geocoding_level": null,
      "phone": "0940-37-7155",
      "license_no": "",
      "license_date": null,
      "expire_date": null
    },
    {
      "name": "サンリブくりえいと宗像店",
      "name_kana": "ムナカタ",
      "business_type": "⑬ その他の食料・飲料販売業",
      "address": "福岡県宗像市くりえいと1-5-1",
      "lat": 33.811833,
      "lng": 130.563856,
      "geocoding_level": null,
      "phone": "",
      "license_no": "",
      "license_date": null,
      "expire_date": null
    },
    {
      "name": "１ＤＡＹＢＡＫＥＲＹ",
      "name_kana": "ワンデイベーカリー",
      "business_type": "⑬ その他の食料・飲料販売業",
      "address": "福岡県宗像市宗像市内一円",
      "lat": 33.805543,
      "lng": 130.541029,
      "geocoding_level": null,
      "phone": "080-3955-7459",
      "license_no": "",
      "license_date": null,
      "expire_date": null
    },
    {
      "name": "住宅型有料老人ホーム　みあれ苑",
      "name_kana": "ジュウタクガタユウリョウロウジンホーム　ミアレエン",
      "business_type": "㉖ 集団給食施設",
      "address": "福岡県宗像市田島2290-1",
      "lat": 33.829864,
      "lng": 130.513181,
      "geocoding_level": null,
      "phone": "0940-62-7600",
      "license_no": "",
      "license_date": null,
      "expire_date": null
    },
    {
      "name": "ダイレックス宗像店",
      "name_kana": "ダイレックスムナカタテン",
      "business_type": "⑦ 野菜果物販売業",
      "address": "福岡県宗像市赤間３丁目6番１号",
      "lat": 33.802513,
      "lng": 130.589055,
      "geocoding_level": null,
      "phone": "0940356173",
      "license_no": "",
      "license_date": null,
      "expire_date": null
    },
    {
      "name": "宗像ユリックス本館イベントホール 9月15日",
      "name_kana": "ムナカタユリックスホンカンイベントホール",
      "business_type": "⑬ その他の食料・飲料販売業",
      "address": "福岡県宗像市久原400",
      "lat": 33.793152,
      "lng": 130.549944,
      "geocoding_level": null,
      "phone": "0940371311",
      "license_no": "",
      "license_date": null,
      "expire_date": null
    },
    {
      "name": "恵愛保育園",
      "name_kana": "ケイアイホイクエン",
      "business_type": "㉖ 集団給食施設",
      "address": "福岡県宗像市三郎丸1-11-28",
      "lat": 33.810542,
      "lng": 130.572739,
      "geocoding_level": null,
      "phone": "0940323265",
      "license_no": "",
      "license_date": null,
      "expire_date": null
    },
    {
      "name": "ドラッグコスモス宗像東郷店",
      "name_kana": "ドラッグコスモスムナカタトウゴウテン",
      "business_type": "⑪ 百貨店、総合スーパー",
      "address": "福岡県宗像市平井2丁目1-7",
      "lat": 33.795497,
      "lng": 130.526828,
      "geocoding_level": null,
      "phone": "0940-37-7366",
      "license_no": "",
      "license_date": null,
      "expire_date": null
    },
    {
      "name": "ドラッグコスモス福岡宗像店",
      "name_kana": "ドラッグコスモスフクオカムナカタテン",
      "business_type": "⑪ 百貨店、総合スーパー",
      "address": "福岡県宗像市光岡9-1",
      "lat": 33.788274,
      "lng": 130.562402,
      "geocoding_level": null,
      "phone": "0940-38-3088",
      "license_no": "",
      "license_date": null,
      "expire_date": null
    },
    {
      "name": "ドラッグコスモスくりえいと宗像店",
      "name_kana": "ドラッグコスモスクリエイトムナカタテン",
      "business_type": "⑪ 百貨店、総合スーパー",
      "address": "福岡県宗像市くりえいと三丁目3番10号",
      "lat": 33.819168,
      "lng": 130.565269,
      "geocoding_level": null,
      "phone": "0940-38-8897",
      "license_no": "",
      "license_date": null,
      "expire_date": null
    },
    {
      "name": "ドラッグコスモス稲元店",
      "name_kana": "ドラッグコスモスイナモトテン",
      "business_type": "⑪ 百貨店、総合スーパー",
      "address": "福岡県宗像市稲元3丁目1-28",
      "lat": 33.809432,
      "lng": 130.551276,
      "geocoding_level": null,
      "phone": "0940-72-5355",
      "license_no": "",
      "license_date": null,
      "expire_date": null
    },
    {
      "name": "ライフステイむなかた",
      "name_kana": "ライフステイムナカタ",
      "business_type": "㉖ 集団給食施設",
      "address": "福岡県宗像市稲元3-1-35",
      "lat": 33.809608,
      "lng": 130.551135,
      "geocoding_level": null,
      "phone": "0940355580",
      "license_no": "",
      "license_date": null,
      "expire_date": null
    },
    {
      "name": "Caren保育園くりえいと",
      "name_kana": "カレンホイクエンクリエイト",
      "business_type": "㉖ 集団給食施設",
      "address": "福岡県宗像市くりえいと3-4-9",
      "lat": 33.819157,
      "lng": 130.564519,
      "geocoding_level": null,
      "phone": "0940-22-8122",
      "license_no": "",
      "license_date": null,
      "expire_date": null
    },
    {
      "name": "すき家　宗像赤間店",
      "name_kana": "スキヤ　ムナカタアカマテン",
      "business_type": "⑬ その他の食料・飲料販売業",
      "address": "福岡県宗像市赤間駅前2丁目2-19",
      "lat": 33.809247,
      "lng": 130.565822,
      "geocoding_level": null,
      "phone": "",
      "license_no": "",
      "license_date": null,
      "expire_date": null
    },
    {
      "name": "すき家　宗像赤間店",
      "name_kana": "スキヤ　ムナカタアカマテン",
      "business_type": "① 飲食店営業",
      "address": "福岡県宗像市赤間駅前2-2-19",
      "lat": 33.809247,
      "lng": 130.565822,
      "geocoding_level": null,
      "phone": "",
      "license_no": "05宗遠保第1991166号",
      "license_date": "2023-09-13",
      "expire_date": "2029-09-30"
    },
    {
      "name": "宗像店",
      "name_kana": "ムナカタテン",
      "business_type": "⑬ その他の食料・飲料販売業",
      "address": "福岡県宗像市赤間駅前１丁目４－１２",
      "lat": 33.80913,
      "lng": 130.570795,
      "geocoding_level": null,
      "phone": "",
      "license_no": "",
      "license_date": null,
      "expire_date": null
    },
    {
      "name": "ニチイケアセンター日の里",
      "name_kana": "ニチイケアセンターヒノサト",
      "business_type": "㉖ 集団給食施設",
      "address": "福岡県宗像市日の里七丁目25番2",
      "lat": 33.785046,
      "lng": 130.530757,
      "geocoding_level": null,
      "phone": "0940-36-6011",
      "license_no": "",
      "license_date": null,
      "expire_date": null
    },
    {
      "name": "ナフコ宗像店",
      "name_kana": "ナフコムナカタテン",
      "business_type": "⑬ その他の食料・飲料販売業",
      "address": "福岡県宗像市赤間駅前2丁目1番10号",
      "lat": 33.80894,
      "lng": 130.563613,
      "geocoding_level": null,
      "phone": "0940-32-1358",
      "license_no": "",
      "license_date": null,
      "expire_date": null
    },
    {
      "name": "ホームプラザナフコ南宗像店",
      "name_kana": "ホームプラザナフコミナミムナカタテン",
      "business_type": "⑬ その他の食料・飲料販売業",
      "address": "福岡県宗像市光岡１０５－１",
      "lat": 33.787608,
      "lng": 130.560548,
      "geocoding_level": null,
      "phone": "0940-36-8601",
      "license_no": "",
      "license_date": null,
      "expire_date": null
    },
    {
      "name": "宗像ユリックス",
      "name_kana": "ムナカタユリックス",
      "business_type": "⑬ その他の食料・飲料販売業",
      "address": "福岡県宗像市久原400",
      "lat": 33.793173,
      "lng": 130.549983,
      "geocoding_level": null,
      "phone": "",
      "license_no": "",
      "license_date": null,
      "expire_date": null
    },
    {
      "name": "fruits closet cafe",
      "name_kana": "フルーツクローゼットカフェ",
      "business_type": "㉕ 行商",
      "address": "福岡県宗像市鐘崎７７６−４",
      "lat": 33.878399,
      "lng": 130.529241,
      "geocoding_level": null,
      "phone": "08052009724",
      "license_no": "",
      "license_date": null,
      "expire_date": null
    },
    {
      "name": "むなかた特別支援学校",
      "name_kana": "ムナカタトクベツシエンガッコウ",
      "business_type": "① 飲食店営業",
      "address": "福岡県宗像市赤間文教町1番2号",
      "lat": 33.811804,
      "lng": 130.598119,
      "geocoding_level": null,
      "phone": "080-3498-4455",
      "license_no": "07宗遠保第0010285号",
      "license_date": "2026-03-13",
      "expire_date": "2033-09-30"
    },
    {
      "name": "福岡せせらぎ珈琲",
      "name_kana": "フクオカセセラギコーヒー",
      "business_type": "⑯ コーヒー製造・加工業（飲料の製造を除く。）",
      "address": "福岡県宗像市田熊4-7-15-301",
      "lat": 33.796209,
      "lng": 130.530676,
      "geocoding_level": null,
      "phone": "07052755824",
      "license_no": "",
      "license_date": null,
      "expire_date": null
    },
    {
      "name": "餃子の祭りや",
      "name_kana": "ギョウザノマツリヤ",
      "business_type": "① 飲食店営業",
      "address": "福岡県宗像市三郎丸1丁目4-1 ヴァンヌーブ102号室",
      "lat": 33.808931,
      "lng": 130.573338,
      "geocoding_level": null,
      "phone": "",
      "license_no": "03宗遠保第0040393号",
      "license_date": "2022-02-25",
      "expire_date": "2028-09-30"
    },
    {
      "name": "キューサイ株式会社",
      "name_kana": "キューサイカブシキガイシャ",
      "business_type": "⑮ いわゆる健康食品の製造・加工業",
      "address": "福岡県宗像市神湊32-1",
      "lat": 33.845632,
      "lng": 130.492241,
      "geocoding_level": null,
      "phone": "0940-62-8801",
      "license_no": "",
      "license_date": null,
      "expire_date": null
    },
    {
      "name": "宗像児童相談所",
      "name_kana": "ムナカタジドウソウダンショ",
      "business_type": "① 飲食店営業",
      "address": "福岡県宗像市東郷１丁目２番３号",
      "lat": 33.804829,
      "lng": 130.541238,
      "geocoding_level": null,
      "phone": "080-1707-6058",
      "license_no": "07宗遠保第0010299号",
      "license_date": "2026-03-12",
      "expire_date": "2033-09-30"
    },
    {
      "name": "OKBagel",
      "name_kana": "オッケーベーグル",
      "business_type": "⑬ その他の食料・飲料販売業",
      "address": "福岡県宗像市鐘崎７７６－４ 岬地区コミニティ・センター",
      "lat": 33.878399,
      "lng": 130.529241,
      "geocoding_level": null,
      "phone": "",
      "license_no": "",
      "license_date": null,
      "expire_date": null
    },
    {
      "name": "BUZZ SWEETS",
      "name_kana": "バズスイーツ",
      "business_type": "㉕ 行商",
      "address": "福岡県宗像市東郷1-2-1 福岡県宗像遠賀保健福祉環境事務所",
      "lat": 33.804615,
      "lng": 130.540609,
      "geocoding_level": null,
      "phone": "",
      "license_no": "",
      "license_date": null,
      "expire_date": null
    },
    {
      "name": "株式会社愛しとーと　五ケ山豆腐",
      "name_kana": "カブシキガイシャアイシトート　ゴカヤマトウフ",
      "business_type": "⑬ その他の食料・飲料販売業",
      "address": "福岡県宗像市吉留４６−１",
      "lat": 33.792987,
      "lng": 130.63763,
      "geocoding_level": null,
      "phone": "",
      "license_no": "",
      "license_date": null,
      "expire_date": null
    },
    {
      "name": "ピザクック宗像赤間店",
      "name_kana": "ピザクックムナカタアカマテン",
      "business_type": "① 飲食店営業",
      "address": "福岡県宗像市土穴1-1-27",
      "lat": 33.810168,
      "lng": 130.565254,
      "geocoding_level": null,
      "phone": "0940-32-9898",
      "license_no": "6宗遠保第0011101号",
      "license_date": "2024-09-09",
      "expire_date": "2031-09-30"
    },
    {
      "name": "ピザクック宗像赤間店",
      "name_kana": "ピザクックムナカタアカマテン",
      "business_type": "⑥ 弁当販売業",
      "address": "福岡県宗像市土穴1-1-27",
      "lat": 33.810168,
      "lng": 130.565254,
      "geocoding_level": null,
      "phone": "0940-32-9898",
      "license_no": "",
      "license_date": null,
      "expire_date": null
    },
    {
      "name": "業餃業自由が丘店",
      "name_kana": "ギョウギョウギョウジユウガオカテン",
      "business_type": "⑬ その他の食料・飲料販売業",
      "address": "福岡県宗像市自由ケ丘３丁目１６－６－２",
      "lat": 33.795325,
      "lng": 130.576491,
      "geocoding_level": null,
      "phone": "06-4307-5688",
      "license_no": "",
      "license_date": null,
      "expire_date": null
    },
    {
      "name": "業餃業東郷店",
      "name_kana": "ギョウギョウギョウトウゴウテン",
      "business_type": "⑬ その他の食料・飲料販売業",
      "address": "福岡県宗像市田熊４丁目８－８ 高原新１号ビル１階　１０２号",
      "lat": 33.795128,
      "lng": 130.529061,
      "geocoding_level": null,
      "phone": "06-4307-5688",
      "license_no": "",
      "license_date": null,
      "expire_date": null
    },
    {
      "name": "ひかりフードサービス",
      "name_kana": "ヒカリフードサービス",
      "business_type": "㉖ 集団給食施設",
      "address": "福岡県宗像市徳重１丁目２－１９",
      "lat": 33.79823,
      "lng": 130.583503,
      "geocoding_level": null,
      "phone": "",
      "license_no": "",
      "license_date": null,
      "expire_date": null
    },
    {
      "name": "道の駅　むなかた",
      "name_kana": "ミチノエキ　ムナカタ",
      "business_type": "⑬ その他の食料・飲料販売業",
      "address": "福岡県宗像市江口1172",
      "lat": 33.848451,
      "lng": 130.503452,
      "geocoding_level": null,
      "phone": "0940622715",
      "license_no": "",
      "license_date": null,
      "expire_date": null
    },
    {
      "name": "JR赤間駅",
      "name_kana": "ジェーアールアカマエキ",
      "business_type": "⑬ その他の食料・飲料販売業",
      "address": "福岡県宗像市赤間駅前1丁目1",
      "lat": 33.808264,
      "lng": 130.571031,
      "geocoding_level": null,
      "phone": "",
      "license_no": "",
      "license_date": null,
      "expire_date": null
    },
    {
      "name": "宗像ユリックス",
      "name_kana": "ムナカタユリックス",
      "business_type": "⑬ その他の食料・飲料販売業",
      "address": "福岡県宗像市久原400",
      "lat": 33.793152,
      "lng": 130.549944,
      "geocoding_level": null,
      "phone": "",
      "license_no": "",
      "license_date": null,
      "expire_date": null
    },
    {
      "name": "with CARNIVAL",
      "name_kana": "ウィズカーニバル",
      "business_type": "⑬ その他の食料・飲料販売業",
      "address": "福岡県宗像市久原180",
      "lat": 33.795782,
      "lng": 130.548553,
      "geocoding_level": null,
      "phone": "",
      "license_no": "",
      "license_date": null,
      "expire_date": null
    },
    {
      "name": "てくてく",
      "name_kana": "テクテク",
      "business_type": "⑬ その他の食料・飲料販売業",
      "address": "福岡県宗像市久原400",
      "lat": 33.793152,
      "lng": 130.549944,
      "geocoding_level": null,
      "phone": "",
      "license_no": "",
      "license_date": null,
      "expire_date": null
    },
    {
      "name": "まじょのたねマルシェ",
      "name_kana": "マジョノタネマルシェ",
      "business_type": "⑥ 弁当販売業",
      "address": "福岡県宗像市久原180",
      "lat": 33.795782,
      "lng": 130.548553,
      "geocoding_level": null,
      "phone": "",
      "license_no": "",
      "license_date": null,
      "expire_date": null
    },
    {
      "name": "株式会社九食",
      "name_kana": "キュウショク",
      "business_type": "⑫ 自動販売機による販売業（コップ式自動販売機（自動洗浄・屋内設置）及び営業許可の対象となる自動販売機を除く）",
      "address": "福岡県宗像市自由が丘２丁目6-1",
      "lat": 33.796889,
      "lng": 130.573552,
      "geocoding_level": null,
      "phone": "092-521-0845",
      "license_no": "",
      "license_date": null,
      "expire_date": null
    },
    {
      "name": "有限会社メイコウフーズ",
      "name_kana": "ユウゲンガイシャメイコウフーズ",
      "business_type": "⑬ その他の食料・飲料販売業",
      "address": "福岡県宗像市野坂2739-5",
      "lat": 33.788546,
      "lng": 130.567083,
      "geocoding_level": null,
      "phone": "0940-36-9170",
      "license_no": "",
      "license_date": null,
      "expire_date": null
    },
    {
      "name": "85Ohana",
      "name_kana": "ハッコウオハナ",
      "business_type": "⑥ 弁当販売業",
      "address": "福岡県宗像市土穴3-1-43 サンライトビル101",
      "lat": 33.809563,
      "lng": 130.570098,
      "geocoding_level": null,
      "phone": "",
      "license_no": "",
      "license_date": null,
      "expire_date": null
    },
    {
      "name": "85Ohana",
      "name_kana": "ハッコウオハナ",
      "business_type": "⑬ その他の食料・飲料販売業",
      "address": "福岡県宗像市土穴3-1-43 サンライトビル101",
      "lat": 33.809563,
      "lng": 130.570098,
      "geocoding_level": null,
      "phone": "",
      "license_no": "",
      "license_date": null,
      "expire_date": null
    },
    {
      "name": "たけや",
      "name_kana": "タケヤ",
      "business_type": "⑪ 百貨店、総合スーパー",
      "address": "福岡県宗像市田熊４－３－５ 第一リキマス１０７",
      "lat": 33.797024,
      "lng": 130.530586,
      "geocoding_level": null,
      "phone": "",
      "license_no": "",
      "license_date": null,
      "expire_date": null
    },
    {
      "name": "濵かつ福岡宗像店",
      "name_kana": "ハマカツフクオカムナカタテン",
      "business_type": "⑬ その他の食料・飲料販売業",
      "address": "福岡県宗像市原町305-1",
      "lat": 33.785716,
      "lng": 130.556913,
      "geocoding_level": null,
      "phone": "0940-34-8013",
      "license_no": "",
      "license_date": null,
      "expire_date": null
    },
    {
      "name": "Quarters",
      "name_kana": "クウォーターズ",
      "business_type": "㉕ 行商",
      "address": "福岡県宗像市東郷１丁目２－１",
      "lat": 33.804615,
      "lng": 130.540609,
      "geocoding_level": null,
      "phone": "",
      "license_no": "",
      "license_date": null,
      "expire_date": null
    },
    {
      "name": "ダイレックスくりえいと宗像店",
      "name_kana": "ダイレックスクリエイトムナカタテン",
      "business_type": "⑪ 百貨店、総合スーパー",
      "address": "福岡県宗像市くりえいと2丁目1-1",
      "lat": 33.814387,
      "lng": 130.563487,
      "geocoding_level": null,
      "phone": "0940-35-2755",
      "license_no": "",
      "license_date": null,
      "expire_date": null
    },
    {
      "name": "ダイレックス宗像店",
      "name_kana": "ダイレックスムナカタテン",
      "business_type": "⑪ 百貨店、総合スーパー",
      "address": "福岡県宗像市赤間3丁目6番1号",
      "lat": 33.802513,
      "lng": 130.589055,
      "geocoding_level": null,
      "phone": "0940-35-6173",
      "license_no": "",
      "license_date": null,
      "expire_date": null
    },
    {
      "name": "焼き芋シン",
      "name_kana": "ヤキイモシン",
      "business_type": "㉕ 行商",
      "address": "福岡県宗像市東郷１−２−１",
      "lat": 33.804446,
      "lng": 130.541959,
      "geocoding_level": null,
      "phone": "",
      "license_no": "",
      "license_date": null,
      "expire_date": null
    },
    {
      "name": ".soi",
      "name_kana": "ドットソイ",
      "business_type": "① 飲食店営業",
      "address": "福岡県宗像市東郷１丁目２－１",
      "lat": 33.804615,
      "lng": 130.540609,
      "geocoding_level": null,
      "phone": "090-3449-1977",
      "license_no": "06宗遠保第0010264号",
      "license_date": "2025-01-21",
      "expire_date": "2030-03-31"
    },
    {
      "name": "シェアウィズ",
      "name_kana": "シェアウィズ",
      "business_type": "① 飲食店営業",
      "address": "福岡県宗像市くりえいと3丁目4-8 第5SOZOビル",
      "lat": 33.819157,
      "lng": 130.564519,
      "geocoding_level": null,
      "phone": "",
      "license_no": "6宗遠保第0010251号",
      "license_date": "2025-01-08",
      "expire_date": "2032-09-30"
    },
    {
      "name": "シェアウィズ",
      "name_kana": "シェアウィズ",
      "business_type": "⑪ 菓子製造業",
      "address": "福岡県宗像市くりえいと3丁目4-8 第5SOZOビル",
      "lat": 33.819157,
      "lng": 130.564519,
      "geocoding_level": null,
      "phone": "",
      "license_no": "6宗遠保第0010252号",
      "license_date": "2025-01-08",
      "expire_date": "2032-09-30"
    },
    {
      "name": "とりメシYA",
      "name_kana": "トリメシヤ",
      "business_type": "⑥ 弁当販売業",
      "address": "福岡県宗像市宗像市内",
      "lat": 33.805543,
      "lng": 130.541029,
      "geocoding_level": null,
      "phone": "",
      "license_no": "",
      "license_date": null,
      "expire_date": null
    },
    {
      "name": "ははごころ",
      "name_kana": "ハハゴコロ",
      "business_type": "㉕ 行商",
      "address": "福岡県宗像市東郷1-2-1",
      "lat": 33.804615,
      "lng": 130.540609,
      "geocoding_level": null,
      "phone": "",
      "license_no": "",
      "license_date": null,
      "expire_date": null
    },
    {
      "name": "コメリハードアンドグリーン玄海店",
      "name_kana": "コメリハードアンドグリーンゲンカイテン",
      "business_type": "⑧ 米穀類販売業",
      "address": "福岡県宗像市牟田尻１８８４ー１番地",
      "lat": 33.8458,
      "lng": 130.496666,
      "geocoding_level": null,
      "phone": "0940-62-7332",
      "license_no": "",
      "license_date": null,
      "expire_date": null
    },
    {
      "name": "株式会社ちかえフーズ",
      "name_kana": "カブシキガイシャチカエフーズ",
      "business_type": "⑧ 米穀類販売業",
      "address": "福岡県宗像市赤間3-1-12",
      "lat": 33.802032,
      "lng": 130.587067,
      "geocoding_level": null,
      "phone": "0940-39-3941",
      "license_no": "",
      "license_date": null,
      "expire_date": null
    },
    {
      "name": "株式会社グローバルアリーナ",
      "name_kana": "カブシキガイシャグローバルアリーナ",
      "business_type": "⑤ コップ式自動販売機（自動洗浄・屋内設置）",
      "address": "福岡県宗像市吉留46-1",
      "lat": 33.792685,
      "lng": 130.638112,
      "geocoding_level": null,
      "phone": "0940-33-8400",
      "license_no": "",
      "license_date": null,
      "expire_date": null
    },
    {
      "name": "七色のサカナ",
      "name_kana": "ナナイロノサカナ",
      "business_type": "㉕ 行商",
      "address": "福岡県宗像市東郷1-2-1",
      "lat": 33.804615,
      "lng": 130.540609,
      "geocoding_level": null,
      "phone": "08014122675",
      "license_no": "",
      "license_date": null,
      "expire_date": null
    },
    {
      "name": "一期一菓",
      "name_kana": "イチゴイチカ",
      "business_type": "㉕ 行商",
      "address": "福岡県宗像市東郷1-2-1 福岡県宗像・遠賀保健福祉環境事務所",
      "lat": 33.804573,
      "lng": 130.540529,
      "geocoding_level": null,
      "phone": "",
      "license_no": "",
      "license_date": null,
      "expire_date": null
    },
    {
      "name": "無印良品サンリブ宗像",
      "name_kana": "ムジルシリョウヒンサンリブムナカタ",
      "business_type": "⑬ その他の食料・飲料販売業",
      "address": "福岡県宗像市くりえいと1－5－1 サンリブくりえいと宗像２F",
      "lat": 33.812036,
      "lng": 130.563727,
      "geocoding_level": null,
      "phone": "0940393603",
      "license_no": "",
      "license_date": null,
      "expire_date": null
    },
    {
      "name": "資さんうどん宗像店",
      "name_kana": "スケサンウドンムナカタテン",
      "business_type": "⑬ その他の食料・飲料販売業",
      "address": "福岡県宗像市稲元2丁目4-8",
      "lat": 33.808639,
      "lng": 130.550439,
      "geocoding_level": null,
      "phone": "0940-34-1177",
      "license_no": "",
      "license_date": null,
      "expire_date": null
    }
  ]
}
