{
  "meta": {
    "updated": 1783568789,
    "sources": [
      {
        "source": "厚生労働省 食品衛生申請等システム（オープンデータ）",
        "license": "公共データ利用規約（第1.0版, PDL1.0）"
      }
    ]
  },
  "data": [
    {
      "name": "ロピア福岡新宮店　清流物語",
      "name_kana": "ロピアフクオカシングウテン　セイリュウモノガタリ",
      "business_type": "⑫ 自動販売機による販売業（コップ式自動販売機（自動洗浄・屋内設置）及び営業許可の対象となる自動販売機を除く）",
      "address": "福岡県糟屋郡新宮町三代999-1",
      "lat": 33.703133,
      "lng": 130.456023,
      "geocoding_level": null,
      "phone": "",
      "license_no": "",
      "license_date": null,
      "expire_date": null
    },
    {
      "name": "スターバックスコーヒー福岡新宮店",
      "name_kana": "スターバックスコーヒーフクオカシングウテン",
      "business_type": "⑬ その他の食料・飲料販売業",
      "address": "福岡県糟屋郡新宮町上府龍王田1027-1",
      "lat": 33.707374,
      "lng": 130.459271,
      "geocoding_level": null,
      "phone": "092-962-9188",
      "license_no": "",
      "license_date": null,
      "expire_date": null
    },
    {
      "name": "ANYTIME FITNESS新宮美咲店",
      "name_kana": "エニタイムフィットネスシングウミサキテン",
      "business_type": "⑫ 自動販売機による販売業（コップ式自動販売機（自動洗浄・屋内設置）及び営業許可の対象となる自動販売機を除く）",
      "address": "福岡県糟屋郡新宮町美咲3-12-1 2F",
      "lat": 33.702526,
      "lng": 130.440013,
      "geocoding_level": null,
      "phone": "",
      "license_no": "",
      "license_date": null,
      "expire_date": null
    },
    {
      "name": "マックスバリュ新宮杜の宮店",
      "name_kana": "マックスバリュシングウモリノミヤテン",
      "business_type": "⑫ 自動販売機による販売業（コップ式自動販売機（自動洗浄・屋内設置）及び営業許可の対象となる自動販売機を除く）",
      "address": "福岡県糟屋郡新宮町杜の宮4-5-6",
      "lat": 33.712155,
      "lng": 130.443625,
      "geocoding_level": null,
      "phone": "",
      "license_no": "",
      "license_date": null,
      "expire_date": null
    },
    {
      "name": "（有）森製袋",
      "name_kana": "ユウゲンガイシャモリセイタイ",
      "business_type": "㉗ 器具、容器包装の製造・加工業（合成樹脂が使用された器具又は容器包装の製造、加工に限る。）",
      "address": "福岡県糟屋郡新宮町緑ケ浜1-5-5",
      "lat": 33.716422,
      "lng": 130.449703,
      "geocoding_level": null,
      "phone": "0929631373",
      "license_no": "",
      "license_date": null,
      "expire_date": null
    },
    {
      "name": "サンドラッグ新宮中央店",
      "name_kana": "サンドラッグシングウチュウオウテン",
      "business_type": "⑪ 百貨店、総合スーパー",
      "address": "福岡県糟屋郡新宮町中央駅前１丁目５番１号",
      "lat": 33.712101,
      "lng": 130.450866,
      "geocoding_level": null,
      "phone": "092-962-9877",
      "license_no": "",
      "license_date": null,
      "expire_date": null
    },
    {
      "name": "（株）ウエスト新宮店　うどんコーナー",
      "name_kana": "ウエストシングウテン　ウドンコーナー",
      "business_type": "① 飲食店営業",
      "address": "福岡県糟屋郡新宮町三代973-4",
      "lat": 33.702915,
      "lng": 130.454847,
      "geocoding_level": null,
      "phone": "092-962-2011",
      "license_no": "０６粕保福第０５１2０32号",
      "license_date": "2024-06-21",
      "expire_date": "2030-06-30"
    },
    {
      "name": "中華食堂小明　新宮店",
      "name_kana": "チュウカショクドウシャオミン　シングウテン",
      "business_type": "㉔ 麺類製造業",
      "address": "福岡県糟屋郡新宮町三代973-4",
      "lat": 33.70272,
      "lng": 130.454597,
      "geocoding_level": null,
      "phone": "0926861137",
      "license_no": "０7粕保福第０160098号",
      "license_date": "2025-09-05",
      "expire_date": "2032-06-30"
    },
    {
      "name": "ステーキガスト 福岡新宮店",
      "name_kana": "ステーキガストフクオカシングウテン",
      "business_type": "① 飲食店営業",
      "address": "福岡県糟屋郡新宮町原上１４５４－４",
      "lat": 33.68879,
      "lng": 130.452766,
      "geocoding_level": null,
      "phone": "092-962-9032",
      "license_no": "０7粕保福第0162053号",
      "license_date": "2025-06-18",
      "expire_date": "2034-06-30"
    },
    {
      "name": "ステーキガスト 福岡新宮店",
      "name_kana": "ステーキガストフクオカシングウテン",
      "business_type": "⑬ その他の食料・飲料販売業",
      "address": "福岡県糟屋郡新宮町原上１４５４－４",
      "lat": 33.68879,
      "lng": 130.452766,
      "geocoding_level": null,
      "phone": "092-962-9032",
      "license_no": "",
      "license_date": null,
      "expire_date": null
    },
    {
      "name": "そぴあしんぐう",
      "name_kana": "ソピアシングウ",
      "business_type": "⑬ その他の食料・飲料販売業",
      "address": "福岡県糟屋郡新宮町新宮東4丁目1-1",
      "lat": 33.705034,
      "lng": 130.450359,
      "geocoding_level": null,
      "phone": "",
      "license_no": "",
      "license_date": null,
      "expire_date": null
    },
    {
      "name": "横浜家系ラーメン春吉家　新宮店",
      "name_kana": "ヨコハマイエケイラーメンハルヨシヤ　シングウテン",
      "business_type": "① 飲食店営業",
      "address": "福岡県糟屋郡新宮町三代736-1",
      "lat": 33.697447,
      "lng": 130.45144,
      "geocoding_level": null,
      "phone": "",
      "license_no": "３粕保福第１３７０３０３号",
      "license_date": "2022-01-28",
      "expire_date": "2028-06-30"
    },
    {
      "name": "十和弐番館1F",
      "name_kana": "トオワニバンカンイッカイ",
      "business_type": "③ 乳類販売業",
      "address": "福岡県糟屋郡新宮町三代832-5",
      "lat": 33.700022,
      "lng": 130.454179,
      "geocoding_level": null,
      "phone": "",
      "license_no": "",
      "license_date": null,
      "expire_date": null
    },
    {
      "name": "十和弐番館４階",
      "name_kana": "トオワニバンカンヨンカイ",
      "business_type": "③ 乳類販売業",
      "address": "福岡県糟屋郡新宮町三代832-5-4F",
      "lat": 33.700022,
      "lng": 130.454179,
      "geocoding_level": null,
      "phone": "",
      "license_no": "",
      "license_date": null,
      "expire_date": null
    },
    {
      "name": "花立花ガーデン２Ｆ",
      "name_kana": "ハナタチバナガーデンニカイ",
      "business_type": "③ 乳類販売業",
      "address": "福岡県糟屋郡新宮町上府1123-1",
      "lat": 33.707374,
      "lng": 130.459271,
      "geocoding_level": null,
      "phone": "",
      "license_no": "",
      "license_date": null,
      "expire_date": null
    },
    {
      "name": "そぴあしんぐう",
      "name_kana": "ソピアシングウ",
      "business_type": "③ 乳類販売業",
      "address": "福岡県糟屋郡新宮町上府1121-1",
      "lat": 33.707374,
      "lng": 130.459271,
      "geocoding_level": null,
      "phone": "",
      "license_no": "",
      "license_date": null,
      "expire_date": null
    },
    {
      "name": "ANAフーズ株式会社　福岡支店",
      "name_kana": "エーエヌエーフーズカブシキガイシャ　フクオカシテン",
      "business_type": "⑦ 野菜果物販売業",
      "address": "福岡県糟屋郡新宮町緑ケ浜1丁目2番1号",
      "lat": 33.71555,
      "lng": 130.44825,
      "geocoding_level": null,
      "phone": "",
      "license_no": "",
      "license_date": null,
      "expire_date": null
    },
    {
      "name": "ゆめマート新宮",
      "name_kana": "ユメマートシングウ",
      "business_type": "⑪ 百貨店、総合スーパー",
      "address": "福岡県糟屋郡新宮町緑ケ浜四丁目18番１号",
      "lat": 33.710548,
      "lng": 130.447494,
      "geocoding_level": null,
      "phone": "092-940-6600",
      "license_no": "",
      "license_date": null,
      "expire_date": null
    },
    {
      "name": "メガセンタートライアル新宮店",
      "name_kana": "メガセンタートライアルシングウテン",
      "business_type": "㉕ そうざい製造業",
      "address": "福岡県糟屋郡新宮町大字原上１８１２－１",
      "lat": 33.695662,
      "lng": 130.449337,
      "geocoding_level": null,
      "phone": "092-940-6660",
      "license_no": "04粕保福第0130091号",
      "license_date": "2022-07-19",
      "expire_date": "2029-06-30"
    },
    {
      "name": "メガセンタートライアル新宮店",
      "name_kana": "メガセンタートライアルシングウテン",
      "business_type": "⑪ 百貨店、総合スーパー",
      "address": "福岡県糟屋郡新宮町大字原上１８１２－１",
      "lat": 33.695662,
      "lng": 130.449337,
      "geocoding_level": null,
      "phone": "092-940-6660",
      "license_no": "",
      "license_date": null,
      "expire_date": null
    },
    {
      "name": "焼肉SEN　新宮店",
      "name_kana": "ヤキニクセン　シングウテン",
      "business_type": "① 飲食店営業",
      "address": "福岡県糟屋郡新宮町原上1812－1",
      "lat": 33.695662,
      "lng": 130.449337,
      "geocoding_level": null,
      "phone": "0929406660",
      "license_no": "０６粕保福第０５１０１８９号",
      "license_date": "2024-11-22",
      "expire_date": "2031-06-30"
    },
    {
      "name": "メガセンタートライアル新宮店",
      "name_kana": "メガセンタートライアルシングウテン",
      "business_type": "① 飲食店営業",
      "address": "福岡県糟屋郡新宮町大字原上１８１２－１",
      "lat": 33.695662,
      "lng": 130.449337,
      "geocoding_level": null,
      "phone": "092-940-6660",
      "license_no": "０６粕保福第０５１０１８８号",
      "license_date": "2024-11-22",
      "expire_date": "2032-06-30"
    },
    {
      "name": "メガセンタートライアル新宮店",
      "name_kana": "メガセンタートライアルシングウテン",
      "business_type": "① 飲食店営業",
      "address": "福岡県糟屋郡新宮町大字原上１８１２－１",
      "lat": 33.695662,
      "lng": 130.449337,
      "geocoding_level": null,
      "phone": "092-940-6660",
      "license_no": "０7粕保福第0162044号",
      "license_date": "2025-06-18",
      "expire_date": "2031-06-30"
    },
    {
      "name": "メガセンタートライアル新宮店",
      "name_kana": "メガセンタートライアルシングウテン",
      "business_type": "① 飲食店営業",
      "address": "福岡県糟屋郡新宮町大字原上１８１２－１",
      "lat": 33.695662,
      "lng": 130.449337,
      "geocoding_level": null,
      "phone": "092-940-6660",
      "license_no": "０7粕保福第0162045号",
      "license_date": "2025-06-18",
      "expire_date": "2031-06-30"
    },
    {
      "name": "メガセンタートライアル新宮店",
      "name_kana": "メガセンタートライアルシングウテン",
      "business_type": "③ 食肉販売業",
      "address": "福岡県糟屋郡新宮町大字原上１８１２－１",
      "lat": 33.695662,
      "lng": 130.449337,
      "geocoding_level": null,
      "phone": "092-940-6660",
      "license_no": "０7粕保福第0162048号",
      "license_date": "2025-06-18",
      "expire_date": "2031-06-30"
    },
    {
      "name": "メガセンタートライアル新宮店",
      "name_kana": "メガセンタートライアルシングウテン",
      "business_type": "④ 魚介類販売業",
      "address": "福岡県糟屋郡新宮町大字原上１８１２－１",
      "lat": 33.695662,
      "lng": 130.449337,
      "geocoding_level": null,
      "phone": "092-940-6660",
      "license_no": "０7粕保福第0162047号",
      "license_date": "2025-06-18",
      "expire_date": "2031-06-30"
    },
    {
      "name": "メガセンタートライアル新宮店",
      "name_kana": "メガセンタートライアルシングウテン",
      "business_type": "① 飲食店営業",
      "address": "福岡県糟屋郡新宮町大字原上１８１２－１",
      "lat": 33.695662,
      "lng": 130.449337,
      "geocoding_level": null,
      "phone": "092-940-6660",
      "license_no": "０7粕保福第0162046号",
      "license_date": "2025-06-18",
      "expire_date": "2031-06-30"
    },
    {
      "name": "株式会社やまやアグリファクトリー",
      "name_kana": "カブシキカイシャヤマヤアグリファクトリー",
      "business_type": "㉔ その他の食料品製造・加工業",
      "address": "福岡県糟屋郡新宮町新宮北ノ口２番",
      "lat": 33.714555,
      "lng": 130.430621,
      "geocoding_level": null,
      "phone": "0929620398",
      "license_no": "",
      "license_date": null,
      "expire_date": null
    },
    {
      "name": "丸源ラーメン 福岡新宮店",
      "name_kana": "マルゲンラーメンフクオカシングウテン",
      "business_type": "⑬ その他の食料・飲料販売業",
      "address": "福岡県糟屋郡新宮町大字原上1474",
      "lat": 33.690957,
      "lng": 130.451672,
      "geocoding_level": null,
      "phone": "",
      "license_no": "",
      "license_date": null,
      "expire_date": null
    },
    {
      "name": "OHGA Drugstore 新宮三代店",
      "name_kana": "オオガドラッグストア　シングウミシロテン",
      "business_type": "⑬ その他の食料・飲料販売業",
      "address": "福岡県糟屋郡新宮町三代９９９－１",
      "lat": 33.703133,
      "lng": 130.456023,
      "geocoding_level": null,
      "phone": "092-941-2110",
      "license_no": "",
      "license_date": null,
      "expire_date": null
    },
    {
      "name": "386：225879：株式会社矢野特殊自動車食堂（ＰＰ）",
      "name_kana": "カブシキガイシャヤノトクシュジドウシャショクドウ",
      "business_type": "③ 乳類販売業",
      "address": "福岡県糟屋郡新宮町上府１５４０－４",
      "lat": 33.707374,
      "lng": 130.459271,
      "geocoding_level": null,
      "phone": "",
      "license_no": "",
      "license_date": null,
      "expire_date": null
    },
    {
      "name": "1402：100989：ライフフィット（明治）",
      "name_kana": "ライフフィット",
      "business_type": "⑫ 自動販売機による販売業（コップ式自動販売機（自動洗浄・屋内設置）及び営業許可の対象となる自動販売機を除く）",
      "address": "福岡県糟屋郡新宮町上府１１０７－５",
      "lat": 33.705997,
      "lng": 130.454679,
      "geocoding_level": null,
      "phone": "",
      "license_no": "",
      "license_date": null,
      "expire_date": null
    },
    {
      "name": "洞ノ上青果",
      "name_kana": "ホキノウエセイカ",
      "business_type": "㉕ 行商",
      "address": "福岡県糟屋郡新宮町中央駅前2丁目9-1　IKEA福岡新宮駐車場",
      "lat": 33.70919,
      "lng": 130.451674,
      "geocoding_level": null,
      "phone": "0570-01-3900",
      "license_no": "",
      "license_date": null,
      "expire_date": null
    },
    {
      "name": "餃子の王将 新宮店",
      "name_kana": "ギョウザノオウショウ　シングウテン",
      "business_type": "⑬ その他の食料・飲料販売業",
      "address": "福岡県糟屋郡新宮町原上字柿の木坂1465-1",
      "lat": 33.68943,
      "lng": 130.452492,
      "geocoding_level": null,
      "phone": "092-962-4455",
      "license_no": "",
      "license_date": null,
      "expire_date": null
    },
    {
      "name": "カインズ福岡新宮店",
      "name_kana": "カインズフクオカシングウテン",
      "business_type": "⑪ 百貨店、総合スーパー",
      "address": "福岡県糟屋郡新宮町中央駅前二丁目１０番１",
      "lat": 33.708858,
      "lng": 130.453346,
      "geocoding_level": null,
      "phone": "092-941-5111",
      "license_no": "",
      "license_date": null,
      "expire_date": null
    },
    {
      "name": "プリマハム株式会社　福岡物流センター",
      "name_kana": "プリマハムカブシキガイシャ　フクオカブツリュウセンター",
      "business_type": "② 食肉販売業（包装済みの食肉のみの販売）",
      "address": "福岡県糟屋郡新宮町上府北4丁目３－２０",
      "lat": 33.719088,
      "lng": 130.456765,
      "geocoding_level": null,
      "phone": "092-962-3465",
      "license_no": "",
      "license_date": null,
      "expire_date": null
    },
    {
      "name": "モスバーガー福岡新宮中央店",
      "name_kana": "モスバーガーフクオカシングウチュウオウテン",
      "business_type": "⑬ その他の食料・飲料販売業",
      "address": "福岡県糟屋郡新宮町上府668-1 モスバーガー福岡新宮中央店",
      "lat": 33.709243,
      "lng": 130.456427,
      "geocoding_level": null,
      "phone": "092-963-3878",
      "license_no": "",
      "license_date": null,
      "expire_date": null
    },
    {
      "name": "マックスバリュ新宮杜の宮店",
      "name_kana": "マックスバリュシングウモリノミヤテン",
      "business_type": "⑪ 百貨店、総合スーパー",
      "address": "福岡県糟屋郡新宮町杜の宮4丁目5番6号",
      "lat": 33.712201,
      "lng": 130.443563,
      "geocoding_level": null,
      "phone": "0929405571",
      "license_no": "",
      "license_date": null,
      "expire_date": null
    },
    {
      "name": "阪急ベーカリー　トライアル新宮店",
      "name_kana": "ハンキュウベーカリー　トライアルシングウテン",
      "business_type": "③ 乳類販売業",
      "address": "福岡県糟屋郡新宮町原上１８１２－１ メガセンタートライアル新宮内",
      "lat": 33.695648,
      "lng": 130.449356,
      "geocoding_level": null,
      "phone": "092-962-6328",
      "license_no": "",
      "license_date": null,
      "expire_date": null
    },
    {
      "name": "新宮ヒルズ　インドアテニスガーデン",
      "name_kana": "シングウヒルズインドアテニスガーデン",
      "business_type": "⑫ 自動販売機による販売業（コップ式自動販売機（自動洗浄・屋内設置）及び営業許可の対象となる自動販売機を除く）",
      "address": "福岡県糟屋郡新宮町三代１０９１－１",
      "lat": 33.699951,
      "lng": 130.459329,
      "geocoding_level": null,
      "phone": "092-410-0075",
      "license_no": "",
      "license_date": null,
      "expire_date": null
    },
    {
      "name": "IKEA福岡新宮",
      "name_kana": "イケアフクオカシングウ",
      "business_type": "⑨ 通信販売・訪問販売による販売業",
      "address": "福岡県糟屋郡新宮町中央駅前2-9-1",
      "lat": 33.710381,
      "lng": 130.449404,
      "geocoding_level": null,
      "phone": "0570-01-3900",
      "license_no": "",
      "license_date": null,
      "expire_date": null
    },
    {
      "name": "社会福祉法人新宮偕同園",
      "name_kana": "シャカイフクシホウジンシングウカイドウエン",
      "business_type": "㉖ 集団給食施設",
      "address": "福岡県糟屋郡新宮町糟屋郡新宮町上府545番地1",
      "lat": 33.704982,
      "lng": 130.457769,
      "geocoding_level": null,
      "phone": "0929620512",
      "license_no": "",
      "license_date": null,
      "expire_date": null
    },
    {
      "name": "ドラッグコスモス新宮店",
      "name_kana": "ドラッグコスモスシングウテン",
      "business_type": "⑪ 百貨店、総合スーパー",
      "address": "福岡県糟屋郡新宮町新宮東1丁目2番22号",
      "lat": 33.70848,
      "lng": 130.449961,
      "geocoding_level": null,
      "phone": "092-940-6697",
      "license_no": "",
      "license_date": null,
      "expire_date": null
    },
    {
      "name": "ドラッグコスモス新宮下府店",
      "name_kana": "ドラッグコスモスシングウシモノフテン",
      "business_type": "⑪ 百貨店、総合スーパー",
      "address": "福岡県糟屋郡新宮町下府1202-1",
      "lat": 33.715309,
      "lng": 130.446515,
      "geocoding_level": null,
      "phone": "092-405-3100",
      "license_no": "",
      "license_date": null,
      "expire_date": null
    },
    {
      "name": "新宮杜の宮コスモス保育園",
      "name_kana": "シングウモリノミヤコスモスホイクエン",
      "business_type": "㉖ 集団給食施設",
      "address": "福岡県糟屋郡新宮町杜の宮3-12-1",
      "lat": 33.711435,
      "lng": 130.442361,
      "geocoding_level": null,
      "phone": "0929405235",
      "license_no": "",
      "license_date": null,
      "expire_date": null
    },
    {
      "name": "株式会社フランソア",
      "name_kana": "カブシキガイシャフランソア",
      "business_type": "⑬ その他の食料・飲料販売業",
      "address": "福岡県糟屋郡新宮町緑ケ浜3丁目1番1号",
      "lat": 33.714578,
      "lng": 130.450175,
      "geocoding_level": null,
      "phone": "092-941-2312",
      "license_no": "",
      "license_date": null,
      "expire_date": null
    },
    {
      "name": "Caren保育園新宮北",
      "name_kana": "カレンホイクエンシングウキタ",
      "business_type": "㉖ 集団給食施設",
      "address": "福岡県糟屋郡新宮町上府北2-15-30",
      "lat": 33.714725,
      "lng": 130.455452,
      "geocoding_level": null,
      "phone": "092-410-2909",
      "license_no": "",
      "license_date": null,
      "expire_date": null
    },
    {
      "name": "ミスタードーナツライフガーデン新宮中央ショップ",
      "name_kana": "ミスタードーナツライフガーデンシングウチュウオウショップ",
      "business_type": "⑬ その他の食料・飲料販売業",
      "address": "福岡県糟屋郡新宮町中央駅前１－５－２",
      "lat": 33.712619,
      "lng": 130.450768,
      "geocoding_level": null,
      "phone": "0929406636",
      "license_no": "",
      "license_date": null,
      "expire_date": null
    },
    {
      "name": "コルディアーレ福岡農園",
      "name_kana": "コルディアーレフクオカノウエン",
      "business_type": "⑦ 野菜果物販売業",
      "address": "福岡県糟屋郡新宮町上府北2-6-1",
      "lat": 33.713004,
      "lng": 130.455911,
      "geocoding_level": null,
      "phone": "092-410-4404",
      "license_no": "",
      "license_date": null,
      "expire_date": null
    },
    {
      "name": "コルディアーレ福岡農園",
      "name_kana": "コルディアーレフクオカノウエン",
      "business_type": "⑦ 野菜果物販売業",
      "address": "福岡県糟屋郡新宮町上府北2-6-1",
      "lat": 33.714213,
      "lng": 130.45757,
      "geocoding_level": null,
      "phone": "092-410-4404",
      "license_no": "",
      "license_date": null,
      "expire_date": null
    },
    {
      "name": "ローソン新宮美咲三丁目店",
      "name_kana": "ローソンシングウミサキサンチョウメテン",
      "business_type": "⑩ コンビニエンスストア",
      "address": "福岡県糟屋郡新宮町美咲３－１１－５",
      "lat": 33.70313,
      "lng": 130.440323,
      "geocoding_level": null,
      "phone": "092-941-2101",
      "license_no": "",
      "license_date": null,
      "expire_date": null
    },
    {
      "name": "ローソン　Sイデックス福岡東SS店",
      "name_kana": "ローソンイデックスフクオカヒガシエスエステン",
      "business_type": "⑩ コンビニエンスストア",
      "address": "福岡県糟屋郡新宮町上府北2-9-52",
      "lat": 33.710694,
      "lng": 130.456128,
      "geocoding_level": null,
      "phone": "092-963-5001",
      "license_no": "",
      "license_date": null,
      "expire_date": null
    },
    {
      "name": "(有)福岡ティーパック加工センター",
      "name_kana": "ユウゲンガイシャフクオカティーパックカコウセンター",
      "business_type": "㉔ その他の食料品製造・加工業",
      "address": "福岡県糟屋郡新宮町三代727-1",
      "lat": 33.698226,
      "lng": 130.45215,
      "geocoding_level": null,
      "phone": "0929632777",
      "license_no": "",
      "license_date": null,
      "expire_date": null
    },
    {
      "name": "ホームプラザナフコ新宮店",
      "name_kana": "ホームプラザナフコシングウテン",
      "business_type": "⑬ その他の食料・飲料販売業",
      "address": "福岡県糟屋郡新宮町三代864",
      "lat": 33.700425,
      "lng": 130.454095,
      "geocoding_level": null,
      "phone": "092-963-1851",
      "license_no": "",
      "license_date": null,
      "expire_date": null
    },
    {
      "name": "ナフコ　福岡東店",
      "name_kana": "ナフコ　フクオカヒガシテン",
      "business_type": "⑬ その他の食料・飲料販売業",
      "address": "福岡県糟屋郡新宮町大字原上１５９１－１",
      "lat": 33.694595,
      "lng": 130.449413,
      "geocoding_level": null,
      "phone": "092-940-6061",
      "license_no": "",
      "license_date": null,
      "expire_date": null
    },
    {
      "name": "ローソン新宮緑ケ浜四丁目店",
      "name_kana": "ローソンシングウミドリガハマヨンチョウメテン",
      "business_type": "⑩ コンビニエンスストア",
      "address": "福岡県糟屋郡新宮町緑ケ浜４－１０－１",
      "lat": 33.712415,
      "lng": 130.447423,
      "geocoding_level": null,
      "phone": "092-962-3201",
      "license_no": "",
      "license_date": null,
      "expire_date": null
    },
    {
      "name": "株式会社ニューイングベーカリー九州　福岡工場",
      "name_kana": "カブシキガイシャニューイングベーカリーキュウシュウ　フクオカコウジョウ",
      "business_type": "㉖ 集団給食施設",
      "address": "福岡県糟屋郡新宮町緑ケ浜3-1-1 ㈱ニューイングベーカリー九州　福岡工場",
      "lat": 33.715393,
      "lng": 130.447813,
      "geocoding_level": null,
      "phone": "0929412316",
      "license_no": "",
      "license_date": null,
      "expire_date": null
    },
    {
      "name": "業餃業新宮店",
      "name_kana": "ギョウギョウギョウシングウテン",
      "business_type": "⑬ その他の食料・飲料販売業",
      "address": "福岡県糟屋郡新宮町緑ケ浜１丁目９－３５",
      "lat": 33.717487,
      "lng": 130.45201,
      "geocoding_level": null,
      "phone": "06-4307-5688",
      "license_no": "",
      "license_date": null,
      "expire_date": null
    },
    {
      "name": "jugo.JUGO",
      "name_kana": "ジュゴジュゴ",
      "business_type": "⑬ その他の食料・飲料販売業",
      "address": "福岡県糟屋郡新宮町中央駅前２丁目3",
      "lat": 33.710381,
      "lng": 130.452747,
      "geocoding_level": null,
      "phone": "",
      "license_no": "",
      "license_date": null,
      "expire_date": null
    },
    {
      "name": "ふくや新宮店",
      "name_kana": "フクヤシングウテン",
      "business_type": "⑬ その他の食料・飲料販売業",
      "address": "福岡県糟屋郡新宮町新宮東4丁目-5-11",
      "lat": 33.705034,
      "lng": 130.450359,
      "geocoding_level": null,
      "phone": "092-410-2996",
      "license_no": "",
      "license_date": null,
      "expire_date": null
    },
    {
      "name": "株式会社　HSCJAPAN",
      "name_kana": "カブシキガイシャエイチエスシージャパン",
      "business_type": "⑮ いわゆる健康食品の製造・加工業",
      "address": "福岡県糟屋郡新宮町原上1720-2",
      "lat": 33.693054,
      "lng": 130.45265,
      "geocoding_level": null,
      "phone": "092-962-5222",
      "license_no": "",
      "license_date": null,
      "expire_date": null
    },
    {
      "name": "ロピア福岡新宮店（鮮魚）",
      "name_kana": "ロピアフクオカシングウテンセンギョ",
      "business_type": "① 飲食店営業",
      "address": "福岡県糟屋郡新宮町三代999-1",
      "lat": 33.704541,
      "lng": 130.454438,
      "geocoding_level": null,
      "phone": "092-962-0298",
      "license_no": "５粕保福第０６９００９１号",
      "license_date": "2023-07-26",
      "expire_date": "2031-06-30"
    },
    {
      "name": "ロピア福岡新宮店（鮮魚）",
      "name_kana": "ロピアフクオカシングウテンセンギョ",
      "business_type": "④ 魚介類販売業",
      "address": "福岡県糟屋郡新宮町三代999-1",
      "lat": 33.704541,
      "lng": 130.454438,
      "geocoding_level": null,
      "phone": "092-962-0298",
      "license_no": "５粕保福第０６９００９２号",
      "license_date": "2023-07-26",
      "expire_date": "2031-06-30"
    },
    {
      "name": "ロピア福岡新宮店(惣菜)",
      "name_kana": "ロピアフクオカシングウテンソウザイ",
      "business_type": "① 飲食店営業",
      "address": "福岡県糟屋郡新宮町三代999-1",
      "lat": 33.704541,
      "lng": 130.454438,
      "geocoding_level": null,
      "phone": "",
      "license_no": "５粕保福第０６９００９６号",
      "license_date": "2023-07-26",
      "expire_date": "2031-06-30"
    },
    {
      "name": "ロピア福岡新宮店(惣菜)",
      "name_kana": "ロピアフクオカシングウテンソウザイ",
      "business_type": "⑪ 菓子製造業",
      "address": "福岡県糟屋郡新宮町三代999-1",
      "lat": 33.704541,
      "lng": 130.454438,
      "geocoding_level": null,
      "phone": "",
      "license_no": "５粕保福第０６９００９５号",
      "license_date": "2023-07-26",
      "expire_date": "2031-06-30"
    },
    {
      "name": "ロピア福岡新宮店（精肉）",
      "name_kana": "ロピアフクオカシングウテンセイニク",
      "business_type": "① 飲食店営業",
      "address": "福岡県糟屋郡新宮町三代999-1",
      "lat": 33.704541,
      "lng": 130.454438,
      "geocoding_level": null,
      "phone": "",
      "license_no": "５粕保福第０６９００９３号",
      "license_date": "2023-07-26",
      "expire_date": "2031-06-30"
    },
    {
      "name": "ロピア福岡新宮店（精肉）",
      "name_kana": "ロピアフクオカシングウテンセイニク",
      "business_type": "③ 食肉販売業",
      "address": "福岡県糟屋郡新宮町三代999-1",
      "lat": 33.704541,
      "lng": 130.454438,
      "geocoding_level": null,
      "phone": "",
      "license_no": "５粕保福第０６９００９４号",
      "license_date": "2023-07-26",
      "expire_date": "2031-06-30"
    },
    {
      "name": "ロピア福岡新宮店（CK）",
      "name_kana": "ロピアフクオカシングウテンシーケー",
      "business_type": "㉕ そうざい製造業",
      "address": "福岡県糟屋郡新宮町三代999-1",
      "lat": 33.704541,
      "lng": 130.454438,
      "geocoding_level": null,
      "phone": "092-962-0298",
      "license_no": "５粕保福第０６９００９０号",
      "license_date": "2023-07-26",
      "expire_date": "2031-06-30"
    },
    {
      "name": "ロピア福岡新宮店",
      "name_kana": "ロピアフクオカシングウテン",
      "business_type": "⑪ 百貨店、総合スーパー",
      "address": "福岡県糟屋郡新宮町三代999-1",
      "lat": 33.704541,
      "lng": 130.454438,
      "geocoding_level": null,
      "phone": "092-962-0298",
      "license_no": "",
      "license_date": null,
      "expire_date": null
    },
    {
      "name": "ウエルシアプラス新宮杜の宮店",
      "name_kana": "ウエルシアプラスシングウモリノミヤテン",
      "business_type": "⑪ 百貨店、総合スーパー",
      "address": "福岡県糟屋郡新宮町4丁目5-6",
      "lat": 33.712203,
      "lng": 130.443576,
      "geocoding_level": null,
      "phone": "0942-50-9381",
      "license_no": "",
      "license_date": null,
      "expire_date": null
    },
    {
      "name": "ウエルシアプラス新宮杜の宮店",
      "name_kana": "ウエルシアプラスシングウモリノミヤテン",
      "business_type": "㉕ そうざい製造業",
      "address": "福岡県糟屋郡新宮町杜の宮4丁目5-6",
      "lat": 33.712203,
      "lng": 130.443576,
      "geocoding_level": null,
      "phone": "",
      "license_no": "０６粕保福第０５１０２２２号",
      "license_date": "2025-01-09",
      "expire_date": "2032-06-30"
    },
    {
      "name": "株式会社一心　きむいち",
      "name_kana": "カブシキカイシャイッシン　キムイチ",
      "business_type": "⑬ その他の食料・飲料販売業",
      "address": "福岡県糟屋郡新宮町緑ケ浜4丁目18-1 ゆめマート新宮　催事場",
      "lat": 33.710655,
      "lng": 130.446904,
      "geocoding_level": null,
      "phone": "",
      "license_no": "",
      "license_date": null,
      "expire_date": null
    },
    {
      "name": "Peace１０２",
      "name_kana": "ピースイチマルニ",
      "business_type": "① 魚介類販売業（包装済みの魚介類のみの販売）",
      "address": "福岡県糟屋郡新宮町糟屋郡新宮町湊",
      "lat": 33.715055,
      "lng": 130.424889,
      "geocoding_level": null,
      "phone": "",
      "license_no": "",
      "license_date": null,
      "expire_date": null
    },
    {
      "name": "株式会社九食",
      "name_kana": "キュウショク",
      "business_type": "⑬ その他の食料・飲料販売業",
      "address": "福岡県糟屋郡新宮町湊坂６丁目1-1 湊坂パーキング",
      "lat": 33.709104,
      "lng": 130.43291,
      "geocoding_level": null,
      "phone": "092-521-0845",
      "license_no": "",
      "license_date": null,
      "expire_date": null
    },
    {
      "name": "ＩＪＯＯＺ自動販売機　メガセンタートライアル新宮店　１F",
      "name_kana": "アイジュースジドウハンバイキ　メガセンタートライアルシングウテン　イッカイ",
      "business_type": "② 調理機能を有する自動販売機（要許可）",
      "address": "福岡県糟屋郡新宮町原上１８１２−１",
      "lat": 33.695677,
      "lng": 130.449249,
      "geocoding_level": null,
      "phone": "",
      "license_no": "０7粕保福第0160130号",
      "license_date": "2025-10-09",
      "expire_date": "2032-06-30"
    },
    {
      "name": "ＩＪＯＯＺ自動販売機　メガセンタートライアル新宮店　屋上",
      "name_kana": "アイジュースジドウハンバイキ　メガセンタートライアルシングウテン　オクジョウ",
      "business_type": "② 調理機能を有する自動販売機（要許可）",
      "address": "福岡県糟屋郡新宮町原上１８１２−１",
      "lat": 33.695677,
      "lng": 130.449249,
      "geocoding_level": null,
      "phone": "",
      "license_no": "０７粕保福第0160131号",
      "license_date": "2025-10-09",
      "expire_date": "2032-06-30"
    },
    {
      "name": "濵かつ福岡新宮店",
      "name_kana": "ハマカツフクオカシングウテン",
      "business_type": "⑬ その他の食料・飲料販売業",
      "address": "福岡県糟屋郡新宮町原上1435-1",
      "lat": 33.686019,
      "lng": 130.453819,
      "geocoding_level": null,
      "phone": "092-963-3418",
      "license_no": "",
      "license_date": null,
      "expire_date": null
    },
    {
      "name": "やよい軒　新宮店",
      "name_kana": "ヤヨイケン　シングウテン",
      "business_type": "① 飲食店営業",
      "address": "福岡県糟屋郡新宮町新宮東4丁目10番12号",
      "lat": 33.705034,
      "lng": 130.450359,
      "geocoding_level": null,
      "phone": "092-940-5892",
      "license_no": "3粕保福第1372129号",
      "license_date": "2021-06-25",
      "expire_date": "2028-06-30"
    },
    {
      "name": "のえる珈琲",
      "name_kana": "ノエルコーヒー",
      "business_type": "⑯ コーヒー製造・加工業（飲料の製造を除く。）",
      "address": "福岡県糟屋郡新宮町下府3-4-10 ソフィア新宮B202",
      "lat": 33.710643,
      "lng": 130.438769,
      "geocoding_level": null,
      "phone": "09089110392",
      "license_no": "",
      "license_date": null,
      "expire_date": null
    },
    {
      "name": "お弁当のあじや",
      "name_kana": "オベントウノアジヤ",
      "business_type": "⑥ 弁当販売業",
      "address": "福岡県糟屋郡新宮町三代西1-3-15",
      "lat": 33.700555,
      "lng": 130.451835,
      "geocoding_level": null,
      "phone": "",
      "license_no": "",
      "license_date": null,
      "expire_date": null
    },
    {
      "name": "Awesome Coffee",
      "name_kana": "オーサム　コーヒー",
      "business_type": "⑯ コーヒー製造・加工業（飲料の製造を除く。）",
      "address": "福岡県糟屋郡新宮町新宮東2-7-13",
      "lat": 33.705034,
      "lng": 130.450359,
      "geocoding_level": null,
      "phone": "09074534978",
      "license_no": "",
      "license_date": null,
      "expire_date": null
    },
    {
      "name": "ゲオ　アーバンモール新宮中央店MIX自販機",
      "name_kana": "ゲオ　アーバンモールシングウチュウオウテンミックスジハンキ",
      "business_type": "⑫ 自動販売機による販売業（コップ式自動販売機（自動洗浄・屋内設置）及び営業許可の対象となる自動販売機を除く）",
      "address": "福岡県糟屋郡新宮町緑ケ浜4丁目10-1 ゲオ　アーバンモール新宮中央店",
      "lat": 33.713386,
      "lng": 130.446783,
      "geocoding_level": null,
      "phone": "",
      "license_no": "",
      "license_date": null,
      "expire_date": null
    },
    {
      "name": "ゲオ　アーバンモール新宮中央店わたがし自販機",
      "name_kana": "シングウチュウオウテンワタガシジハンキ",
      "business_type": "⑫ 自動販売機による販売業（コップ式自動販売機（自動洗浄・屋内設置）及び営業許可の対象となる自動販売機を除く）",
      "address": "福岡県糟屋郡新宮町緑ケ浜4-10-1 ゲオ　アーバンモール新宮中央店  1F店内",
      "lat": 33.713386,
      "lng": 130.446783,
      "geocoding_level": null,
      "phone": "",
      "license_no": "",
      "license_date": null,
      "expire_date": null
    },
    {
      "name": "株式会社フランソア",
      "name_kana": "カブシキガイシャ　フランソア",
      "business_type": "⑪ 菓子製造業",
      "address": "福岡県糟屋郡新宮町緑ケ浜3丁目1番1号",
      "lat": 33.714578,
      "lng": 130.450175,
      "geocoding_level": null,
      "phone": "092-941-2316",
      "license_no": "08粕保福第0310014号",
      "license_date": "2026-05-21",
      "expire_date": "2033-06-30"
    },
    {
      "name": "株式会社フランソア",
      "name_kana": "カブシキガイシャ　フランソア",
      "business_type": "③ 乳類販売業",
      "address": "福岡県糟屋郡新宮町緑ケ浜3丁目1番1号 株式会社フランソア",
      "lat": 33.714578,
      "lng": 130.450175,
      "geocoding_level": null,
      "phone": "",
      "license_no": "",
      "license_date": null,
      "expire_date": null
    },
    {
      "name": "株式会社フランソア",
      "name_kana": "カブシキガイシャ　フランソア",
      "business_type": "⑥ 弁当販売業",
      "address": "福岡県糟屋郡新宮町緑ケ浜3丁目1番1号 株式会社フランソア",
      "lat": 33.714578,
      "lng": 130.450175,
      "geocoding_level": null,
      "phone": "",
      "license_no": "",
      "license_date": null,
      "expire_date": null
    },
    {
      "name": "株式会社フランソア",
      "name_kana": "カブシキガイシャ　フランソア",
      "business_type": "⑫ 自動販売機による販売業（コップ式自動販売機（自動洗浄・屋内設置）及び営業許可の対象となる自動販売機を除く）",
      "address": "福岡県糟屋郡新宮町緑ケ浜3丁目1番1号 株式会社フランソア",
      "lat": 33.714578,
      "lng": 130.450175,
      "geocoding_level": null,
      "phone": "",
      "license_no": "",
      "license_date": null,
      "expire_date": null
    },
    {
      "name": "株式会社フランソア",
      "name_kana": "カブシキガイシャ　フランソア",
      "business_type": "⑬ その他の食料・飲料販売業",
      "address": "福岡県糟屋郡新宮町緑ケ浜3丁目1番1号 株式会社フランソア",
      "lat": 33.714578,
      "lng": 130.450175,
      "geocoding_level": null,
      "phone": "",
      "license_no": "",
      "license_date": null,
      "expire_date": null
    },
    {
      "name": "らーめんらぼ 新宮店",
      "name_kana": "ラーメンラボ　シングウテン",
      "business_type": "① 飲食店営業",
      "address": "福岡県糟屋郡新宮町原上1812－1 メガセンタートライアル新宮店２Fフードパーク内",
      "lat": 33.695649,
      "lng": 130.44936,
      "geocoding_level": null,
      "phone": "092-940-6660",
      "license_no": "０６粕保福第０５１０２３１号",
      "license_date": "2025-01-20",
      "expire_date": "2031-06-30"
    },
    {
      "name": "GROCERIA　THEハンバーグ　THEスイーツ  新宮店",
      "name_kana": "グロッサリア　ザハンバーグ　ザスイーツ　シングウテン",
      "business_type": "① 飲食店営業",
      "address": "福岡県糟屋郡新宮町原上1812－1 メガセンタートライアル新宮店２Fフードパーク内",
      "lat": 33.695649,
      "lng": 130.44936,
      "geocoding_level": null,
      "phone": "092-940-6660",
      "license_no": "０６粕保福第０５１０２３３号",
      "license_date": "2025-01-20",
      "expire_date": "2032-06-30"
    },
    {
      "name": "36CURRY 新宮店",
      "name_kana": "サンロクカリー　シングウテン",
      "business_type": "① 飲食店営業",
      "address": "福岡県糟屋郡新宮町原上1812－1 メガセンタートライアル新宮店２Fフードパーク内",
      "lat": 33.695649,
      "lng": 130.44936,
      "geocoding_level": null,
      "phone": "092-940-6660",
      "license_no": "０６粕保福第０５１０２３２号",
      "license_date": "2025-01-20",
      "expire_date": "2031-06-30"
    },
    {
      "name": "スイーツ製造所 新宮店",
      "name_kana": "スイーツセイゾウショ　シングウテン",
      "business_type": "⑪ 菓子製造業",
      "address": "福岡県糟屋郡新宮町原上1812－1 メガセンタートライアル新宮店２Fフードパーク内",
      "lat": 33.695649,
      "lng": 130.44936,
      "geocoding_level": null,
      "phone": "092-940-6660",
      "license_no": "０６粕保福第０５１０２３４号",
      "license_date": "2025-01-20",
      "expire_date": "2031-06-30"
    },
    {
      "name": "魚寅　新宮店",
      "name_kana": "ウオトラ　シングウテン",
      "business_type": "① 飲食店営業",
      "address": "福岡県糟屋郡新宮町原上1812－1",
      "lat": 33.695677,
      "lng": 130.449249,
      "geocoding_level": null,
      "phone": "0929406660",
      "license_no": "０６粕保福第０５１０１８７号",
      "license_date": "2024-11-22",
      "expire_date": "2031-06-30"
    },
    {
      "name": "株式会社トライアルフードパーク",
      "name_kana": "カブシキガイシャトライアルフードパーク",
      "business_type": "㉕ そうざい製造業",
      "address": "福岡県糟屋郡新宮町原上1812－1メガセンタートライアル新宮店２Fフードパーク内",
      "lat": 33.695641,
      "lng": 130.449337,
      "geocoding_level": null,
      "phone": "092-940-6660",
      "license_no": "０７粕保福第0160193号",
      "license_date": "2026-02-05",
      "expire_date": "2032-06-30"
    },
    {
      "name": "株式会社トライアルフードパーク",
      "name_kana": "カブシキガイシャ トライアルフードパーク",
      "business_type": "㉕ 行商",
      "address": "福岡県糟屋郡新宮町原上1812-1 メガセンタートライアル新宮店２Fフードパーク内",
      "lat": 33.695677,
      "lng": 130.449249,
      "geocoding_level": null,
      "phone": "092-940-6660",
      "license_no": "",
      "license_date": null,
      "expire_date": null
    },
    {
      "name": "さくら薬局新宮中央駅前店",
      "name_kana": "サクラヤッキョクシングウチュウオウエキマエテン",
      "business_type": "③ 乳類販売業",
      "address": "福岡県糟屋郡新宮町緑ケ浜四丁目１７番４号",
      "lat": 33.711802,
      "lng": 130.447769,
      "geocoding_level": null,
      "phone": "",
      "license_no": "",
      "license_date": null,
      "expire_date": null
    },
    {
      "name": "しんぐうマルシェ",
      "name_kana": "シングウマルシェ",
      "business_type": "⑥ 弁当販売業",
      "address": "福岡県糟屋郡新宮町新宮東4-1-1 そぴあしんぐう内　芝生広場",
      "lat": 33.705034,
      "lng": 130.450359,
      "geocoding_level": null,
      "phone": "",
      "license_no": "",
      "license_date": null,
      "expire_date": null
    },
    {
      "name": "たちばな竹灯籠まつり",
      "name_kana": "タチバナタケトウロウマツリ",
      "business_type": "⑥ 弁当販売業",
      "address": "福岡県糟屋郡新宮町立花",
      "lat": 33.687896,
      "lng": 130.470654,
      "geocoding_level": null,
      "phone": "",
      "license_no": "",
      "license_date": null,
      "expire_date": null
    },
    {
      "name": "株式会社泉平",
      "name_kana": "カブシキガイシャイズヘイ",
      "business_type": "⑧ 米穀類販売業",
      "address": "福岡県糟屋郡新宮町的野字古森668番",
      "lat": 33.691331,
      "lng": 130.499994,
      "geocoding_level": null,
      "phone": "092-962-9800",
      "license_no": "",
      "license_date": null,
      "expire_date": null
    },
    {
      "name": "AUN'SGYM福岡新宮プラザ",
      "name_kana": "アウンズジムフクオカシングウ",
      "business_type": "⑫ 自動販売機による販売業（コップ式自動販売機（自動洗浄・屋内設置）及び営業許可の対象となる自動販売機を除く）",
      "address": "福岡県糟屋郡新宮町美咲３－１－１ 新宮プラザ",
      "lat": 33.705774,
      "lng": 130.441069,
      "geocoding_level": null,
      "phone": "",
      "license_no": "",
      "license_date": null,
      "expire_date": null
    },
    {
      "name": "CuvéeBloom",
      "name_kana": "キュヴェブルーム",
      "business_type": "⑯ コーヒー製造・加工業（飲料の製造を除く。）",
      "address": "福岡県糟屋郡新宮町花立花2-10-4",
      "lat": 33.691074,
      "lng": 130.475003,
      "geocoding_level": null,
      "phone": "",
      "license_no": "",
      "license_date": null,
      "expire_date": null
    },
    {
      "name": "CuvéeBloom",
      "name_kana": "キュヴェブルーム",
      "business_type": "⑯ コーヒー製造・加工業（飲料の製造を除く。）",
      "address": "福岡県糟屋郡新宮町花立花2-10-4",
      "lat": 33.691074,
      "lng": 130.475003,
      "geocoding_level": null,
      "phone": "",
      "license_no": "",
      "license_date": null,
      "expire_date": null
    },
    {
      "name": "資さんうどん新宮店",
      "name_kana": "スケサンウドンシングウテン",
      "business_type": "① 飲食店営業",
      "address": "福岡県糟屋郡新宮町大字上府字牟田668-2",
      "lat": 33.707374,
      "lng": 130.459271,
      "geocoding_level": null,
      "phone": "0924101615",
      "license_no": "05粕保福第0692070号",
      "license_date": "2023-06-16",
      "expire_date": "2029-06-30"
    },
    {
      "name": "資さんうどん新宮店",
      "name_kana": "スケサンウドンシングウテン",
      "business_type": "⑬ その他の食料・飲料販売業",
      "address": "福岡県糟屋郡新宮町大字上府字牟田668-2",
      "lat": 33.707374,
      "lng": 130.459271,
      "geocoding_level": null,
      "phone": "0924101615",
      "license_no": "",
      "license_date": null,
      "expire_date": null
    }
  ]
}
