{
  "meta": {
    "updated": 1783568789,
    "sources": [
      {
        "source": "厚生労働省 食品衛生申請等システム（オープンデータ）",
        "license": "公共データ利用規約（第1.0版, PDL1.0）"
      }
    ]
  },
  "data": [
    {
      "name": "サツドラ津別店",
      "name_kana": "サツドラツベツテン",
      "business_type": "⑪ 百貨店、総合スーパー",
      "address": "北海道網走郡津別町幸町41番地",
      "lat": 43.706986,
      "lng": 144.024318,
      "geocoding_level": null,
      "phone": "",
      "license_no": "",
      "license_date": null,
      "expire_date": null
    },
    {
      "name": "初音鮨",
      "name_kana": "ハツネズシ",
      "business_type": "① 飲食店営業",
      "address": "北海道網走郡津別町一条通8番地２",
      "lat": 43.706822,
      "lng": 144.021014,
      "geocoding_level": null,
      "phone": "",
      "license_no": "オ北生第19-27号指令",
      "license_date": "2021-06-18",
      "expire_date": "2027-06-30"
    },
    {
      "name": "ロマンス製菓株式会社",
      "name_kana": "ロマンスセイカブシキガイシャ",
      "business_type": "⑪ 菓子製造業",
      "address": "北海道網走郡津別町達美204-19",
      "lat": 43.71254,
      "lng": 144.014576,
      "geocoding_level": null,
      "phone": "",
      "license_no": "オ北生第19-27号指令",
      "license_date": "2021-06-18",
      "expire_date": "2027-06-30"
    },
    {
      "name": "クレシェ",
      "name_kana": "クレシェ",
      "business_type": "⑪ 菓子製造業",
      "address": "北海道網走郡津別町一条通21-1",
      "lat": 43.708109,
      "lng": 144.019475,
      "geocoding_level": null,
      "phone": "0152-77-3210",
      "license_no": "オ北生第19-27号指令",
      "license_date": "2021-06-18",
      "expire_date": "2026-06-30"
    },
    {
      "name": "特定非営利活動法人津別町手をつなぐ育成会",
      "name_kana": "トクテイヒエイリカツドウホウジンツベツチョウテヲツナグイクセイカイ",
      "business_type": "⑳ みそ又はしょうゆ製造業",
      "address": "北海道網走郡津別町新町1番地1",
      "lat": 43.709112,
      "lng": 144.02305,
      "geocoding_level": null,
      "phone": "0152-77-3210",
      "license_no": "オ北生第4-19号指令",
      "license_date": "2024-05-17",
      "expire_date": "2029-06-30"
    },
    {
      "name": "cafe 津別珈琲",
      "name_kana": "カフェツベツコーヒー",
      "business_type": "① 飲食店営業",
      "address": "北海道網走郡津別町幸町11番地",
      "lat": 43.706097,
      "lng": 144.0235,
      "geocoding_level": null,
      "phone": "",
      "license_no": "オ北生第19-48号指令",
      "license_date": "2021-07-26",
      "expire_date": "2027-12-28"
    },
    {
      "name": "津別町中央公民館裏駐車場",
      "name_kana": "ツベツチョウチュウオウコウミンカンウラチュウシャジョウ",
      "business_type": "② 食肉販売業（包装済みの食肉のみの販売）",
      "address": "北海道網走郡津別町豊永５番地",
      "lat": 43.706738,
      "lng": 144.03096,
      "geocoding_level": null,
      "phone": "0152-76-2713",
      "license_no": "",
      "license_date": null,
      "expire_date": null
    },
    {
      "name": "津別町中央公民館裏駐車場",
      "name_kana": "ツベツチョウチュウオウコウミンカンウラチュウシャジョウ",
      "business_type": "⑦ 野菜果物販売業",
      "address": "北海道網走郡津別町豊永５番地",
      "lat": 43.706738,
      "lng": 144.03096,
      "geocoding_level": null,
      "phone": "0152-76-2713",
      "license_no": "",
      "license_date": null,
      "expire_date": null
    },
    {
      "name": "幼保連携型認定こども園　こどもの杜",
      "name_kana": "ヨウホレンケイガタニンテイコゴモエン　コドモノモリ",
      "business_type": "㉖ 集団給食施設",
      "address": "北海道網走郡津別町新町21番地",
      "lat": 43.71071,
      "lng": 144.025562,
      "geocoding_level": null,
      "phone": "0152773231",
      "license_no": "",
      "license_date": null,
      "expire_date": null
    },
    {
      "name": "あいおい物産館（津別町相生総合交流ターミナル施設）",
      "name_kana": "アイオイブッサンカン",
      "business_type": "㉔ 麺類製造業",
      "address": "北海道網走郡津別町相生83-1",
      "lat": 43.544712,
      "lng": 143.981111,
      "geocoding_level": null,
      "phone": "",
      "license_no": "オ北生第5-32号指令",
      "license_date": "2022-06-10",
      "expire_date": "2028-06-30"
    },
    {
      "name": "津別町相生総合交流ターミナル施設",
      "name_kana": "ツベツチョウアイオイソウゴウコウリュウターミナルシセツ",
      "business_type": "⑬ その他の食料・飲料販売業",
      "address": "北海道網走郡津別町相生83-1",
      "lat": 43.544712,
      "lng": 143.981111,
      "geocoding_level": null,
      "phone": "0152-75-9101",
      "license_no": "",
      "license_date": null,
      "expire_date": null
    },
    {
      "name": "クマヤキ号",
      "name_kana": "クマヤキゴウ",
      "business_type": "⑬ その他の食料・飲料販売業",
      "address": "北海道網走郡津別町相生83-1 全道一円",
      "lat": 43.544712,
      "lng": 143.981111,
      "geocoding_level": null,
      "phone": "",
      "license_no": "",
      "license_date": null,
      "expire_date": null
    },
    {
      "name": "(株)相生振興公社",
      "name_kana": "カブシキガイシャアイオイシンコウコウシャ",
      "business_type": "⑳ みそ又はしょうゆ製造業",
      "address": "北海道網走郡津別町字相生８３－１",
      "lat": 43.545505,
      "lng": 143.980355,
      "geocoding_level": null,
      "phone": "0152-75-9101",
      "license_no": "オ北生第25-111号",
      "license_date": "2023-12-27",
      "expire_date": "2028-12-28"
    },
    {
      "name": "津別町相生総合交流ターミナル施設",
      "name_kana": "ツベツチョウアイオイコウリュウターミナルシセツ",
      "business_type": "① 飲食店営業",
      "address": "北海道網走郡津別町相生83-1",
      "lat": 43.544691,
      "lng": 143.981124,
      "geocoding_level": null,
      "phone": "0152-75-9101",
      "license_no": "オ北生第４-114号指令",
      "license_date": "2024-12-20",
      "expire_date": "2030-12-28"
    },
    {
      "name": "津別町相生総合交流ターミナル施設",
      "name_kana": "ツベツチョウアイオイコウリュウターミナルシセツ",
      "business_type": "㉒ 豆腐製造業",
      "address": "北海道網走郡津別町相生83-1",
      "lat": 43.545491,
      "lng": 143.980394,
      "geocoding_level": null,
      "phone": "0152-75-9101",
      "license_no": "オ北生第４-114号指令",
      "license_date": "2024-12-20",
      "expire_date": "2030-12-28"
    },
    {
      "name": "キッチンカーaiai",
      "name_kana": "キッチンカーアイアイ",
      "business_type": "① 飲食店営業",
      "address": "北海道網走郡津別町幸町12",
      "lat": 43.706038,
      "lng": 144.023563,
      "geocoding_level": null,
      "phone": "",
      "license_no": "オ北生第19-95号指令",
      "license_date": "2021-10-25",
      "expire_date": "2026-12-28"
    },
    {
      "name": "JIMBAR",
      "name_kana": "ジンバー",
      "business_type": "① 飲食店営業",
      "address": "北海道網走郡津別町幸町12番地 北見保健所管内一円（営業場所は営業計画書のとおり）",
      "lat": 43.706013,
      "lng": 144.02363,
      "geocoding_level": null,
      "phone": "",
      "license_no": "オ北生第35-44号指令",
      "license_date": "2025-07-14",
      "expire_date": "2030-07-20"
    },
    {
      "name": "ツベースJIMBAR",
      "name_kana": "ツベースジンバー",
      "business_type": "① 飲食店営業",
      "address": "北海道網走郡津別町幸町9",
      "lat": 43.706185,
      "lng": 144.023285,
      "geocoding_level": null,
      "phone": "",
      "license_no": "オ北生第35ｰ82号指令",
      "license_date": "2025-10-07",
      "expire_date": "2030-12-20"
    },
    {
      "name": "セイコーマート津別店",
      "name_kana": "セイコーマートツベツテン",
      "business_type": "⑩ コンビニエンスストア",
      "address": "北海道網走郡津別町新町15-28",
      "lat": 43.709319,
      "lng": 144.02426,
      "geocoding_level": null,
      "phone": "0152-76-1235",
      "license_no": "",
      "license_date": null,
      "expire_date": null
    },
    {
      "name": "セイコーマート津別店",
      "name_kana": "セイコーマートツベツテン",
      "business_type": "⑪ 菓子製造業",
      "address": "北海道網走郡津別町新町15-28",
      "lat": 43.709319,
      "lng": 144.02426,
      "geocoding_level": null,
      "phone": "0152-76-1235",
      "license_no": "オ北生第5-116号指令",
      "license_date": "2022-12-21",
      "expire_date": "2028-12-28"
    },
    {
      "name": "パン工房るぱ",
      "name_kana": "パンコウボウルパ",
      "business_type": "⑪ 菓子製造業",
      "address": "北海道網走郡津別町東二条3番地3",
      "lat": 43.707545,
      "lng": 144.02183,
      "geocoding_level": null,
      "phone": "",
      "license_no": "オ北生第19-112号指令",
      "license_date": "2021-11-24",
      "expire_date": "2027-12-28"
    },
    {
      "name": "菓子工房　cippola",
      "name_kana": "カシコウボウチッポラ",
      "business_type": "⑪ 菓子製造業",
      "address": "北海道網走郡津別町岩富34",
      "lat": 43.757195,
      "lng": 144.058479,
      "geocoding_level": null,
      "phone": "",
      "license_no": "オ北生第19-112号指令",
      "license_date": "2021-11-24",
      "expire_date": "2026-12-28"
    },
    {
      "name": "セブンーイレブン津別共和店",
      "name_kana": "セブンイレブンツベツキョウワテン",
      "business_type": "① 飲食店営業",
      "address": "北海道網走郡津別町共和１２５－６",
      "lat": 43.697018,
      "lng": 144.027864,
      "geocoding_level": null,
      "phone": "0152-76-1233",
      "license_no": "オ北生第４-42号指令",
      "license_date": "2024-06-25",
      "expire_date": "2030-06-30"
    },
    {
      "name": "セブンーイレブン津別共和店",
      "name_kana": "セブンイレブンツベツキョウワテン",
      "business_type": "⑩ コンビニエンスストア",
      "address": "北海道網走郡津別町共和１２５－６",
      "lat": 43.697018,
      "lng": 144.027864,
      "geocoding_level": null,
      "phone": "0152-76-1233",
      "license_no": "",
      "license_date": null,
      "expire_date": null
    },
    {
      "name": "宅飲み風酒場「大地」",
      "name_kana": "タクノミフウサカバダイチ",
      "business_type": "① 飲食店営業",
      "address": "北海道網走郡津別町東二条3番地3",
      "lat": 43.707545,
      "lng": 144.02183,
      "geocoding_level": null,
      "phone": "0152-77-8324",
      "license_no": "オ北生第19-113号指令",
      "license_date": "2021-11-26",
      "expire_date": "2027-12-28"
    },
    {
      "name": "Gyu Gyu-tto terrace（ぎゅ牛っとテラス）",
      "name_kana": "ギュギュットテラス",
      "business_type": "② 食肉販売業（包装済みの食肉のみの販売）",
      "address": "北海道網走郡津別町豊永214-2",
      "lat": 43.689769,
      "lng": 144.053192,
      "geocoding_level": null,
      "phone": "",
      "license_no": "",
      "license_date": null,
      "expire_date": null
    },
    {
      "name": "JAZZBAR セッション",
      "name_kana": "ジャズバーセッション",
      "business_type": "① 飲食店営業",
      "address": "北海道網走郡津別町新町15",
      "lat": 43.709319,
      "lng": 144.02426,
      "geocoding_level": null,
      "phone": "",
      "license_no": "オ北生第19-122号指令",
      "license_date": "2021-12-15",
      "expire_date": "2027-12-28"
    },
    {
      "name": "炭火焼肉　じゅうじゅう苑",
      "name_kana": "スミビヤキニクジュウジュウエン",
      "business_type": "① 飲食店営業",
      "address": "北海道網走郡津別町東二条3番地4",
      "lat": 43.707451,
      "lng": 144.02202,
      "geocoding_level": null,
      "phone": "0152-77-3971",
      "license_no": "オ北生第19-122号指令",
      "license_date": "2021-12-15",
      "expire_date": "2027-12-28"
    },
    {
      "name": "パンとお菓子の教室びーと畑",
      "name_kana": "パントオカシノキョウシツビートバタケ",
      "business_type": "⑪ 菓子製造業",
      "address": "北海道網走郡津別町上里156番地",
      "lat": 43.6214,
      "lng": 144.110817,
      "geocoding_level": null,
      "phone": "",
      "license_no": "オ北生第５－５号指令",
      "license_date": "2022-04-20",
      "expire_date": "2026-06-30"
    },
    {
      "name": "社会福祉法人津別福祉会ケアハウスつべつ",
      "name_kana": "シャカイフクシホウジンツベツフクシカイケアハウスツベ",
      "business_type": "① 飲食店営業",
      "address": "北海道網走郡津別町達美213番地８",
      "lat": 43.712373,
      "lng": 144.018759,
      "geocoding_level": null,
      "phone": "",
      "license_no": "オ北生第5-116号指令",
      "license_date": "2022-12-21",
      "expire_date": "2029-12-28"
    },
    {
      "name": "食鮮館やなせ",
      "name_kana": "ショクセンカンヤナセ",
      "business_type": "① 飲食店営業",
      "address": "北海道網走郡津別町東二条33",
      "lat": 43.728589,
      "lng": 144.126963,
      "geocoding_level": null,
      "phone": "",
      "license_no": "オ北生第５－３８号",
      "license_date": "2022-06-22",
      "expire_date": "2028-06-30"
    },
    {
      "name": "グリーンマートインつべつ",
      "name_kana": "グリーンマートインツベツ",
      "business_type": "⑪ 百貨店、総合スーパー",
      "address": "北海道網走郡津別町大通31番地",
      "lat": 43.707527,
      "lng": 144.023354,
      "geocoding_level": null,
      "phone": "",
      "license_no": "",
      "license_date": null,
      "expire_date": null
    },
    {
      "name": "グリーンマートインつべつ",
      "name_kana": "グリーンマートインツベツ",
      "business_type": "① 飲食店営業",
      "address": "北海道網走郡津別町大通31番地",
      "lat": 43.707527,
      "lng": 144.023354,
      "geocoding_level": null,
      "phone": "0152-76-1611",
      "license_no": "オ北生第25-12号指令",
      "license_date": "2023-05-02",
      "expire_date": "2029-06-30"
    },
    {
      "name": "グリーンマートインつべつ",
      "name_kana": "グリーンマートインツベツ",
      "business_type": "③ 食肉販売業",
      "address": "北海道網走郡津別町大通31番地",
      "lat": 43.707527,
      "lng": 144.023354,
      "geocoding_level": null,
      "phone": "0152-76-1611",
      "license_no": "オ北生第25-12号指令",
      "license_date": "2023-05-02",
      "expire_date": "2029-06-30"
    },
    {
      "name": "グリーンマートインつべつ",
      "name_kana": "グリーンマートインツベツ",
      "business_type": "④ 魚介類販売業",
      "address": "北海道網走郡津別町大通31番地",
      "lat": 43.707527,
      "lng": 144.023354,
      "geocoding_level": null,
      "phone": "0152-76-1611",
      "license_no": "オ北生第25-12号指令",
      "license_date": "2023-05-02",
      "expire_date": "2029-06-30"
    },
    {
      "name": "有限会社柳瀬食品店",
      "name_kana": "ユウゲンガイシャヤナセショクヒンテン",
      "business_type": "① 飲食店営業",
      "address": "北海道網走郡津別町共和河岸公園　他 北見保健所管内一円(営業場所は営業計画書とおり",
      "lat": 43.70131,
      "lng": 144.025084,
      "geocoding_level": null,
      "phone": "",
      "license_no": "オ北生第25-42号指令",
      "license_date": "2023-07-04",
      "expire_date": "2028-08-31"
    },
    {
      "name": "有限会社柳瀬食品店",
      "name_kana": "ユウゲンガイシャヤナセショクヒンテン",
      "business_type": "㉕ そうざい製造業",
      "address": "北海道網走郡津別町東二条33番地",
      "lat": 43.728589,
      "lng": 144.126963,
      "geocoding_level": null,
      "phone": "0152-76-2050",
      "license_no": "オ北生第25-43号指令",
      "license_date": "2023-07-05",
      "expire_date": "2029-12-28"
    },
    {
      "name": "株式会社希来里ファーム農産物加工販売所",
      "name_kana": "カブシキガイシャキラリファームノウサンブツカコウハンバイジョ",
      "business_type": "⑦ 野菜果物販売業",
      "address": "北海道網走郡津別町共和21-6",
      "lat": 43.699868,
      "lng": 144.02643,
      "geocoding_level": null,
      "phone": "",
      "license_no": "",
      "license_date": null,
      "expire_date": null
    },
    {
      "name": "奥屈斜路温泉ランプの宿森つべつ",
      "name_kana": "オククッシャロオンセンランプノヤドモリツベツ",
      "business_type": "㉙ その他",
      "address": "北海道網走郡津別町上里７３８番地",
      "lat": 43.555348,
      "lng": 144.192057,
      "geocoding_level": null,
      "phone": "0152-76-3333",
      "license_no": "",
      "license_date": null,
      "expire_date": null
    },
    {
      "name": "奥屈斜路温泉ランプの宿　森つべつ",
      "name_kana": "オククッシャロオンセンランプノヤド　モリツベツ",
      "business_type": "① 飲食店営業",
      "address": "北海道網走郡津別町上里738",
      "lat": 43.555348,
      "lng": 144.192057,
      "geocoding_level": null,
      "phone": "0152-76-3333",
      "license_no": "オ北生第5-33号指令",
      "license_date": "2022-06-13",
      "expire_date": "2028-06-30"
    },
    {
      "name": "ランプの宿森つべつ",
      "name_kana": "ランプノヤドモリツベツ",
      "business_type": "⑪ 菓子製造業",
      "address": "北海道網走郡津別町上里738",
      "lat": 43.555348,
      "lng": 144.192057,
      "geocoding_level": null,
      "phone": "0152-76-3333",
      "license_no": "オ北生第35-140号指令",
      "license_date": "2026-02-25",
      "expire_date": "2032-06-30"
    },
    {
      "name": "CHANOMA",
      "name_kana": "チャノマ",
      "business_type": "① 飲食店営業",
      "address": "北海道網走郡津別町大通5",
      "lat": 43.707135,
      "lng": 144.022197,
      "geocoding_level": null,
      "phone": "",
      "license_no": "オ北生第5-33号指令",
      "license_date": "2022-06-13",
      "expire_date": "2028-06-30"
    },
    {
      "name": "柿崎商店",
      "name_kana": "カキザキショウテン",
      "business_type": "⑬ その他の食料・飲料販売業",
      "address": "北海道網走郡津別町活汲２６４番地５",
      "lat": 43.744545,
      "lng": 144.052829,
      "geocoding_level": null,
      "phone": "",
      "license_no": "",
      "license_date": null,
      "expire_date": null
    },
    {
      "name": "柿崎商店",
      "name_kana": "カキザキショウテン",
      "business_type": "㉒ 豆腐製造業",
      "address": "北海道網走郡津別町活汲264番地5",
      "lat": 43.744545,
      "lng": 144.052829,
      "geocoding_level": null,
      "phone": "",
      "license_no": "オ北生第５－３８号",
      "license_date": "2022-06-22",
      "expire_date": "2027-06-30"
    },
    {
      "name": "幾島珈琲研究所",
      "name_kana": "イクシマコーヒーケンキュウショ",
      "business_type": "① 飲食店営業",
      "address": "北海道網走郡津別町活汲813番地15",
      "lat": 43.743948,
      "lng": 144.055212,
      "geocoding_level": null,
      "phone": "",
      "license_no": "オ北生第5-37号指令",
      "license_date": "2022-06-17",
      "expire_date": "2027-06-30"
    },
    {
      "name": "ニングルの森",
      "name_kana": "ニングルノモリ",
      "business_type": "⑥ 弁当販売業",
      "address": "北海道網走郡津別町字達美204番37",
      "lat": 43.711956,
      "lng": 144.015206,
      "geocoding_level": null,
      "phone": "09028188608",
      "license_no": "",
      "license_date": null,
      "expire_date": null
    },
    {
      "name": "北海道つべつまちづくり（株）",
      "name_kana": "ホッカイドウツベツマチヅクリカブシキガイシャ",
      "business_type": "㉙ その他",
      "address": "北海道網走郡津別町共和130",
      "lat": 43.695981,
      "lng": 144.033202,
      "geocoding_level": null,
      "phone": "0152778151",
      "license_no": "",
      "license_date": null,
      "expire_date": null
    },
    {
      "name": "ピンクの八百屋",
      "name_kana": "ピンクノヤオヤ",
      "business_type": "① 飲食店営業",
      "address": "北海道網走郡津別町達美213-5",
      "lat": 43.711891,
      "lng": 144.017834,
      "geocoding_level": null,
      "phone": "",
      "license_no": "オ北生第5-78号指令",
      "license_date": "2022-09-14",
      "expire_date": "2027-12-28"
    },
    {
      "name": "ピンクの八百屋",
      "name_kana": "ピンクノヤオヤ",
      "business_type": "① 飲食店営業",
      "address": "北海道網走郡津別町字東二条3-3",
      "lat": 43.707545,
      "lng": 144.02183,
      "geocoding_level": null,
      "phone": "",
      "license_no": "オ北生第25-72号指令",
      "license_date": "2023-09-28",
      "expire_date": "2028-12-28"
    },
    {
      "name": "ピンクの八百屋",
      "name_kana": "ピンクノヤオヤ",
      "business_type": "㉕ そうざい製造業",
      "address": "北海道網走郡津別町東二条3-3",
      "lat": 43.707558585,
      "lng": 144.021800662,
      "geocoding_level": 8,
      "phone": "",
      "license_no": "オ北生第35-4号指令",
      "license_date": "2025-04-14",
      "expire_date": "2031-06-30"
    },
    {
      "name": "ピンクの八百屋",
      "name_kana": "ピンクノヤオヤ",
      "business_type": "㉙ 漬物製造業",
      "address": "北海道網走郡津別町東二条3-3",
      "lat": 43.707558585,
      "lng": 144.021800662,
      "geocoding_level": 8,
      "phone": "",
      "license_no": "オ北生第35-4号指令",
      "license_date": "2025-04-14",
      "expire_date": "2031-06-30"
    },
    {
      "name": "石井牧場",
      "name_kana": "イシイボクジョウ",
      "business_type": "② 食肉販売業（包装済みの食肉のみの販売）",
      "address": "北海道網走郡津別町大昭112",
      "lat": 43.630112,
      "lng": 143.993804,
      "geocoding_level": null,
      "phone": "",
      "license_no": "",
      "license_date": null,
      "expire_date": null
    },
    {
      "name": "石井牧場",
      "name_kana": "イシイボクジョウ",
      "business_type": "㉕ 行商",
      "address": "北海道網走郡津別町大昭112",
      "lat": 43.630112,
      "lng": 143.993804,
      "geocoding_level": null,
      "phone": "",
      "license_no": "",
      "license_date": null,
      "expire_date": null
    },
    {
      "name": "Cafe&deliLuca",
      "name_kana": "カフェアンドデリルカ",
      "business_type": "㉕ そうざい製造業",
      "address": "北海道網走郡津別町共和130",
      "lat": 43.695981,
      "lng": 144.033202,
      "geocoding_level": null,
      "phone": "",
      "license_no": "オ北生第5-115号指令",
      "license_date": "2022-12-16",
      "expire_date": "2028-12-28"
    },
    {
      "name": "つべつ西洋軒",
      "name_kana": "ツベツセイヨウケン",
      "business_type": "① 飲食店営業",
      "address": "北海道網走郡津別町東四条３",
      "lat": 43.728589,
      "lng": 144.126963,
      "geocoding_level": null,
      "phone": "",
      "license_no": "オ北生第5-115号指令",
      "license_date": "2022-12-16",
      "expire_date": "2028-12-28"
    },
    {
      "name": "駅舎カフェ　ホロカ",
      "name_kana": "エキシャカフェホロカ",
      "business_type": "① 飲食店営業",
      "address": "北海道網走郡津別町相生83-1",
      "lat": 43.544691,
      "lng": 143.981124,
      "geocoding_level": null,
      "phone": "",
      "license_no": "オ北生第４-37号指令",
      "license_date": "2024-06-17",
      "expire_date": "2029-06-30"
    },
    {
      "name": "サンマルコ食品株式会社",
      "name_kana": "サンマルコショクヒンカブシキガイシャ",
      "business_type": "⑫ 自動販売機による販売業（コップ式自動販売機（自動洗浄・屋内設置）及び営業許可の対象となる自動販売機を除く）",
      "address": "北海道網走郡津別町活汲86番",
      "lat": 43.756234,
      "lng": 144.067684,
      "geocoding_level": null,
      "phone": "01527-6-3131",
      "license_no": "",
      "license_date": null,
      "expire_date": null
    },
    {
      "name": "GYUGYU-TTO terrace",
      "name_kana": "ギュギューットテラス",
      "business_type": "② 食肉販売業（包装済みの食肉のみの販売）",
      "address": "北海道網走郡津別町豊永214-2",
      "lat": 43.689769,
      "lng": 144.053192,
      "geocoding_level": null,
      "phone": "",
      "license_no": "",
      "license_date": null,
      "expire_date": null
    },
    {
      "name": "牧場の宿　GYUGYU-TTO",
      "name_kana": "マキバノヤドギュギュット",
      "business_type": "① 飲食店営業",
      "address": "北海道網走郡津別町豊永40番地5",
      "lat": 43.704315,
      "lng": 144.035593,
      "geocoding_level": null,
      "phone": "",
      "license_no": "オ北生第35-4号指令",
      "license_date": "2025-04-14",
      "expire_date": "2031-06-30"
    },
    {
      "name": "牧場の宿　GYUGYU-TTO",
      "name_kana": "マキバノヤドギュギュット",
      "business_type": "⑪ 菓子製造業",
      "address": "北海道網走郡津別町豊永40番地5",
      "lat": 43.704315,
      "lng": 144.035593,
      "geocoding_level": null,
      "phone": "",
      "license_no": "オ北生第35-4号指令",
      "license_date": "2025-04-14",
      "expire_date": "2031-06-30"
    },
    {
      "name": "mongol cafe ひつじや",
      "name_kana": "モンゴルカフェヒツジヤ",
      "business_type": "⑪ 菓子製造業",
      "address": "北海道網走郡津別町相生132-10",
      "lat": 43.541119,
      "lng": 143.98396,
      "geocoding_level": null,
      "phone": "",
      "license_no": "オ北生第25-34号指令",
      "license_date": "2023-06-26",
      "expire_date": "2028-06-30"
    },
    {
      "name": "大寺商店",
      "name_kana": "オオデラショウテン",
      "business_type": "⑬ その他の食料・飲料販売業",
      "address": "北海道網走郡津別町本岐39",
      "lat": 43.641597,
      "lng": 143.979588,
      "geocoding_level": null,
      "phone": "",
      "license_no": "",
      "license_date": null,
      "expire_date": null
    },
    {
      "name": "津別町多目的活動ｾﾝﾀｰｶﾌｪ",
      "name_kana": "ツベツチョウタモクテキカツドウセンターカフェ",
      "business_type": "① 飲食店営業",
      "address": "北海道網走郡津別町大通７",
      "lat": 43.707846,
      "lng": 144.022672,
      "geocoding_level": null,
      "phone": "",
      "license_no": "オ北生第25-339号指令",
      "license_date": "2023-06-21",
      "expire_date": "2029-06-30"
    },
    {
      "name": "羽前屋",
      "name_kana": "ウゼンヤ",
      "business_type": "⑪ 菓子製造業",
      "address": "北海道網走郡津別町幸町73",
      "lat": 43.705891,
      "lng": 144.023191,
      "geocoding_level": null,
      "phone": "",
      "license_no": "オ北生第5-33号指令",
      "license_date": "2022-06-13",
      "expire_date": "2027-06-30"
    },
    {
      "name": "どりーむFactory",
      "name_kana": "ドリームファクトリー",
      "business_type": "① 飲食店営業",
      "address": "北海道網走郡津別町共和21-6",
      "lat": 43.699868,
      "lng": 144.02643,
      "geocoding_level": null,
      "phone": "",
      "license_no": "オ北生第25-148号",
      "license_date": "2024-03-25",
      "expire_date": "2030-06-30"
    },
    {
      "name": "どりーむFactory",
      "name_kana": "ドリームファクトリー",
      "business_type": "④ 魚介類販売業",
      "address": "北海道網走郡津別町共和21-6",
      "lat": 43.699868,
      "lng": 144.02643,
      "geocoding_level": null,
      "phone": "",
      "license_no": "オ北生第25-148号",
      "license_date": "2024-03-25",
      "expire_date": "2030-06-30"
    },
    {
      "name": "どりーむFactory",
      "name_kana": "ドリームファクトリー",
      "business_type": "㉕ そうざい製造業",
      "address": "北海道網走郡津別町共和21-6",
      "lat": 43.699868,
      "lng": 144.02643,
      "geocoding_level": null,
      "phone": "",
      "license_no": "オ北生第25-148号",
      "license_date": "2024-03-25",
      "expire_date": "2030-06-30"
    },
    {
      "name": "どりーむFactory",
      "name_kana": "ドリームファクトリー",
      "business_type": "㉙ 漬物製造業",
      "address": "北海道網走郡津別町共和21-6",
      "lat": 43.699868,
      "lng": 144.02643,
      "geocoding_level": null,
      "phone": "",
      "license_no": "オ北生第25-148号",
      "license_date": "2024-03-25",
      "expire_date": "2030-06-30"
    },
    {
      "name": "どりーむFactory",
      "name_kana": "ドリームファクトリー",
      "business_type": "⑦ 野菜果物販売業",
      "address": "北海道網走郡津別町共和21-6",
      "lat": 43.699868,
      "lng": 144.02643,
      "geocoding_level": null,
      "phone": "",
      "license_no": "",
      "license_date": null,
      "expire_date": null
    },
    {
      "name": "ＤＣＭニコット　津別店",
      "name_kana": "ディーシーエムニコット　ツベツテン",
      "business_type": "⑬ その他の食料・飲料販売業",
      "address": "北海道網走郡津別町新町１－２",
      "lat": 43.709466,
      "lng": 144.021457,
      "geocoding_level": null,
      "phone": "01527-5-5800",
      "license_no": "",
      "license_date": null,
      "expire_date": null
    },
    {
      "name": "のんきや",
      "name_kana": "ノンキヤ",
      "business_type": "① 飲食店営業",
      "address": "北海道網走郡津別町東三条7-1",
      "lat": 43.728589,
      "lng": 144.126963,
      "geocoding_level": null,
      "phone": "",
      "license_no": "オ北生第4-33号指令",
      "license_date": "2024-06-11",
      "expire_date": "2030-06-30"
    },
    {
      "name": "ヤナセ農園・マルチョウヤナセ",
      "name_kana": "ヤナセノウエン・マルチョウヤナセ",
      "business_type": "⑦ 野菜果物販売業",
      "address": "北海道網走郡津別町活汲６番地",
      "lat": 43.758347,
      "lng": 144.067631,
      "geocoding_level": null,
      "phone": "0152-76-3115",
      "license_no": "",
      "license_date": null,
      "expire_date": null
    },
    {
      "name": "ほんき焼",
      "name_kana": "ホンキヤキ",
      "business_type": "⑪ 菓子製造業",
      "address": "北海道網走郡津別町本岐4-23",
      "lat": 43.649344,
      "lng": 143.990314,
      "geocoding_level": null,
      "phone": "",
      "license_no": "オ北生第4-56号指令",
      "license_date": "2024-07-18",
      "expire_date": "2030-12-28"
    },
    {
      "name": "石窯パン工房　アエプ",
      "name_kana": "イシガマパンコウボウ　アエプ",
      "business_type": "⑪ 菓子製造業",
      "address": "北海道網走郡津別町相生83-5",
      "lat": 43.545733,
      "lng": 143.979094,
      "geocoding_level": null,
      "phone": "",
      "license_no": "オ北生第4-101号指令",
      "license_date": "2024-11-20",
      "expire_date": "2030-12-28"
    },
    {
      "name": "ヤキトリマン",
      "name_kana": "ヤキトリマン",
      "business_type": "① 飲食店営業",
      "address": "北海道網走郡津別町幸町77（北見保健所管内一円）",
      "lat": 43.705552,
      "lng": 144.023487,
      "geocoding_level": null,
      "phone": "",
      "license_no": "オ北生第４-108号指令",
      "license_date": "2024-12-03",
      "expire_date": "2029-12-20"
    },
    {
      "name": "Pizza MU.WOO",
      "name_kana": "ピザ　ムー",
      "business_type": "① 飲食店営業",
      "address": "北海道網走郡津別町共和44-66 全道一円",
      "lat": 43.698206,
      "lng": 144.025818,
      "geocoding_level": null,
      "phone": "",
      "license_no": "オ北生第35-130号指令",
      "license_date": "2026-02-03",
      "expire_date": "2031-02-20"
    },
    {
      "name": "しのはら菓子舗",
      "name_kana": "シノハラカシホ",
      "business_type": "⑪ 菓子製造業",
      "address": "北海道網走郡津別町本町67",
      "lat": 43.70559,
      "lng": 144.02225,
      "geocoding_level": null,
      "phone": "",
      "license_no": "オ北生第４-114号指令",
      "license_date": "2024-12-20",
      "expire_date": "2029-12-28"
    },
    {
      "name": "ノンノの森ネイチャーセンター",
      "name_kana": "ノンノノモリネイチャーセンター",
      "business_type": "① 飲食店営業",
      "address": "北海道網走郡津別町字上里703－4",
      "lat": 43.555748,
      "lng": 144.190427,
      "geocoding_level": null,
      "phone": "0152-77-3344",
      "license_no": "オ北生第35ｰ33号指令",
      "license_date": "2025-06-17",
      "expire_date": "2031-06-30"
    },
    {
      "name": "パン工房るぱ",
      "name_kana": "パンコウボウルパ",
      "business_type": "㉕ 行商",
      "address": "北海道網走郡津別町北見保健所管内一円",
      "lat": 43.706316,
      "lng": 144.024803,
      "geocoding_level": 2,
      "phone": "0152-77-3222",
      "license_no": "",
      "license_date": null,
      "expire_date": null
    },
    {
      "name": "チミケップホテル",
      "name_kana": "チミケップホテル",
      "business_type": "① 飲食店営業",
      "address": "北海道網走郡津別町沼沢204",
      "lat": 43.634865,
      "lng": 143.880083,
      "geocoding_level": null,
      "phone": "0152-77-2121",
      "license_no": "オ北生第35-38号指令",
      "license_date": "2025-07-02",
      "expire_date": "2031-12-20"
    },
    {
      "name": "㈲チミケップホテル",
      "name_kana": "ユウゲンガイシャチミケップホテル",
      "business_type": "⑪ 菓子製造業",
      "address": "北海道網走郡津別町字沼沢204",
      "lat": 43.634865,
      "lng": 143.880083,
      "geocoding_level": null,
      "phone": "0152-77-2121",
      "license_no": "オ北生第35ｰ110号指令",
      "license_date": "2025-12-04",
      "expire_date": "2032-06-30"
    },
    {
      "name": "津別町学校給食センター",
      "name_kana": "ツベツチョウガッコウキュウショクセンター",
      "business_type": "① 飲食店営業",
      "address": "北海道網走郡津別町幸町69番地1",
      "lat": 43.706491,
      "lng": 144.028216,
      "geocoding_level": null,
      "phone": "0152-76-2401",
      "license_no": "オ北生第35-61号指令",
      "license_date": "2025-08-07",
      "expire_date": "2033-12-20"
    },
    {
      "name": "Bar B.B",
      "name_kana": "バービービー",
      "business_type": "① 飲食店営業",
      "address": "北海道網走郡津別町幸町12",
      "lat": 43.706013,
      "lng": 144.02363,
      "geocoding_level": null,
      "phone": "",
      "license_no": "オ北生第35-31号指令",
      "license_date": "2025-06-12",
      "expire_date": "2031-06-30"
    },
    {
      "name": "道の駅　あいおい",
      "name_kana": "ミチノエキアイオイ",
      "business_type": "① 飲食店営業",
      "address": "北海道網走郡津別町字相生83－1",
      "lat": 43.544691,
      "lng": 143.981124,
      "geocoding_level": null,
      "phone": "0152-75-9101",
      "license_no": "オ北生第35ｰ102号指令",
      "license_date": "2025-11-12",
      "expire_date": "2031-12-20"
    },
    {
      "name": "道の駅　あいおい",
      "name_kana": "ミチノエキアイオイ",
      "business_type": "⑪ 菓子製造業",
      "address": "北海道網走郡津別町字相生83－1",
      "lat": 43.544691,
      "lng": 143.981124,
      "geocoding_level": null,
      "phone": "0152-75-9101",
      "license_no": "オ北生第35ｰ102号指令",
      "license_date": "2025-11-12",
      "expire_date": "2031-12-20"
    },
    {
      "name": "道の駅　あいおい",
      "name_kana": "ミチノエキアイオイ",
      "business_type": "㉒ 豆腐製造業",
      "address": "北海道網走郡津別町字相生83－1",
      "lat": 43.544691,
      "lng": 143.981124,
      "geocoding_level": null,
      "phone": "0152-75-9101",
      "license_no": "オ北生第35ｰ102号指令",
      "license_date": "2025-11-12",
      "expire_date": "2031-12-20"
    },
    {
      "name": "はじめちゃんの店",
      "name_kana": "ハジメチャンノミセ",
      "business_type": "① 飲食店営業",
      "address": "北海道網走郡津別町字共和152-6 北見保健所管内一円（営業場所は営業計画書のとおり）",
      "lat": 43.688432,
      "lng": 144.030669,
      "geocoding_level": null,
      "phone": "",
      "license_no": "オ北生第35-119号指令",
      "license_date": "2025-12-26",
      "expire_date": "2031-01-20"
    },
    {
      "name": "㈲日本ミート",
      "name_kana": "ユウゲンガイシャニホンミート",
      "business_type": "① 飲食店営業",
      "address": "北海道網走郡津別町字豊永40",
      "lat": 43.704315,
      "lng": 144.035593,
      "geocoding_level": null,
      "phone": "0152-76-2576",
      "license_no": "オ北生第35ｰ118号指令",
      "license_date": "2025-12-25",
      "expire_date": "2032-06-30"
    },
    {
      "name": "㈲日本ミート",
      "name_kana": "ユウゲンガイシャニホンミート",
      "business_type": "③ 食肉販売業",
      "address": "北海道網走郡津別町字豊永40",
      "lat": 43.704315,
      "lng": 144.035593,
      "geocoding_level": null,
      "phone": "0152-76-2576",
      "license_no": "オ北生第35ｰ118号指令",
      "license_date": "2025-12-25",
      "expire_date": "2032-06-30"
    }
  ]
}
