{
  "meta": {
    "updated": 1783568789,
    "sources": [
      {
        "source": "厚生労働省 食品衛生申請等システム（オープンデータ）",
        "license": "公共データ利用規約（第1.0版, PDL1.0）"
      }
    ]
  },
  "data": [
    {
      "name": "道の駅　清川カップ",
      "name_kana": "ミチノエキキヨカワカップ",
      "business_type": "⑤ コップ式自動販売機（自動洗浄・屋内設置）",
      "address": "神奈川県愛甲郡清川村煤ヶ谷２１２９",
      "lat": 35.482543,
      "lng": 139.277175,
      "geocoding_level": null,
      "phone": "070-1316-9184",
      "license_no": "",
      "license_date": null,
      "expire_date": null
    },
    {
      "name": "Pile coffee",
      "name_kana": "パイルコーヒー",
      "business_type": "⑬ その他の食料・飲料販売業",
      "address": "神奈川県愛甲郡清川村宮ケ瀬979-7",
      "lat": 35.521142,
      "lng": 139.23147,
      "geocoding_level": null,
      "phone": "0462881744",
      "license_no": "",
      "license_date": null,
      "expire_date": null
    },
    {
      "name": "Pile coffee",
      "name_kana": "パイルコーヒー",
      "business_type": "⑯ コーヒー製造・加工業（飲料の製造を除く。）",
      "address": "神奈川県愛甲郡清川村宮ケ瀬979-7",
      "lat": 35.521142,
      "lng": 139.23147,
      "geocoding_level": null,
      "phone": "0462881744",
      "license_no": "",
      "license_date": null,
      "expire_date": null
    },
    {
      "name": "Cafe WILD CHICKEN",
      "name_kana": "カフェ　ワイルドチキン",
      "business_type": "⑬ その他の食料・飲料販売業",
      "address": "神奈川県愛甲郡清川村宮ケ瀬951-3",
      "lat": 35.526558,
      "lng": 139.225594,
      "geocoding_level": null,
      "phone": "070-1587-3982",
      "license_no": "",
      "license_date": null,
      "expire_date": null
    },
    {
      "name": "清川村学校給食センター",
      "name_kana": "キヨカワムラガッコウキュウショクセンター",
      "business_type": "㉖ 集団給食施設",
      "address": "神奈川県愛甲郡清川村煤ケ谷２１３２－１",
      "lat": 35.483044,
      "lng": 139.277694,
      "geocoding_level": null,
      "phone": "046-288-2760",
      "license_no": "",
      "license_date": null,
      "expire_date": null
    },
    {
      "name": "株式会社コーエン",
      "name_kana": "カブシキカイシャ　コーエン",
      "business_type": "② 食肉販売業（包装済みの食肉のみの販売）",
      "address": "神奈川県愛甲郡清川村宮ケ瀬940-5 コーエン宮ヶ瀬地区公共施設等管理事務所",
      "lat": 35.523013,
      "lng": 139.22409,
      "geocoding_level": null,
      "phone": "0462817851",
      "license_no": "",
      "license_date": null,
      "expire_date": null
    },
    {
      "name": "ミヤガセ食堂",
      "name_kana": "ミヤガセショクドウ",
      "business_type": "⑦ 野菜果物販売業",
      "address": "神奈川県愛甲郡清川村宮ヶ瀬971-56",
      "lat": 35.519999,
      "lng": 139.231143,
      "geocoding_level": null,
      "phone": "080-4451-1648",
      "license_no": "",
      "license_date": null,
      "expire_date": null
    },
    {
      "name": "ミヤガセ食堂",
      "name_kana": "ミヤガセショクドウ",
      "business_type": "⑧ 米穀類販売業",
      "address": "神奈川県愛甲郡清川村宮ヶ瀬971-56",
      "lat": 35.519999,
      "lng": 139.231143,
      "geocoding_level": null,
      "phone": "080-4451-1648",
      "license_no": "",
      "license_date": null,
      "expire_date": null
    },
    {
      "name": "クリエイトS・D清川店",
      "name_kana": "クリエイトエス・ディーキヨカワテン",
      "business_type": "⑬ その他の食料・飲料販売業",
      "address": "神奈川県愛甲郡清川村煤ケ谷2140-5",
      "lat": 35.483383,
      "lng": 139.275994,
      "geocoding_level": null,
      "phone": "046-287-1031",
      "license_no": "",
      "license_date": null,
      "expire_date": null
    },
    {
      "name": "米花庵",
      "name_kana": "マイカアン",
      "business_type": "① 飲食店営業",
      "address": "神奈川県愛甲郡清川村煤ヶ谷1592-1",
      "lat": 35.473027,
      "lng": 139.284754,
      "geocoding_level": null,
      "phone": "08075428027",
      "license_no": "第2024-001-0623号",
      "license_date": "2025-02-27",
      "expire_date": "2030-02-26"
    }
  ]
}
