{
  "meta": {
    "updated": 1783568789,
    "sources": [
      {
        "source": "厚生労働省 食品衛生申請等システム（オープンデータ）",
        "license": "公共データ利用規約（第1.0版, PDL1.0）"
      }
    ]
  },
  "data": [
    {
      "name": "Ｖ・drug　八百津店",
      "name_kana": "ブイ・ドラッグ　ヤオツテン",
      "business_type": "⑬ その他の食料・飲料販売業",
      "address": "岐阜県加茂郡八百津町和知1032-52",
      "lat": 35.464962,
      "lng": 137.100499,
      "geocoding_level": null,
      "phone": "0574-43-8177",
      "license_no": "",
      "license_date": null,
      "expire_date": null
    },
    {
      "name": "内堀醸造株式会社",
      "name_kana": "ウチボリジョウゾウカブシキカイシャ",
      "business_type": "⑱ 調味料製造・加工業",
      "address": "岐阜県加茂郡八百津町伊岐津志437－1",
      "lat": 35.469512,
      "lng": 137.1112,
      "geocoding_level": null,
      "phone": "0574431185",
      "license_no": "",
      "license_date": null,
      "expire_date": null
    },
    {
      "name": "内堀醸造株式会社",
      "name_kana": "ウチボリジョウゾウカブシキカイシャ",
      "business_type": "㉚ 密封包装食品製造業",
      "address": "岐阜県加茂郡八百津町加茂郡八百津町伊岐津志437-1",
      "lat": 35.469512,
      "lng": 137.1112,
      "geocoding_level": null,
      "phone": "0574-43-1185",
      "license_no": "第58000684号",
      "license_date": "2022-07-21",
      "expire_date": "2027-11-30"
    },
    {
      "name": "バロー八百津店",
      "name_kana": "バローヤオツテン",
      "business_type": "⑪ 百貨店、総合スーパー",
      "address": "岐阜県加茂郡八百津町和知1032-54",
      "lat": 35.464619,
      "lng": 137.099296,
      "geocoding_level": null,
      "phone": "0574438155",
      "license_no": "",
      "license_date": null,
      "expire_date": null
    },
    {
      "name": "豊栄鉄工株式会社カップ",
      "name_kana": "ホウエイテツコウカブシキガイシヤカップ",
      "business_type": "⑤ コップ式自動販売機（自動洗浄・屋内設置）",
      "address": "岐阜県加茂郡八百津町八百津２８５４－２",
      "lat": 35.479542,
      "lng": 137.157194,
      "geocoding_level": null,
      "phone": "0574-43-1033",
      "license_no": "",
      "license_date": null,
      "expire_date": null
    },
    {
      "name": "さくらカントリークラブ",
      "name_kana": "サクラカントリークラブ",
      "business_type": "⑤ コップ式自動販売機（自動洗浄・屋内設置）",
      "address": "岐阜県加茂郡八百津町上飯田字大屋１４８８",
      "lat": 35.47913,
      "lng": 137.091228,
      "geocoding_level": null,
      "phone": "",
      "license_no": "",
      "license_date": null,
      "expire_date": null
    },
    {
      "name": "株式会社日本パーツ製作所",
      "name_kana": "カブシキカイシャニホンパーツセイサクジョ",
      "business_type": "⑤ コップ式自動販売機（自動洗浄・屋内設置）",
      "address": "岐阜県加茂郡八百津町和知3091-8",
      "lat": 35.487138,
      "lng": 137.102873,
      "geocoding_level": null,
      "phone": "0574-43-8257",
      "license_no": "",
      "license_date": null,
      "expire_date": null
    },
    {
      "name": "株式会社豊栄鉄工カップ",
      "name_kana": "カブシキガイシヤホウエイテツコウカツプ",
      "business_type": "⑤ コップ式自動販売機（自動洗浄・屋内設置）",
      "address": "岐阜県加茂郡八百津町八百津２８５４－２",
      "lat": 35.479542,
      "lng": 137.157194,
      "geocoding_level": null,
      "phone": "0574-43-1033",
      "license_no": "",
      "license_date": null,
      "expire_date": null
    },
    {
      "name": "ゲンキー八百津店",
      "name_kana": "ゲンキーヤオツテン",
      "business_type": "⑬ その他の食料・飲料販売業",
      "address": "岐阜県加茂郡八百津町和知字鳥居前1921番",
      "lat": 35.466413,
      "lng": 137.092373,
      "geocoding_level": null,
      "phone": "0574-42-9340",
      "license_no": "",
      "license_date": null,
      "expire_date": null
    },
    {
      "name": "株式会社西友　八百津店",
      "name_kana": "カブシキガイシャセイユウ　ヤオツテン",
      "business_type": "⑪ 百貨店、総合スーパー",
      "address": "岐阜県加茂郡八百津町八百津4250-1",
      "lat": 35.478099,
      "lng": 137.140552,
      "geocoding_level": null,
      "phone": "0574-43-1234",
      "license_no": "",
      "license_date": null,
      "expire_date": null
    },
    {
      "name": "合同会社西友　八百津店　若菜",
      "name_kana": "ゴウドウガイシャセイユウ　ヤオツテン　ワカナ",
      "business_type": "① 飲食店営業",
      "address": "岐阜県加茂郡八百津町八百津4250-1",
      "lat": 35.478099,
      "lng": 137.140552,
      "geocoding_level": null,
      "phone": "0574-43-1234",
      "license_no": "第58000303号",
      "license_date": "2021-11-04",
      "expire_date": "2026-11-30"
    },
    {
      "name": "株式会社西友　八百津店",
      "name_kana": "カブシキガイシャセイユウ　ヤオツテン",
      "business_type": "④ 魚介類販売業",
      "address": "岐阜県加茂郡八百津町八百津4250-1",
      "lat": 35.478099,
      "lng": 137.140552,
      "geocoding_level": null,
      "phone": "0574-43-1234",
      "license_no": "58002610",
      "license_date": "2025-11-12",
      "expire_date": "2030-11-30"
    },
    {
      "name": "株式会社西友　八百津店　若菜",
      "name_kana": "カブシキガイシャセイユウ　ヤオツテン　ワカナ",
      "business_type": "① 飲食店営業",
      "address": "岐阜県加茂郡八百津町八百津4250-1",
      "lat": 35.478099,
      "lng": 137.140552,
      "geocoding_level": null,
      "phone": "0574-43-1234",
      "license_no": "58002609",
      "license_date": "2025-11-12",
      "expire_date": "2030-11-30"
    },
    {
      "name": "医療法人社団大治会 伊佐治病院",
      "name_kana": "イリョウホウジンシャダンダイチカイ　イサジビョウイン",
      "business_type": "㉖ 集団給食施設",
      "address": "岐阜県加茂郡八百津町錦織1530番地23",
      "lat": 35.473835,
      "lng": 137.15289,
      "geocoding_level": null,
      "phone": "0574438051",
      "license_no": "",
      "license_date": null,
      "expire_date": null
    },
    {
      "name": "マナの菜園",
      "name_kana": "マナノサイエン",
      "business_type": "⑦ 野菜果物販売業",
      "address": "岐阜県加茂郡八百津町伊岐津志914",
      "lat": 35.465577,
      "lng": 137.131339,
      "geocoding_level": null,
      "phone": "",
      "license_no": "",
      "license_date": null,
      "expire_date": null
    },
    {
      "name": "こぐさの丘",
      "name_kana": "コグサノオカ",
      "business_type": "② 食肉販売業（包装済みの食肉のみの販売）",
      "address": "岐阜県加茂郡八百津町久田見2218",
      "lat": 35.51963,
      "lng": 137.183483,
      "geocoding_level": null,
      "phone": "09084739774",
      "license_no": "",
      "license_date": null,
      "expire_date": null
    },
    {
      "name": "こぐさの丘",
      "name_kana": "コグサノオカ",
      "business_type": "⑬ その他の食料・飲料販売業",
      "address": "岐阜県加茂郡八百津町久田見2218",
      "lat": 35.51963,
      "lng": 137.183483,
      "geocoding_level": null,
      "phone": "09084739774",
      "license_no": "",
      "license_date": null,
      "expire_date": null
    }
  ]
}
