{
  "meta": {
    "updated": 1783568789,
    "sources": [
      {
        "source": "厚生労働省 食品衛生申請等システム（オープンデータ）",
        "license": "公共データ利用規約（第1.0版, PDL1.0）"
      }
    ]
  },
  "data": [
    {
      "name": "ファミリーマート　阿智ＰＡ下り",
      "name_kana": "ファミリーマート　アチパーキングエリアクダリ",
      "business_type": "⑩ コンビニエンスストア",
      "address": "長野県下伊那郡阿智村駒場１２１－２ 中央自動車道阿智ＰＡ（下り）",
      "lat": 35.448861,
      "lng": 137.746375,
      "geocoding_level": null,
      "phone": "0265-45-1044",
      "license_no": "",
      "license_date": null,
      "expire_date": null
    },
    {
      "name": "Ａ・コープラックあち店",
      "name_kana": "エーコープラックアチテン",
      "business_type": "③ 食肉販売業",
      "address": "長野県下伊那郡阿智村春日３２２０",
      "lat": 35.44851,
      "lng": 137.750185,
      "geocoding_level": null,
      "phone": "0265-43-2003",
      "license_no": "07221632",
      "license_date": "2021-07-30",
      "expire_date": "2027-07-31"
    },
    {
      "name": "Ａ・コープラックあち店",
      "name_kana": "エーコープラックアチテン",
      "business_type": "④ 魚介類販売業",
      "address": "長野県下伊那郡阿智村春日３２２０",
      "lat": 35.44851,
      "lng": 137.750185,
      "geocoding_level": null,
      "phone": "0265-43-2003",
      "license_no": "07221625",
      "license_date": "2021-07-30",
      "expire_date": "2027-07-31"
    },
    {
      "name": "Ａ・コープラックあち店",
      "name_kana": "エーコープラックアチテン",
      "business_type": "① 飲食店営業",
      "address": "長野県下伊那郡阿智村春日３２２０",
      "lat": 35.44851,
      "lng": 137.750185,
      "geocoding_level": null,
      "phone": "0265-43-2003",
      "license_no": "07221618",
      "license_date": "2021-07-30",
      "expire_date": "2027-07-31"
    },
    {
      "name": "古畑農産加工所",
      "name_kana": "フルハタノウサンカコウジョ",
      "business_type": "⑪ 菓子製造業",
      "address": "長野県下伊那郡阿智村智里２７２７－４",
      "lat": 35.446404,
      "lng": 137.716291,
      "geocoding_level": null,
      "phone": "",
      "license_no": "07238965",
      "license_date": "2021-06-04",
      "expire_date": "2027-07-31"
    },
    {
      "name": "古畑農産加工所",
      "name_kana": "フルハタノウサンカコウジョ",
      "business_type": "⑰ 農産保存食料品製造・加工業",
      "address": "長野県下伊那郡阿智村智里２７２７－４",
      "lat": 35.446401,
      "lng": 137.716312,
      "geocoding_level": null,
      "phone": "090-9354-2108",
      "license_no": "",
      "license_date": null,
      "expire_date": null
    },
    {
      "name": "古畑農産加工所",
      "name_kana": "フルハタノウサンカコウジョ",
      "business_type": "㉙ 漬物製造業",
      "address": "長野県下伊那郡阿智村智里２７２７－４",
      "lat": 35.446404,
      "lng": 137.716291,
      "geocoding_level": null,
      "phone": "090-9354-2108",
      "license_no": "07246450",
      "license_date": "2024-05-17",
      "expire_date": "2029-07-31"
    },
    {
      "name": "古畑農産加工所",
      "name_kana": "フルハタノウサンカコウジョ",
      "business_type": "㉕ そうざい製造業",
      "address": "長野県下伊那郡阿智村智里２７２７－４",
      "lat": 35.446404,
      "lng": 137.716291,
      "geocoding_level": null,
      "phone": "0265-43-4102",
      "license_no": "07217986",
      "license_date": "2024-07-31",
      "expire_date": "2029-07-31"
    },
    {
      "name": "サクライロ",
      "name_kana": "サクライロ",
      "business_type": "① 飲食店営業",
      "address": "長野県下伊那郡阿智村清内路2796-1",
      "lat": 35.510798,
      "lng": 137.676117,
      "geocoding_level": null,
      "phone": "080-7119-8008",
      "license_no": "07238980",
      "license_date": "2021-06-07",
      "expire_date": "2026-07-31"
    },
    {
      "name": "サクライロ",
      "name_kana": "サクライロ",
      "business_type": "⑦ 野菜果物販売業",
      "address": "長野県下伊那郡阿智村清内路２７９６－１",
      "lat": 35.507963,
      "lng": 137.694751,
      "geocoding_level": null,
      "phone": "080-7119-8008",
      "license_no": "",
      "license_date": null,
      "expire_date": null
    },
    {
      "name": "サクライロ",
      "name_kana": "サクライロ",
      "business_type": "⑬ その他の食料・飲料販売業",
      "address": "長野県下伊那郡阿智村清内路２７９６－１",
      "lat": 35.507963,
      "lng": 137.694751,
      "geocoding_level": null,
      "phone": "080-7119-8008",
      "license_no": "",
      "license_date": null,
      "expire_date": null
    },
    {
      "name": "サクライロ",
      "name_kana": "サクライロ",
      "business_type": "⑰ 農産保存食料品製造・加工業",
      "address": "長野県下伊那郡阿智村清内路２７９６－１",
      "lat": 35.507963,
      "lng": 137.694751,
      "geocoding_level": null,
      "phone": "080-7119-8008",
      "license_no": "",
      "license_date": null,
      "expire_date": null
    },
    {
      "name": "上枡",
      "name_kana": "カミマス",
      "business_type": "⑰ 農産保存食料品製造・加工業",
      "address": "長野県下伊那郡阿智村智里4879",
      "lat": 35.425054,
      "lng": 137.703244,
      "geocoding_level": null,
      "phone": "0265-43-2403",
      "license_no": "",
      "license_date": null,
      "expire_date": null
    },
    {
      "name": "Ｄｏｇｒｕｎ＆Ｃａｆｅ　ＲＯＵＴＥ☆Ａ",
      "name_kana": "ドッグランアンドカフェ　ルートエー",
      "business_type": "① 飲食店営業",
      "address": "長野県下伊那郡阿智村智里１８４３－２",
      "lat": 35.449996,
      "lng": 137.7199,
      "geocoding_level": null,
      "phone": "0265-49-9015",
      "license_no": "07248023",
      "license_date": "2024-10-30",
      "expire_date": "2031-07-31"
    },
    {
      "name": "株式会社ちさと東",
      "name_kana": "カブシキカイシャチサトヒガシ",
      "business_type": "⑨ 通信販売・訪問販売による販売業",
      "address": "長野県下伊那郡阿智村智里５５６－１",
      "lat": 35.451961,
      "lng": 137.714038,
      "geocoding_level": null,
      "phone": "0265-43-3938",
      "license_no": "",
      "license_date": null,
      "expire_date": null
    },
    {
      "name": "株式会社ちさと東",
      "name_kana": "カブシキカイシャチサトヒガシ",
      "business_type": "⑰ 農産保存食料品製造・加工業",
      "address": "長野県下伊那郡阿智村智里５５６－１",
      "lat": 35.451961,
      "lng": 137.714038,
      "geocoding_level": null,
      "phone": "0265-43-3938",
      "license_no": "",
      "license_date": null,
      "expire_date": null
    },
    {
      "name": "そば処おにひら本店",
      "name_kana": "ソバドコロオニヒラホンテン",
      "business_type": "⑦ 野菜果物販売業",
      "address": "長野県下伊那郡阿智村智里４４０５－１",
      "lat": 35.431431,
      "lng": 137.69879,
      "geocoding_level": null,
      "phone": "0265-43-3398",
      "license_no": "",
      "license_date": null,
      "expire_date": null
    },
    {
      "name": "そば処おにひら本店",
      "name_kana": "ソバドコロオニヒラホンテン",
      "business_type": "⑨ 通信販売・訪問販売による販売業",
      "address": "長野県下伊那郡阿智村智里４４０５－１",
      "lat": 35.431431,
      "lng": 137.69879,
      "geocoding_level": null,
      "phone": "0265-43-3398",
      "license_no": "",
      "license_date": null,
      "expire_date": null
    },
    {
      "name": "そば処おにひら本店",
      "name_kana": "ソバドコロオニヒラホンテン",
      "business_type": "⑳ 精穀・製粉業",
      "address": "長野県下伊那郡阿智村智里４４０５－１",
      "lat": 35.431431,
      "lng": 137.69879,
      "geocoding_level": null,
      "phone": "0265-43-3398",
      "license_no": "",
      "license_date": null,
      "expire_date": null
    },
    {
      "name": "そば処おにひら　治部坂店",
      "name_kana": "ソバドコロオニヒラ　ジブザカテン",
      "business_type": "① 飲食店営業",
      "address": "長野県下伊那郡阿智村浪合１１９２－２００６",
      "lat": 35.353668,
      "lng": 137.669622,
      "geocoding_level": null,
      "phone": "0265-48-6339",
      "license_no": "07242320",
      "license_date": "2022-10-26",
      "expire_date": "2029-07-31"
    },
    {
      "name": "そば処おにひら　治部坂店",
      "name_kana": "ソバドコロオニヒラ　ジブザカテン",
      "business_type": "② 食肉販売業（包装済みの食肉のみの販売）",
      "address": "長野県下伊那郡阿智村浪合１１９２－２００６",
      "lat": 35.35804,
      "lng": 137.671661,
      "geocoding_level": null,
      "phone": "0265-48-6339",
      "license_no": "",
      "license_date": null,
      "expire_date": null
    },
    {
      "name": "そば処おにひら　治部坂店",
      "name_kana": "ソバドコロオニヒラ　ジブザカテン",
      "business_type": "⑦ 野菜果物販売業",
      "address": "長野県下伊那郡阿智村浪合１１９２－２００６",
      "lat": 35.35804,
      "lng": 137.671661,
      "geocoding_level": null,
      "phone": "0265-48-6339",
      "license_no": "",
      "license_date": null,
      "expire_date": null
    },
    {
      "name": "そば処おにひら　治部坂店",
      "name_kana": "ソバドコロオニヒラ　ジブザカテン",
      "business_type": "⑬ その他の食料・飲料販売業",
      "address": "長野県下伊那郡阿智村浪合１１９２－２００６",
      "lat": 35.35804,
      "lng": 137.671661,
      "geocoding_level": null,
      "phone": "0265-48-6339",
      "license_no": "",
      "license_date": null,
      "expire_date": null
    },
    {
      "name": "そば処　おにひら　本店",
      "name_kana": "ソバドコロ　オニヒラ　ホンテン",
      "business_type": "① 飲食店営業",
      "address": "長野県下伊那郡阿智村智里４４０５－１",
      "lat": 35.431431,
      "lng": 137.69879,
      "geocoding_level": null,
      "phone": "0265-43-3398",
      "license_no": "07207084",
      "license_date": "2023-07-31",
      "expire_date": "2029-07-31"
    },
    {
      "name": "株式会社　ちさと東",
      "name_kana": "カブシキガイシャ  チサトヒガシ",
      "business_type": "㉕ そうざい製造業",
      "address": "長野県下伊那郡阿智村智里５５６－１",
      "lat": 35.451934,
      "lng": 137.714034,
      "geocoding_level": null,
      "phone": "0265-43-3938",
      "license_no": "07207127",
      "license_date": "2023-07-31",
      "expire_date": "2029-07-31"
    },
    {
      "name": "そば処　おにひら　本店",
      "name_kana": "ソバドコロ　オニヒラ　ホンテン",
      "business_type": "㉔ 麺類製造業",
      "address": "長野県下伊那郡阿智村智里４４０５－１",
      "lat": 35.431431,
      "lng": 137.69879,
      "geocoding_level": null,
      "phone": "0265-43-3398",
      "license_no": "07207091",
      "license_date": "2023-07-31",
      "expire_date": "2029-07-31"
    },
    {
      "name": "株式会社ちさと東　製麺工場",
      "name_kana": "カブシキガイシャチサトヒガシ　セイメンコウジョウ",
      "business_type": "㉔ 麺類製造業",
      "address": "長野県下伊那郡阿智村智里５５６－１",
      "lat": 35.451934,
      "lng": 137.714034,
      "geocoding_level": null,
      "phone": "0265-43-3938",
      "license_no": "07245900",
      "license_date": "2024-03-15",
      "expire_date": "2030-07-31"
    },
    {
      "name": "阿智温泉療護園",
      "name_kana": "アチオンセンリョウゴエン",
      "business_type": "㉖ 集団給食施設",
      "address": "長野県下伊那郡阿智村智里287-1",
      "lat": 35.453774,
      "lng": 137.717002,
      "geocoding_level": null,
      "phone": "0265433172",
      "license_no": "",
      "license_date": null,
      "expire_date": null
    },
    {
      "name": "ファミリーマート信州昼神店",
      "name_kana": "ファミリーマートシンシュウヒルカミテン",
      "business_type": "⑩ コンビニエンスストア",
      "address": "長野県下伊那郡阿智村智里４３０－１",
      "lat": 35.454928,
      "lng": 137.65536,
      "geocoding_level": null,
      "phone": "0265-45-0032",
      "license_no": "",
      "license_date": null,
      "expire_date": null
    },
    {
      "name": "掘割",
      "name_kana": "ホリワリ",
      "business_type": "① 飲食店営業",
      "address": "長野県下伊那郡阿智村清内路４７７－１",
      "lat": 35.477345,
      "lng": 137.700697,
      "geocoding_level": null,
      "phone": "0000-00-0000",
      "license_no": "07239355",
      "license_date": "2021-07-13",
      "expire_date": "2026-07-31"
    },
    {
      "name": "掘割",
      "name_kana": "ホリワリ",
      "business_type": "① 飲食店営業",
      "address": "長野県下伊那郡阿智村清内路４７７－１",
      "lat": 35.477345,
      "lng": 137.700697,
      "geocoding_level": null,
      "phone": "090-5316-3612",
      "license_no": "07209531",
      "license_date": "2024-07-31",
      "expire_date": "2030-07-31"
    },
    {
      "name": "大平神社",
      "name_kana": "オオヒラジンジャ",
      "business_type": "① 飲食店営業",
      "address": "長野県下伊那郡阿智村智里２１３３",
      "lat": 35.446777,
      "lng": 137.708293,
      "geocoding_level": null,
      "phone": "0265-43-2487",
      "license_no": "07154767",
      "license_date": "2021-07-30",
      "expire_date": "2026-07-31"
    },
    {
      "name": "阿智村商工会",
      "name_kana": "アチムラショウコウカイ",
      "business_type": "① 飲食店営業",
      "address": "長野県下伊那郡阿智村駒場１０７８－５",
      "lat": 35.443477,
      "lng": 137.742876,
      "geocoding_level": null,
      "phone": "0265-43-2241",
      "license_no": "07130039",
      "license_date": "2021-07-30",
      "expire_date": "2026-07-31"
    },
    {
      "name": "阿智村商工会",
      "name_kana": "アチムラショウコウカイ",
      "business_type": "① 飲食店営業",
      "address": "長野県下伊那郡阿智村駒場１０７８－５",
      "lat": 35.443477,
      "lng": 137.742876,
      "geocoding_level": null,
      "phone": "0265-43-2241",
      "license_no": "07130021",
      "license_date": "2021-07-30",
      "expire_date": "2026-07-31"
    },
    {
      "name": "阿智村商工会",
      "name_kana": "アチムラショウコウカイ",
      "business_type": "① 飲食店営業",
      "address": "長野県下伊那郡阿智村駒場１０７８－５",
      "lat": 35.443477,
      "lng": 137.742876,
      "geocoding_level": null,
      "phone": "0265-43-2241",
      "license_no": "07154888",
      "license_date": "2021-07-30",
      "expire_date": "2026-07-31"
    },
    {
      "name": "阿智村商工会",
      "name_kana": "アチムラショウコウカイ",
      "business_type": "① 飲食店営業",
      "address": "長野県下伊那郡阿智村駒場１０７８－５",
      "lat": 35.443477,
      "lng": 137.742876,
      "geocoding_level": null,
      "phone": "0265-43-2241",
      "license_no": "07244321",
      "license_date": "2023-07-28",
      "expire_date": "2028-07-31"
    },
    {
      "name": "阿智村役場　保健センター",
      "name_kana": "アチムラヤクバ　ホケンセンター",
      "business_type": "① 飲食店営業",
      "address": "長野県下伊那郡阿智村駒場４８３",
      "lat": 35.443822,
      "lng": 137.747536,
      "geocoding_level": null,
      "phone": "0265-45-1230",
      "license_no": "07245187",
      "license_date": "2023-10-27",
      "expire_date": "2029-07-31"
    },
    {
      "name": "阿智村商工会",
      "name_kana": "アチムラショウコウカイ",
      "business_type": "① 飲食店営業",
      "address": "長野県下伊那郡阿智村駒場１０７８－５",
      "lat": 35.443477,
      "lng": 137.742876,
      "geocoding_level": null,
      "phone": "0265-43-2241",
      "license_no": "07217484",
      "license_date": "2024-07-31",
      "expire_date": "2029-07-31"
    },
    {
      "name": "阿智村商工会",
      "name_kana": "アチムラショウコウカイ",
      "business_type": "① 飲食店営業",
      "address": "長野県下伊那郡阿智村駒場１０７８－５",
      "lat": 35.443477,
      "lng": 137.742876,
      "geocoding_level": null,
      "phone": "0265-43-2241",
      "license_no": "07217491",
      "license_date": "2024-07-31",
      "expire_date": "2029-07-31"
    },
    {
      "name": "阿智村商工会",
      "name_kana": "アチムラショウコウカイ",
      "business_type": "① 飲食店営業",
      "address": "長野県下伊那郡阿智村駒場１０７８－５",
      "lat": 35.443477,
      "lng": 137.742876,
      "geocoding_level": null,
      "phone": "0265-43-2241",
      "license_no": "07217502",
      "license_date": "2024-07-31",
      "expire_date": "2029-07-31"
    },
    {
      "name": "阿智村商工会",
      "name_kana": "アチムラショウコウカイ",
      "business_type": "① 飲食店営業",
      "address": "長野県下伊那郡阿智村駒場１０７８－５",
      "lat": 35.443477,
      "lng": 137.742876,
      "geocoding_level": null,
      "phone": "0265-43-2241",
      "license_no": "07217510",
      "license_date": "2024-07-31",
      "expire_date": "2029-07-31"
    },
    {
      "name": "阿智の里　ひるがみ",
      "name_kana": "アチノサト　ヒルガミ",
      "business_type": "① 飲食店営業",
      "address": "長野県下伊那郡阿智村智里５０３－３７８",
      "lat": 35.460208,
      "lng": 137.70879,
      "geocoding_level": null,
      "phone": "0265-43-2800",
      "license_no": "07200474",
      "license_date": "2021-07-30",
      "expire_date": "2027-07-31"
    },
    {
      "name": "阿智の里　ひるがみ",
      "name_kana": "アチノサト　ヒルガミ",
      "business_type": "① 飲食店営業",
      "address": "長野県下伊那郡阿智村智里５０３－３７８",
      "lat": 35.460208,
      "lng": 137.70879,
      "geocoding_level": null,
      "phone": "0265-43-2800",
      "license_no": "07200481",
      "license_date": "2021-07-30",
      "expire_date": "2027-07-31"
    },
    {
      "name": "富士見台高原山小屋　萬岳荘",
      "name_kana": "フジミダイコウゲンヤマゴヤ　バンガクソウ",
      "business_type": "① 飲食店営業",
      "address": "長野県下伊那郡阿智村智里４２５７－９６",
      "lat": 35.476481,
      "lng": 137.633626,
      "geocoding_level": null,
      "phone": "070-2667-6618",
      "license_no": "07223366",
      "license_date": "2021-07-30",
      "expire_date": "2026-07-31"
    },
    {
      "name": "農事組合法人　東山道",
      "name_kana": "ノウジクミアイホウジン　トウサンドウ",
      "business_type": "① 飲食店営業",
      "address": "長野県下伊那郡阿智村智里４９９－４",
      "lat": 35.458609,
      "lng": 137.677236,
      "geocoding_level": null,
      "phone": "0265-44-2008",
      "license_no": "07219461",
      "license_date": "2021-07-30",
      "expire_date": "2027-07-31"
    },
    {
      "name": "食事処　御所の里",
      "name_kana": "ショクジドコロ　ゴショノサト",
      "business_type": "① 飲食店営業",
      "address": "長野県下伊那郡阿智村浪合１４００",
      "lat": 35.371338,
      "lng": 137.701028,
      "geocoding_level": null,
      "phone": "0265-47-1060",
      "license_no": "07200951",
      "license_date": "2021-07-30",
      "expire_date": "2027-07-31"
    },
    {
      "name": "クレープ屋",
      "name_kana": "クレープヤ",
      "business_type": "① 飲食店営業",
      "address": "長野県下伊那郡阿智村駒場１１４３－１",
      "lat": 35.444895,
      "lng": 137.739217,
      "geocoding_level": null,
      "phone": "090-2222-4829",
      "license_no": "07205471",
      "license_date": "2021-07-30",
      "expire_date": "2026-07-30"
    },
    {
      "name": "門前屋",
      "name_kana": "モンゼンヤ",
      "business_type": "① 飲食店営業",
      "address": "長野県下伊那郡阿智村智里３６１４",
      "lat": 35.459228,
      "lng": 137.668392,
      "geocoding_level": null,
      "phone": "0265-44-2221",
      "license_no": "07178491",
      "license_date": "2021-07-30",
      "expire_date": "2027-07-31"
    },
    {
      "name": "門前屋",
      "name_kana": "モンゼンヤ",
      "business_type": "㉒ 豆腐製造業",
      "address": "長野県下伊那郡阿智村智里３６１４",
      "lat": 35.459228,
      "lng": 137.668392,
      "geocoding_level": null,
      "phone": "0265-44-2258",
      "license_no": "07178501",
      "license_date": "2021-07-30",
      "expire_date": "2027-07-31"
    },
    {
      "name": "トヨタ車体　あららぎ自然村",
      "name_kana": "トヨタシャタイ　アララギシゼンムラ",
      "business_type": "① 飲食店営業",
      "address": "長野県下伊那郡阿智村浪合１０５",
      "lat": 35.402376,
      "lng": 137.686413,
      "geocoding_level": null,
      "phone": "0265-47-2235",
      "license_no": "07198953",
      "license_date": "2021-07-30",
      "expire_date": "2027-07-31"
    },
    {
      "name": "ふるさとや",
      "name_kana": "フルサトヤ",
      "business_type": "① 飲食店営業",
      "address": "長野県下伊那郡阿智村智里３７３１－４",
      "lat": 35.455399,
      "lng": 137.668753,
      "geocoding_level": null,
      "phone": "0265-44-2311",
      "license_no": "07178370",
      "license_date": "2021-07-30",
      "expire_date": "2027-07-31"
    },
    {
      "name": "グリーンレストラン",
      "name_kana": "グリーンレストラン",
      "business_type": "① 飲食店営業",
      "address": "長野県下伊那郡阿智村智里４２５９－３７０",
      "lat": 35.455197,
      "lng": 137.6419,
      "geocoding_level": null,
      "phone": "0265-44-2311",
      "license_no": "07178355",
      "license_date": "2021-07-30",
      "expire_date": "2027-07-31"
    },
    {
      "name": "ファーストフード",
      "name_kana": "ファーストフード",
      "business_type": "① 飲食店営業",
      "address": "長野県下伊那郡阿智村智里４２５７－９９",
      "lat": 35.455422,
      "lng": 137.641802,
      "geocoding_level": null,
      "phone": "0265-44-2311",
      "license_no": "07178405",
      "license_date": "2021-07-30",
      "expire_date": "2027-07-31"
    },
    {
      "name": "レストラン　ヴァルト",
      "name_kana": "レストラン　ヴァルト",
      "business_type": "① 飲食店営業",
      "address": "長野県下伊那郡阿智村智里４２５７番地９９",
      "lat": 35.455422,
      "lng": 137.641802,
      "geocoding_level": null,
      "phone": "0265-44-2311",
      "license_no": "07178420",
      "license_date": "2024-07-31",
      "expire_date": "2030-07-31"
    },
    {
      "name": "株式会社　三日庵",
      "name_kana": "カブシキガイシャ　ミッカアン",
      "business_type": "㉔ 麺類製造業",
      "address": "長野県下伊那郡阿智村智里３３６６－８",
      "lat": 35.437339,
      "lng": 137.707335,
      "geocoding_level": null,
      "phone": "0265-45-1188",
      "license_no": "07207021",
      "license_date": "2021-07-30",
      "expire_date": "2026-07-31"
    },
    {
      "name": "そば　勝縁",
      "name_kana": "ソバ　ショウエン",
      "business_type": "① 飲食店営業",
      "address": "長野県下伊那郡阿智村智里８２９－５",
      "lat": 35.447001,
      "lng": 137.719828,
      "geocoding_level": null,
      "phone": "0265-43-3711",
      "license_no": "07178580",
      "license_date": "2021-07-30",
      "expire_date": "2027-07-31"
    },
    {
      "name": "おやき工房　えんまん",
      "name_kana": "オヤキコウボウ　エンマン",
      "business_type": "⑪ 菓子製造業",
      "address": "長野県下伊那郡阿智村智里２５９－１",
      "lat": 35.455496,
      "lng": 137.716847,
      "geocoding_level": null,
      "phone": "0265-43-4564",
      "license_no": "07206751",
      "license_date": "2021-07-30",
      "expire_date": "2026-07-31"
    },
    {
      "name": "治部坂つり堀センター",
      "name_kana": "チブザカツリボリセンター",
      "business_type": "① 飲食店営業",
      "address": "長野県下伊那郡阿智村浪合１１９２",
      "lat": 35.35804,
      "lng": 137.671661,
      "geocoding_level": null,
      "phone": "0265-47-1111",
      "license_no": "07188998",
      "license_date": "2021-07-30",
      "expire_date": "2026-07-31"
    },
    {
      "name": "Ｂａｋｅｒｙ＆Ｃａｆｅ　ＡＮＴＯＮ（あんとん）",
      "name_kana": "ベーカリーアンドカフェ　アントン",
      "business_type": "① 飲食店営業",
      "address": "長野県下伊那郡阿智村清内路１７５６－２",
      "lat": 35.50207,
      "lng": 137.685843,
      "geocoding_level": null,
      "phone": "0265-48-6631",
      "license_no": "07221689",
      "license_date": "2021-07-30",
      "expire_date": "2027-07-31"
    },
    {
      "name": "Ｂａｋｅｒｙ＆Ｃａｆｅ　ＡＮＴＯＮ（あんとん）",
      "name_kana": "ベーカリーアンドカフェ　アントン",
      "business_type": "⑪ 菓子製造業",
      "address": "長野県下伊那郡阿智村清内路１７５６－２",
      "lat": 35.502068,
      "lng": 137.685843,
      "geocoding_level": null,
      "phone": "0265-48-6631",
      "license_no": "07221696",
      "license_date": "2021-07-30",
      "expire_date": "2027-07-31"
    },
    {
      "name": "Ｂａｋｅｒｙ＆Ｃａｆｅ　ＡＮＴＯＮ",
      "name_kana": "ベーカリーアンドカフェ　アントン",
      "business_type": "① 飲食店営業",
      "address": "長野県下伊那郡阿智村清内路４２８－１８",
      "lat": 35.486246,
      "lng": 137.701861,
      "geocoding_level": null,
      "phone": "080-1267-2606",
      "license_no": "07228801",
      "license_date": "2023-07-31",
      "expire_date": "2028-07-31"
    },
    {
      "name": "彩り季節風　GOKA彩りの里",
      "name_kana": "イロドリキセツフウ　ゴカイロドリノサト",
      "business_type": "① 飲食店営業",
      "address": "長野県下伊那郡阿智村伍和５５８７－４６",
      "lat": 35.421182,
      "lng": 137.7465,
      "geocoding_level": null,
      "phone": "0265-48-6852",
      "license_no": "07221551",
      "license_date": "2021-07-30",
      "expire_date": "2027-07-31"
    },
    {
      "name": "フレンズ",
      "name_kana": "フレンズ",
      "business_type": "① 飲食店営業",
      "address": "長野県下伊那郡阿智村智里４２５９－３７０",
      "lat": 35.455197,
      "lng": 137.6419,
      "geocoding_level": null,
      "phone": "0265-44-2311",
      "license_no": "07158609",
      "license_date": "2021-07-30",
      "expire_date": "2026-07-31"
    },
    {
      "name": "ラウンヂ　吉弥",
      "name_kana": "ラウンヂ　キチヤ",
      "business_type": "① 飲食店営業",
      "address": "長野県下伊那郡阿智村智里５０３－１",
      "lat": 35.460195,
      "lng": 137.708885,
      "geocoding_level": null,
      "phone": "0265-43-2000",
      "license_no": "07131875",
      "license_date": "2021-08-01",
      "expire_date": "2026-07-30"
    },
    {
      "name": "田中青果店",
      "name_kana": "タナカセイカテン",
      "business_type": "⑰ 農産保存食料品製造・加工業",
      "address": "長野県下伊那郡阿智村伍和２８０３－１",
      "lat": 35.434276,
      "lng": 137.750731,
      "geocoding_level": null,
      "phone": "0265-43-4052",
      "license_no": "",
      "license_date": null,
      "expire_date": null
    },
    {
      "name": "レストランまなーま",
      "name_kana": "レストランマナーマ",
      "business_type": "⑰ 農産保存食料品製造・加工業",
      "address": "長野県下伊那郡阿智村春日2265-4",
      "lat": 35.452678,
      "lng": 137.750764,
      "geocoding_level": null,
      "phone": "08032423157",
      "license_no": "",
      "license_date": null,
      "expire_date": null
    },
    {
      "name": "ヘブンスそのはら催事　5/3-5/5",
      "name_kana": "ヘブンスソノハラサイジ",
      "business_type": "⑬ その他の食料・飲料販売業",
      "address": "長野県下伊那郡阿智村智里3731ｰ4",
      "lat": 35.455399,
      "lng": 137.668753,
      "geocoding_level": null,
      "phone": "",
      "license_no": "",
      "license_date": null,
      "expire_date": null
    },
    {
      "name": "前田商店",
      "name_kana": "マエダショウテン",
      "business_type": "① 飲食店営業",
      "address": "長野県下伊那郡阿智村智里中央花桃祭り会場",
      "lat": 35.454349,
      "lng": 137.714729,
      "geocoding_level": null,
      "phone": "",
      "license_no": "07230616",
      "license_date": "2023-05-31",
      "expire_date": "2028-05-31"
    },
    {
      "name": "特別養護老人ホーム　阿智荘",
      "name_kana": "トクベツヨウゴロウジンホーム　アチソウ",
      "business_type": "① 飲食店営業",
      "address": "長野県下伊那郡阿智村智里４９１－４１",
      "lat": 35.459975,
      "lng": 137.713806,
      "geocoding_level": null,
      "phone": "",
      "license_no": "07221194",
      "license_date": "2021-10-29",
      "expire_date": "2027-10-31"
    },
    {
      "name": "株式会社キラヤ　ピア店",
      "name_kana": "カブシキガイシャキラヤ　ピアテン",
      "business_type": "⑪ 百貨店、総合スーパー",
      "address": "長野県下伊那郡阿智村駒場４２６－１",
      "lat": 35.446985,
      "lng": 137.748928,
      "geocoding_level": null,
      "phone": "0265-43-2028",
      "license_no": "",
      "license_date": null,
      "expire_date": null
    },
    {
      "name": "(株)キラヤ　ピア店",
      "name_kana": "カブシキガイシャキラヤ　　ピアテン",
      "business_type": "① 飲食店営業",
      "address": "長野県下伊那郡阿智村駒場４２６－１",
      "lat": 35.447296,
      "lng": 137.7489,
      "geocoding_level": null,
      "phone": "0265-43-2028",
      "license_no": "07152684",
      "license_date": "2025-07-31",
      "expire_date": "2030-07-31"
    },
    {
      "name": "(株)キラヤ　ピア店",
      "name_kana": "カブシキガイシャキラヤ　ピアテン",
      "business_type": "④ 魚介類販売業",
      "address": "長野県下伊那郡阿智村駒場４２６－１",
      "lat": 35.447296,
      "lng": 137.7489,
      "geocoding_level": null,
      "phone": "0265-43-2028",
      "license_no": "07152691",
      "license_date": "2025-07-31",
      "expire_date": "2030-07-31"
    },
    {
      "name": "(株)キラヤ　ピア店",
      "name_kana": "カブシキガイシャキラヤ　ピアテン",
      "business_type": "③ 食肉販売業",
      "address": "長野県下伊那郡阿智村駒場４２６－１",
      "lat": 35.447296,
      "lng": 137.7489,
      "geocoding_level": null,
      "phone": "0265-43-2028",
      "license_no": "07152710",
      "license_date": "2025-07-31",
      "expire_date": "2030-07-31"
    },
    {
      "name": "南信州菓子工房株式会社　本社工場",
      "name_kana": "ミナミシンシュウカシコウボウホンシャコウジョウ",
      "business_type": "㉔ その他の食料品製造・加工業",
      "address": "長野県下伊那郡阿智村春日3291-1",
      "lat": 35.449981,
      "lng": 137.751134,
      "geocoding_level": null,
      "phone": "0265-43-5211",
      "license_no": "",
      "license_date": null,
      "expire_date": null
    },
    {
      "name": "ACHI BASE",
      "name_kana": "アチベース",
      "business_type": "⑨ 通信販売・訪問販売による販売業",
      "address": "長野県下伊那郡阿智村智里338-25",
      "lat": 35.458391,
      "lng": 137.71165,
      "geocoding_level": null,
      "phone": "0265-49-3177",
      "license_no": "",
      "license_date": null,
      "expire_date": null
    },
    {
      "name": "朝市広場",
      "name_kana": "アサイチヒロバ",
      "business_type": "② 食肉販売業（包装済みの食肉のみの販売）",
      "address": "長野県下伊那郡阿智村智里昼神３０７",
      "lat": 35.458391,
      "lng": 137.71165,
      "geocoding_level": null,
      "phone": "",
      "license_no": "",
      "license_date": null,
      "expire_date": null
    },
    {
      "name": "わいわい基地かえで　昼神店",
      "name_kana": "ワイワイキチカエデ　ヒルガミテン",
      "business_type": "① 飲食店営業",
      "address": "長野県下伊那郡阿智村智里338-25 ＡＣＨＩ ＢＡＳＥ内",
      "lat": 35.458391,
      "lng": 137.71165,
      "geocoding_level": null,
      "phone": "0265-49-3177",
      "license_no": "07249118",
      "license_date": "2025-05-28",
      "expire_date": "2030-07-31"
    },
    {
      "name": "星空食堂",
      "name_kana": "ホシゾラショクドウ",
      "business_type": "① 飲食店営業",
      "address": "長野県下伊那郡阿智村智里５―３",
      "lat": 35.454928,
      "lng": 137.65536,
      "geocoding_level": null,
      "phone": "0265-49-3171",
      "license_no": "07239138",
      "license_date": "2021-06-16",
      "expire_date": "2027-07-31"
    },
    {
      "name": "星合の森",
      "name_kana": "ホシアイノモリ",
      "business_type": "① 飲食店営業",
      "address": "長野県下伊那郡阿智村浪合１１９２－３３７",
      "lat": 35.35804,
      "lng": 137.671661,
      "geocoding_level": null,
      "phone": "0265-48-8555",
      "license_no": "07242287",
      "license_date": "2022-10-20",
      "expire_date": "2029-07-31"
    },
    {
      "name": "ヘブンスそのはら",
      "name_kana": "ヘブンスソノハラ",
      "business_type": "⑤ コップ式自動販売機（自動洗浄・屋内設置）",
      "address": "長野県下伊那郡阿智村智里４２５９",
      "lat": 35.455059,
      "lng": 137.668026,
      "geocoding_level": null,
      "phone": "0265-44-2311",
      "license_no": "",
      "license_date": null,
      "expire_date": null
    },
    {
      "name": "'ＪＡみなみ信州阿智支所",
      "name_kana": "ジェイエーミナミシンシュウアチシショ",
      "business_type": "⑤ コップ式自動販売機（自動洗浄・屋内設置）",
      "address": "長野県下伊那郡阿智村春日",
      "lat": 35.450958,
      "lng": 137.756358,
      "geocoding_level": null,
      "phone": "",
      "license_no": "",
      "license_date": null,
      "expire_date": null
    },
    {
      "name": "有限会社昼神食品",
      "name_kana": "ユウゲンガイシャヒルガミショクヒン",
      "business_type": "⑦ 野菜果物販売業",
      "address": "長野県下伊那郡阿智村智里７２５－３",
      "lat": 35.454928,
      "lng": 137.65536,
      "geocoding_level": null,
      "phone": "0265-43-4433",
      "license_no": "",
      "license_date": null,
      "expire_date": null
    },
    {
      "name": "橋上医院内　富士産業株式会社営業所",
      "name_kana": "ハシガミイインナイ　フジサンギョウカブシキガイシャエイギョウショ",
      "business_type": "① 飲食店営業",
      "address": "長野県下伊那郡阿智村駒場３５９－１",
      "lat": 35.445781,
      "lng": 137.749951,
      "geocoding_level": null,
      "phone": "0265-43-4780",
      "license_no": "07184664",
      "license_date": "2023-07-31",
      "expire_date": "2029-07-31"
    },
    {
      "name": "鈴木加工",
      "name_kana": "スズキカコウ",
      "business_type": "⑰ 農産保存食料品製造・加工業",
      "address": "長野県下伊那郡阿智村駒場８６７－４",
      "lat": 35.444215,
      "lng": 137.743124,
      "geocoding_level": null,
      "phone": "0265-43-2779",
      "license_no": "",
      "license_date": null,
      "expire_date": null
    },
    {
      "name": "横川自然農園　サンマルシェ",
      "name_kana": "ヨコカワシゼンノウエン　サンマルシェ",
      "business_type": "⑦ 野菜果物販売業",
      "address": "長野県下伊那郡阿智村智里382-2",
      "lat": 35.456874,
      "lng": 137.715248,
      "geocoding_level": null,
      "phone": "0265-48-6128",
      "license_no": "",
      "license_date": null,
      "expire_date": null
    },
    {
      "name": "横川自然農園　サンマルシェ",
      "name_kana": "ヨコカワシゼンノウエン　サンマルシェ",
      "business_type": "⑬ その他の食料・飲料販売業",
      "address": "長野県下伊那郡阿智村智里382-2",
      "lat": 35.456874,
      "lng": 137.715248,
      "geocoding_level": null,
      "phone": "0265-48-6128",
      "license_no": "",
      "license_date": null,
      "expire_date": null
    },
    {
      "name": "横川自然農園　サンマルシェ",
      "name_kana": "ヨコカワシゼンノウエン　サンマルシェ",
      "business_type": "⑰ 農産保存食料品製造・加工業",
      "address": "長野県下伊那郡阿智村智里382-2",
      "lat": 35.456874,
      "lng": 137.715248,
      "geocoding_level": null,
      "phone": "0265-48-6128",
      "license_no": "",
      "license_date": null,
      "expire_date": null
    },
    {
      "name": "サンマルシェ",
      "name_kana": "サンマルシェ",
      "business_type": "① 飲食店営業",
      "address": "長野県下伊那郡阿智村智里３８２－２",
      "lat": 35.456874,
      "lng": 137.715248,
      "geocoding_level": null,
      "phone": "0265-56-3662",
      "license_no": "07227222",
      "license_date": "2023-07-31",
      "expire_date": "2029-07-31"
    },
    {
      "name": "サンマルシェ",
      "name_kana": "サンマルシェ",
      "business_type": "㉕ そうざい製造業",
      "address": "長野県下伊那郡阿智村智里３８２－２",
      "lat": 35.456874,
      "lng": 137.715248,
      "geocoding_level": null,
      "phone": "0265-56-3662",
      "license_no": "07227230",
      "license_date": "2023-07-31",
      "expire_date": "2029-07-31"
    },
    {
      "name": "阿智村立あふち保育園",
      "name_kana": "アチソンリツアフチホイクエン",
      "business_type": "㉖ 集団給食施設",
      "address": "長野県下伊那郡阿智村春日1888",
      "lat": 35.448933,
      "lng": 137.754871,
      "geocoding_level": null,
      "phone": "0265435656",
      "license_no": "",
      "license_date": null,
      "expire_date": null
    },
    {
      "name": "阿智村立智里東保育園",
      "name_kana": "アチソンリツチサトヒガシホイクエン",
      "business_type": "㉖ 集団給食施設",
      "address": "長野県下伊那郡阿智村智里1689",
      "lat": 35.446965,
      "lng": 137.716529,
      "geocoding_level": null,
      "phone": "0265432559",
      "license_no": "",
      "license_date": null,
      "expire_date": null
    },
    {
      "name": "阿智村立清内路保育園",
      "name_kana": "アチソンリツセイナイジホイクエン",
      "business_type": "㉖ 集団給食施設",
      "address": "長野県下伊那郡阿智村清内路720",
      "lat": 35.507963,
      "lng": 137.694751,
      "geocoding_level": null,
      "phone": "0265462482",
      "license_no": "",
      "license_date": null,
      "expire_date": null
    },
    {
      "name": "阿智村立伍和保育園",
      "name_kana": "アチソンリツゴカホイクエン",
      "business_type": "㉖ 集団給食施設",
      "address": "長野県下伊那郡阿智村伍和2386",
      "lat": 35.424216,
      "lng": 137.742586,
      "geocoding_level": null,
      "phone": "0265433539",
      "license_no": "",
      "license_date": null,
      "expire_date": null
    },
    {
      "name": "阿智村立智里西保育園",
      "name_kana": "アチソンリツチサトニシホイクエン",
      "business_type": "㉖ 集団給食施設",
      "address": "長野県下伊那郡阿智村智里4027番地1",
      "lat": 35.448126,
      "lng": 137.664451,
      "geocoding_level": null,
      "phone": "0265442036",
      "license_no": "",
      "license_date": null,
      "expire_date": null
    },
    {
      "name": "阿智村立浪合保育園",
      "name_kana": "アイソンリツナミアイホイクエン",
      "business_type": "㉖ 集団給食施設",
      "address": "長野県下伊那郡阿智村浪合509番地",
      "lat": 35.375912,
      "lng": 137.690824,
      "geocoding_level": null,
      "phone": "0265472022",
      "license_no": "",
      "license_date": null,
      "expire_date": null
    },
    {
      "name": "銀河もみじキャンプ場",
      "name_kana": "ギンガモミジキャンプジョウ",
      "business_type": "② 食肉販売業（包装済みの食肉のみの販売）",
      "address": "長野県下伊那郡阿智村浪合１７１１－１",
      "lat": 35.38161,
      "lng": 137.694751,
      "geocoding_level": null,
      "phone": "0265-47-2777",
      "license_no": "",
      "license_date": null,
      "expire_date": null
    },
    {
      "name": "銀河もみじキャンプ場",
      "name_kana": "ギンガモミジキャンプジョウ",
      "business_type": "⑦ 野菜果物販売業",
      "address": "長野県下伊那郡阿智村浪合１７１１－１",
      "lat": 35.38161,
      "lng": 137.694751,
      "geocoding_level": null,
      "phone": "0265-47-2777",
      "license_no": "",
      "license_date": null,
      "expire_date": null
    },
    {
      "name": "南信州菓子工房　本社工場",
      "name_kana": "ミナミシンシュウカシコウボウ　ホンシャコウジョウ",
      "business_type": "⑪ 菓子製造業",
      "address": "長野県下伊那郡阿智村春日３２９１－１",
      "lat": 35.449981,
      "lng": 137.751134,
      "geocoding_level": null,
      "phone": "0265-43-5211",
      "license_no": "07227610",
      "license_date": "2023-07-31",
      "expire_date": "2029-07-31"
    },
    {
      "name": "山なか",
      "name_kana": "ヤマナカ",
      "business_type": "① 飲食店営業",
      "address": "長野県下伊那郡阿智村智里４０８９－３",
      "lat": 35.446569,
      "lng": 137.664167,
      "geocoding_level": null,
      "phone": "090-4256-2967",
      "license_no": "07240959",
      "license_date": "2022-04-06",
      "expire_date": "2028-07-31"
    },
    {
      "name": "木下工務所・リニア萩の平／広瀬",
      "name_kana": "キノシタコウムショリニアハギノタイラヒロセ",
      "business_type": "① 飲食店営業",
      "address": "長野県下伊那郡阿智村春日２５０９",
      "lat": 35.450958,
      "lng": 137.756358,
      "geocoding_level": null,
      "phone": "",
      "license_no": "07251261",
      "license_date": "2026-03-30",
      "expire_date": "2032-05-31"
    },
    {
      "name": "清流の里　車屋",
      "name_kana": "セイリュウノサト　クルマヤ",
      "business_type": "㉙ 漬物製造業",
      "address": "長野県下伊那郡阿智村浪合８３７",
      "lat": 35.38161,
      "lng": 137.694751,
      "geocoding_level": null,
      "phone": "0265-47-2175",
      "license_no": "07241363",
      "license_date": "2022-06-23",
      "expire_date": "2028-07-31"
    },
    {
      "name": "清流の里　車屋",
      "name_kana": "セイリュウノサト　クルマヤ",
      "business_type": "① 飲食店営業",
      "address": "長野県下伊那郡阿智村浪合上半堀８４８―２",
      "lat": 35.38161,
      "lng": 137.694751,
      "geocoding_level": null,
      "phone": "0265-47-2175",
      "license_no": "07132404",
      "license_date": "2022-07-29",
      "expire_date": "2028-07-31"
    },
    {
      "name": "清流の里・車屋",
      "name_kana": "セイリュウノサト　クルマヤ",
      "business_type": "⑰ 農産保存食料品製造・加工業",
      "address": "長野県下伊那郡阿智村浪合８３７",
      "lat": 35.38161,
      "lng": 137.694751,
      "geocoding_level": null,
      "phone": "",
      "license_no": "",
      "license_date": null,
      "expire_date": null
    },
    {
      "name": "有限会社あちの里",
      "name_kana": "ユウゲンガイシャアチノサト",
      "business_type": "㉙ 漬物製造業",
      "address": "長野県下伊那郡阿智村伍和５５７１－１",
      "lat": 35.422566,
      "lng": 137.75247,
      "geocoding_level": null,
      "phone": "0265-43-3730",
      "license_no": "07241452",
      "license_date": "2022-07-06",
      "expire_date": "2028-07-31"
    },
    {
      "name": "有限会社あちの里",
      "name_kana": "ユウゲンガイシャアチノサト",
      "business_type": "⑳ みそ又はしょうゆ製造業",
      "address": "長野県下伊那郡阿智村伍和５５７１－１",
      "lat": 35.422566,
      "lng": 137.75247,
      "geocoding_level": null,
      "phone": "0265-43-3730",
      "license_no": "07183014",
      "license_date": "2022-07-29",
      "expire_date": "2028-07-31"
    },
    {
      "name": "有限会社　あちの里",
      "name_kana": "ユウゲンガイシャ　アチノサト",
      "business_type": "㉚ 密封包装食品製造業",
      "address": "長野県下伊那郡阿智村伍和５５７１－１",
      "lat": 35.422566,
      "lng": 137.75247,
      "geocoding_level": null,
      "phone": "0265-43-3730",
      "license_no": "07183039",
      "license_date": "2022-07-29",
      "expire_date": "2028-07-31"
    },
    {
      "name": "有限会社　あちの里",
      "name_kana": "ユウゲンガイシャ　アチノサト",
      "business_type": "㉕ そうざい製造業",
      "address": "長野県下伊那郡阿智村伍和５５７１－１",
      "lat": 35.422566,
      "lng": 137.75247,
      "geocoding_level": null,
      "phone": "0265-43-3730",
      "license_no": "07183021",
      "license_date": "2022-07-29",
      "expire_date": "2028-07-31"
    },
    {
      "name": "有限会社　あちの里",
      "name_kana": "ユウゲンガイシャ　アチノサト",
      "business_type": "⑭ 清涼飲料水製造業",
      "address": "長野県下伊那郡阿智村伍和５５７１－１",
      "lat": 35.422566,
      "lng": 137.75247,
      "geocoding_level": null,
      "phone": "0265-43-3730",
      "license_no": "07183007",
      "license_date": "2022-07-29",
      "expire_date": "2028-07-31"
    },
    {
      "name": "有限会社あちの里",
      "name_kana": "ユウゲンガイシャアチノサト",
      "business_type": "① 飲食店営業",
      "address": "長野県下伊那郡阿智村伍和５５７１－１",
      "lat": 35.422566,
      "lng": 137.75247,
      "geocoding_level": null,
      "phone": "0265-43-3730",
      "license_no": "07219318",
      "license_date": "2024-07-31",
      "expire_date": "2029-07-31"
    },
    {
      "name": "ショベルウッド",
      "name_kana": "ショベルウッド",
      "business_type": "① 飲食店営業",
      "address": "長野県下伊那郡阿智村浪合９３５－１",
      "lat": 35.366996,
      "lng": 137.714257,
      "geocoding_level": null,
      "phone": "",
      "license_no": "07241623",
      "license_date": "2022-07-27",
      "expire_date": "2027-07-31"
    },
    {
      "name": "ラーメンふたつ矢　治部坂店",
      "name_kana": "ラーメンフタツヤ　ジブサカテン",
      "business_type": "① 飲食店営業",
      "address": "長野県下伊那郡阿智村浪合１１９２",
      "lat": 35.35804,
      "lng": 137.671661,
      "geocoding_level": null,
      "phone": "",
      "license_no": "07242554",
      "license_date": "2022-12-08",
      "expire_date": "2029-07-31"
    },
    {
      "name": "ｍｏｋｋｉ　ＳＴＡＲＤＵＳＴ　ＧＬＡＮＰＩＮＧ",
      "name_kana": "モッキ　スターダスト　グランピング",
      "business_type": "① 飲食店営業",
      "address": "長野県下伊那郡阿智村智里4１５２－６７",
      "lat": 35.441783,
      "lng": 137.665445,
      "geocoding_level": null,
      "phone": "080-5819-9978",
      "license_no": "07241705",
      "license_date": "2022-08-02",
      "expire_date": "2029-07-31"
    },
    {
      "name": "やきとり　かじか",
      "name_kana": "ヤキトリ　カジカ",
      "business_type": "① 飲食店営業",
      "address": "長野県下伊那郡阿智村智里昼神３５８―１",
      "lat": 35.458391,
      "lng": 137.71165,
      "geocoding_level": null,
      "phone": "0265-43-3399",
      "license_no": "07123023",
      "license_date": "2022-07-29",
      "expire_date": "2028-07-31"
    },
    {
      "name": "おとぎ亭光風",
      "name_kana": "オトギテイコウフウ",
      "business_type": "① 飲食店営業",
      "address": "長野県下伊那郡阿智村智里３８９－１",
      "lat": 35.456505,
      "lng": 137.714496,
      "geocoding_level": null,
      "phone": "0265-43-3211",
      "license_no": "07136185",
      "license_date": "2022-07-29",
      "expire_date": "2028-07-31"
    },
    {
      "name": "おとぎ亭光風",
      "name_kana": "オトギテイコウフウ",
      "business_type": "① 飲食店営業",
      "address": "長野県下伊那郡阿智村智里３８９－１",
      "lat": 35.456505,
      "lng": 137.714496,
      "geocoding_level": null,
      "phone": "0265-43-3211",
      "license_no": "07136192",
      "license_date": "2022-07-29",
      "expire_date": "2028-07-31"
    },
    {
      "name": "お食事・季節料理　ざこや",
      "name_kana": "オショクジ・キセツリョウリ　ザコヤ",
      "business_type": "① 飲食店営業",
      "address": "長野県下伊那郡阿智村駒場４９２－１０",
      "lat": 35.444954,
      "lng": 137.745861,
      "geocoding_level": null,
      "phone": "0265-43-4400",
      "license_no": "07149396",
      "license_date": "2022-07-29",
      "expire_date": "2028-07-31"
    },
    {
      "name": "春駒",
      "name_kana": "ハルコマ",
      "business_type": "① 飲食店営業",
      "address": "長野県下伊那郡阿智村駒場８７６－７",
      "lat": 35.444657,
      "lng": 137.743772,
      "geocoding_level": null,
      "phone": "0265-43-2156",
      "license_no": "07182617",
      "license_date": "2022-07-29",
      "expire_date": "2028-07-31"
    },
    {
      "name": "阿智村保養センター　鶴巻荘",
      "name_kana": "アチムラホヨウセンター　ツルマキソウ",
      "business_type": "① 飲食店営業",
      "address": "長野県下伊那郡阿智村智里３３２の４",
      "lat": 35.455692,
      "lng": 137.715843,
      "geocoding_level": null,
      "phone": "0265-43-2320",
      "license_no": "07203731",
      "license_date": "2022-07-29",
      "expire_date": "2028-07-31"
    },
    {
      "name": "阿智村保養センター　鶴巻荘",
      "name_kana": "アチムラホヨウセンター　　ツルマキソウ",
      "business_type": "㉕ そうざい製造業",
      "address": "長野県下伊那郡阿智村智里３３２の４",
      "lat": 35.455692,
      "lng": 137.715843,
      "geocoding_level": null,
      "phone": "0265-43-2320",
      "license_no": "07203748",
      "license_date": "2022-07-29",
      "expire_date": "2028-07-31"
    },
    {
      "name": "ＫＩＴＣＨＥＮ　はなＭＯＭＯ",
      "name_kana": "キッチン　ハナモモ",
      "business_type": "① 飲食店営業",
      "address": "長野県下伊那郡阿智村清内路１６２１－１",
      "lat": 35.502475,
      "lng": 137.688344,
      "geocoding_level": null,
      "phone": "0265-46-2463",
      "license_no": "07223494",
      "license_date": "2022-07-29",
      "expire_date": "2028-07-31"
    },
    {
      "name": "きたせんと",
      "name_kana": "キタセント",
      "business_type": "① 飲食店営業",
      "address": "長野県下伊那郡阿智村駒場１２３３",
      "lat": 35.444573,
      "lng": 137.740768,
      "geocoding_level": null,
      "phone": "0265-43-2173",
      "license_no": "07223996",
      "license_date": "2022-07-29",
      "expire_date": "2028-07-31"
    },
    {
      "name": "炭火焼き五平餅　関",
      "name_kana": "スミビヤキゴヘイモチ　セキ",
      "business_type": "① 飲食店営業",
      "address": "長野県下伊那郡阿智村駒場４２９－６",
      "lat": 35.446968,
      "lng": 137.74745,
      "geocoding_level": null,
      "phone": "0265-43-3080",
      "license_no": "07225140",
      "license_date": "2022-07-29",
      "expire_date": "2028-07-31"
    },
    {
      "name": "プチファーム・ヒロ",
      "name_kana": "プチファーム・ヒロ",
      "business_type": "① 飲食店営業",
      "address": "長野県下伊那郡阿智村清内路１５７３－２",
      "lat": 35.502063,
      "lng": 137.68752,
      "geocoding_level": null,
      "phone": "0265-46-2030",
      "license_no": "07225506",
      "license_date": "2022-07-29",
      "expire_date": "2028-07-31"
    },
    {
      "name": "プチファーム・ヒロ",
      "name_kana": "プチファーム・ヒロ",
      "business_type": "㉕ そうざい製造業",
      "address": "長野県下伊那郡阿智村清内路１５７３－２",
      "lat": 35.502063,
      "lng": 137.68752,
      "geocoding_level": null,
      "phone": "0265-46-2030",
      "license_no": "07225513",
      "license_date": "2022-07-29",
      "expire_date": "2028-07-31"
    },
    {
      "name": "ひるがみ茶屋",
      "name_kana": "ヒルガミチャヤ",
      "business_type": "① 飲食店営業",
      "address": "長野県下伊那郡阿智村智里３４６－２２",
      "lat": 35.455035,
      "lng": 137.715343,
      "geocoding_level": null,
      "phone": "0265-43-4056",
      "license_no": "07189661",
      "license_date": "2022-07-29",
      "expire_date": "2027-07-31"
    },
    {
      "name": "ひるがみ茶屋",
      "name_kana": "ヒルガミチャヤ",
      "business_type": "① 飲食店営業",
      "address": "長野県下伊那郡阿智村智里３４６－２２",
      "lat": 35.455035,
      "lng": 137.715343,
      "geocoding_level": null,
      "phone": "080-5146-5162",
      "license_no": "07200701",
      "license_date": "2024-07-31",
      "expire_date": "2029-07-31"
    },
    {
      "name": "下町公園",
      "name_kana": "シモマチコウエン",
      "business_type": "① 飲食店営業",
      "address": "長野県下伊那郡阿智村駒場１０７９－３",
      "lat": 35.443707,
      "lng": 137.743126,
      "geocoding_level": null,
      "phone": "0265-43-2040",
      "license_no": "07173148",
      "license_date": "2022-07-29",
      "expire_date": "2027-07-31"
    },
    {
      "name": "全下町祭り実行委員会",
      "name_kana": "ゼンシモマチマツリジッコウイインカイ",
      "business_type": "① 飲食店営業",
      "address": "長野県下伊那郡阿智村駒場８６７－２",
      "lat": 35.443896,
      "lng": 137.742919,
      "geocoding_level": null,
      "phone": "",
      "license_no": "07228526",
      "license_date": "2022-07-29",
      "expire_date": "2027-07-31"
    },
    {
      "name": "辻本屋商店",
      "name_kana": "ツジモトヤショウテン",
      "business_type": "① 飲食店営業",
      "address": "長野県下伊那郡阿智村伍和７１０－３",
      "lat": 35.436065,
      "lng": 137.748931,
      "geocoding_level": null,
      "phone": "",
      "license_no": "07211168",
      "license_date": "2022-07-29",
      "expire_date": "2027-07-31"
    },
    {
      "name": "セブンイレブン飯田山本",
      "name_kana": "セブンイレブンイイダヤマモト",
      "business_type": "① 飲食店営業",
      "address": "長野県下伊那郡阿智村大字春日５２９－２",
      "lat": 35.453571,
      "lng": 137.754988,
      "geocoding_level": null,
      "phone": "0265-25-5678",
      "license_no": "07233701",
      "license_date": "2024-07-31",
      "expire_date": "2029-07-31"
    },
    {
      "name": "セブンイレブン飯田山本",
      "name_kana": "セブンイレブンイイダヤマモト",
      "business_type": "① 飲食店営業",
      "address": "長野県下伊那郡阿智村大字春日５２９－２",
      "lat": 35.453571,
      "lng": 137.754988,
      "geocoding_level": null,
      "phone": "0265-25-5678",
      "license_no": "07233719",
      "license_date": "2024-07-31",
      "expire_date": "2029-07-31"
    },
    {
      "name": "ファミリーマート信州昼神店",
      "name_kana": "ファミリーマートシンシュウヒルガミテン",
      "business_type": "① 飲食店営業",
      "address": "長野県下伊那郡阿智村智里４３０ー１",
      "lat": 35.457491,
      "lng": 137.714714,
      "geocoding_level": null,
      "phone": "0265-45-0032",
      "license_no": "07205126",
      "license_date": "2022-07-29",
      "expire_date": "2028-07-31"
    },
    {
      "name": "ファミリーマート信州昼神店",
      "name_kana": "ファミリーマートシンシュウヒルガミテン",
      "business_type": "⑩ コンビニエンスストア",
      "address": "長野県下伊那郡阿智村智里４３０－１",
      "lat": 35.454928,
      "lng": 137.65536,
      "geocoding_level": null,
      "phone": "0265-45-0032",
      "license_no": "",
      "license_date": null,
      "expire_date": null
    },
    {
      "name": "治部屋",
      "name_kana": "ジブヤ",
      "business_type": "① 飲食店営業",
      "address": "長野県下伊那郡阿智村浪合１１９２",
      "lat": 35.35804,
      "lng": 137.671661,
      "geocoding_level": null,
      "phone": "0265-47-1111",
      "license_no": "07190471",
      "license_date": "2022-07-29",
      "expire_date": "2027-07-31"
    },
    {
      "name": "清内路郷土食の会",
      "name_kana": "セイナイジキョウドショクノカイ",
      "business_type": "① 飲食店営業",
      "address": "長野県下伊那郡阿智村清内路１２３４－２",
      "lat": 35.497706,
      "lng": 137.705023,
      "geocoding_level": null,
      "phone": "090-2318-4617",
      "license_no": "07210988",
      "license_date": "2022-07-29",
      "expire_date": "2027-07-31"
    },
    {
      "name": "岡庭　啓眞",
      "name_kana": "オカニワ　ケイマ",
      "business_type": "① 飲食店営業",
      "address": "長野県下伊那郡阿智村駒場１１６２",
      "lat": 35.444169,
      "lng": 137.74129,
      "geocoding_level": null,
      "phone": "090-3456-6522",
      "license_no": "07190635",
      "license_date": "2022-07-29",
      "expire_date": "2027-07-31"
    },
    {
      "name": "（有）春木屋本店",
      "name_kana": "ユウゲンガイシャハルキヤホンテン",
      "business_type": "⑪ 菓子製造業",
      "address": "長野県下伊那郡阿智村駒場１５０７",
      "lat": 35.448188,
      "lng": 137.733264,
      "geocoding_level": null,
      "phone": "0265-43-2878",
      "license_no": "07045515",
      "license_date": "2022-07-29",
      "expire_date": "2028-07-31"
    },
    {
      "name": "湯多利の里　伊那華",
      "name_kana": "ユタリノサト　イナカ",
      "business_type": "① 飲食店営業",
      "address": "長野県下伊那郡阿智村智里５０３―２９４",
      "lat": 35.455217,
      "lng": 137.712757,
      "geocoding_level": null,
      "phone": "0265-43-2611",
      "license_no": "07121888",
      "license_date": "2022-07-29",
      "expire_date": "2028-07-31"
    },
    {
      "name": "エアストリームスタジオ",
      "name_kana": "エアストリームスタジオ",
      "business_type": "① 飲食店営業",
      "address": "長野県下伊那郡阿智村伍和３５７０－１６",
      "lat": 35.429292,
      "lng": 137.751646,
      "geocoding_level": null,
      "phone": "0265-43-4343",
      "license_no": "07241947",
      "license_date": "2022-09-15",
      "expire_date": "2027-09-30"
    },
    {
      "name": "西田圃",
      "name_kana": "ニシタンボ",
      "business_type": "① 飲食店営業",
      "address": "長野県下伊那郡阿智村智里４２２－１",
      "lat": 35.457542,
      "lng": 137.714412,
      "geocoding_level": null,
      "phone": "0265-43-3355",
      "license_no": "07148391",
      "license_date": "2022-07-29",
      "expire_date": "2028-07-31"
    },
    {
      "name": "一般社団法人　阿智村産業振興公社",
      "name_kana": "イッパンシャダンホウジン　アチムラサンギョウシンコウコウシャ",
      "business_type": "⑰ 農産保存食料品製造・加工業",
      "address": "長野県下伊那郡阿智村駒場483",
      "lat": 35.443822,
      "lng": 137.747536,
      "geocoding_level": null,
      "phone": "0265452130",
      "license_no": "",
      "license_date": null,
      "expire_date": null
    },
    {
      "name": "一斑社団法人阿智村産業振興公社",
      "name_kana": "イッパンシャダンホウジンアチムラサンギョウシンコウコウシャ",
      "business_type": "① 魚介類販売業（包装済みの魚介類のみの販売）",
      "address": "長野県下伊那郡阿智村駒場４８７－１",
      "lat": 35.444634,
      "lng": 137.746733,
      "geocoding_level": null,
      "phone": "0265-45-2130",
      "license_no": "",
      "license_date": null,
      "expire_date": null
    },
    {
      "name": "ｇｒｅｅｎ　ｃａｆｅ",
      "name_kana": "グリーン　カフェ",
      "business_type": "① 飲食店営業",
      "address": "長野県下伊那郡阿智村駒場６５９－５",
      "lat": 35.442144,
      "lng": 137.749984,
      "geocoding_level": null,
      "phone": "",
      "license_no": "07212971",
      "license_date": "2022-10-31",
      "expire_date": "2027-10-31"
    },
    {
      "name": "Ｔａｍｕｒｏ　Ｆａｒｍ　Ｋａｆｅ",
      "name_kana": "タムロ　ファーム　カフェ",
      "business_type": "① 飲食店営業",
      "address": "長野県下伊那郡阿智村春日１１６８－２",
      "lat": 35.459892,
      "lng": 137.75738,
      "geocoding_level": null,
      "phone": "0265-49-0358",
      "license_no": "07242586",
      "license_date": "2022-12-14",
      "expire_date": "2029-07-31"
    },
    {
      "name": "ＣＨＥＢＵ　ＦＡＣＴＯＲＹ",
      "name_kana": "チェブ　ファクトリー",
      "business_type": "⑪ 菓子製造業",
      "address": "長野県下伊那郡阿智村伍和１９２４－１",
      "lat": 35.430161,
      "lng": 137.7452,
      "geocoding_level": null,
      "phone": "090-4387-2529",
      "license_no": "07242593",
      "license_date": "2022-12-21",
      "expire_date": "2029-07-31"
    },
    {
      "name": "ＣＨＥＢＵ　ＦＡＣＴＯＲＹ",
      "name_kana": "チェブ　ファクトリー",
      "business_type": "㉔ その他の食料品製造・加工業",
      "address": "長野県下伊那郡阿智村伍和１９２４－１",
      "lat": 35.430161,
      "lng": 137.7452,
      "geocoding_level": null,
      "phone": "090-4387-2529",
      "license_no": "",
      "license_date": null,
      "expire_date": null
    },
    {
      "name": "ＣＨＥＢＵ　ＦＡＣＴＯＲＹ",
      "name_kana": "チェブ　ファクトリー",
      "business_type": "① 飲食店営業",
      "address": "長野県下伊那郡阿智村伍和１９２４－１",
      "lat": 35.430161,
      "lng": 137.7452,
      "geocoding_level": null,
      "phone": "090-4387-2529",
      "license_no": "07242604",
      "license_date": "2022-12-21",
      "expire_date": "2029-07-31"
    },
    {
      "name": "やま星",
      "name_kana": "ヤマボシ",
      "business_type": "③ 食肉販売業",
      "address": "長野県下伊那郡阿智村駒場２００７－４",
      "lat": 35.446264,
      "lng": 137.733779,
      "geocoding_level": null,
      "phone": "",
      "license_no": "07242629",
      "license_date": "2022-12-21",
      "expire_date": "2029-07-31"
    },
    {
      "name": "御食事処　はらだ",
      "name_kana": "オショクジドコロ　ハラダ",
      "business_type": "① 飲食店営業",
      "address": "長野県下伊那郡阿智村駒場３７",
      "lat": 35.444164,
      "lng": 137.741772,
      "geocoding_level": null,
      "phone": "",
      "license_no": "07243340",
      "license_date": "2023-04-13",
      "expire_date": "2028-07-31"
    },
    {
      "name": "御食事処　はらだ",
      "name_kana": "オショクジドコロ　ハラダ",
      "business_type": "① 飲食店営業",
      "address": "長野県下伊那郡阿智村駒場３７",
      "lat": 35.444164,
      "lng": 137.741772,
      "geocoding_level": null,
      "phone": "",
      "license_no": "07243275",
      "license_date": "2023-04-18",
      "expire_date": "2028-07-31"
    },
    {
      "name": "阿智村社協デイサービスセンターえんばな",
      "name_kana": "アチムラシャキョウデイサービスセンターエンバナ",
      "business_type": "㉖ 集団給食施設",
      "address": "長野県下伊那郡阿智村浪合1335",
      "lat": 35.373992,
      "lng": 137.690874,
      "geocoding_level": null,
      "phone": "0265472070",
      "license_no": "",
      "license_date": null,
      "expire_date": null
    },
    {
      "name": "あちっこ",
      "name_kana": "アチッコ",
      "business_type": "① 飲食店営業",
      "address": "長野県下伊那郡阿智村伍和６７２９",
      "lat": 35.418007,
      "lng": 137.763313,
      "geocoding_level": null,
      "phone": "080-6997-0262",
      "license_no": "07243542",
      "license_date": "2023-05-18",
      "expire_date": "2028-07-31"
    },
    {
      "name": "あちっこ",
      "name_kana": "アチッコ",
      "business_type": "① 飲食店営業",
      "address": "長野県下伊那郡阿智村伍和６７２９",
      "lat": 35.418007,
      "lng": 137.763313,
      "geocoding_level": null,
      "phone": "080-6997-0262",
      "license_no": "07246556",
      "license_date": "2024-05-29",
      "expire_date": "2029-05-31"
    },
    {
      "name": "ｃａｌｆ　ｃｒｅｐｅ　ｃａｆｅ　キッチンカー",
      "name_kana": "カーフ　クレープ　カフェ　キッチンカー",
      "business_type": "① 飲食店営業",
      "address": "長野県下伊那郡阿智村駒場１６６０",
      "lat": 35.445524,
      "lng": 137.733505,
      "geocoding_level": null,
      "phone": "0265-48-6879",
      "license_no": "07243688",
      "license_date": "2023-06-13",
      "expire_date": "2028-10-31"
    },
    {
      "name": "Ｐａｗ　Ｔｅｒｒａｃｅ",
      "name_kana": "パウ　テラス",
      "business_type": "① 飲食店営業",
      "address": "長野県下伊那郡阿智村智里３７８－１",
      "lat": 35.456455,
      "lng": 137.715174,
      "geocoding_level": null,
      "phone": "0265-49-8719",
      "license_no": "07248621",
      "license_date": "2025-02-21",
      "expire_date": "2031-08-31"
    },
    {
      "name": "Ｐａｗ　Ｔｅｒｒａｃｅ",
      "name_kana": "パウ　テラス",
      "business_type": "⑬ その他の食料・飲料販売業",
      "address": "長野県下伊那郡阿智村智里３７８－１",
      "lat": 35.456455,
      "lng": 137.715174,
      "geocoding_level": null,
      "phone": "0265-49-8719",
      "license_no": "",
      "license_date": null,
      "expire_date": null
    },
    {
      "name": "石苔亭いしだ",
      "name_kana": "セキタイテイイシダ",
      "business_type": "① 飲食店営業",
      "address": "長野県下伊那郡阿智村智里３３２―３",
      "lat": 35.455697,
      "lng": 137.713822,
      "geocoding_level": null,
      "phone": "0265433300",
      "license_no": "07125185",
      "license_date": "2025-07-31",
      "expire_date": "2031-07-31"
    },
    {
      "name": "石苔亭いしだ　茶壷",
      "name_kana": "セキタイテイイシダ　チャツボ",
      "business_type": "① 飲食店営業",
      "address": "長野県下伊那郡阿智村智里３３２―３",
      "lat": 35.455697,
      "lng": 137.713822,
      "geocoding_level": null,
      "phone": "0265433300",
      "license_no": "07125211",
      "license_date": "2025-07-31",
      "expire_date": "2030-07-31"
    },
    {
      "name": "Ｗａｆｕｒｕ　南信州菓子工房",
      "name_kana": "ワフル　ミナミシンシュウカシコウボウ",
      "business_type": "① 飲食店営業",
      "address": "長野県下伊那郡阿智村駒場４３４－１",
      "lat": 35.446591,
      "lng": 137.747599,
      "geocoding_level": null,
      "phone": "0265-49-8990",
      "license_no": "07244092",
      "license_date": "2023-07-12",
      "expire_date": "2029-07-31"
    },
    {
      "name": "Ｗａｆｕｒｕ　南信州菓子工房",
      "name_kana": "ワフル　ミナミシンシュウカシコウボウ",
      "business_type": "⑪ 菓子製造業",
      "address": "長野県下伊那郡阿智村駒場４３４－１",
      "lat": 35.446591,
      "lng": 137.747599,
      "geocoding_level": null,
      "phone": "0265-49-8990",
      "license_no": "07244085",
      "license_date": "2023-07-12",
      "expire_date": "2029-07-31"
    },
    {
      "name": "尾張旭市保養センター　尾張あさひ苑",
      "name_kana": "オワリアサヒシホヨウセンター　オワリアサヒエン",
      "business_type": "① 飲食店営業",
      "address": "長野県下伊那郡阿智村智里３３１－７",
      "lat": 35.456221,
      "lng": 137.713918,
      "geocoding_level": null,
      "phone": "0265-43-3180",
      "license_no": "07244217",
      "license_date": "2023-07-19",
      "expire_date": "2029-07-31"
    },
    {
      "name": "青木屋",
      "name_kana": "アオキヤ",
      "business_type": "① 飲食店営業",
      "address": "長野県下伊那郡阿智村智里４２２４－１",
      "lat": 35.438608,
      "lng": 137.650409,
      "geocoding_level": null,
      "phone": "0265-44-2208",
      "license_no": "07184187",
      "license_date": "2023-07-31",
      "expire_date": "2029-07-31"
    },
    {
      "name": "青木屋",
      "name_kana": "アオキヤ",
      "business_type": "㉕ そうざい製造業",
      "address": "長野県下伊那郡阿智村智里４２２４－１",
      "lat": 35.438608,
      "lng": 137.650409,
      "geocoding_level": null,
      "phone": "0265-44-2208",
      "license_no": "07184170",
      "license_date": "2023-07-31",
      "expire_date": "2029-07-31"
    },
    {
      "name": "あっくん畑",
      "name_kana": "アックンバタケ",
      "business_type": "① 飲食店営業",
      "address": "長野県下伊那郡阿智村浪合317-2",
      "lat": 35.387312,
      "lng": 137.68348,
      "geocoding_level": null,
      "phone": "090-4614-0152",
      "license_no": "07244466",
      "license_date": "2023-08-10",
      "expire_date": "2028-08-31"
    },
    {
      "name": "Ｈｉｒｏ",
      "name_kana": "ヒロ",
      "business_type": "① 飲食店営業",
      "address": "長野県下伊那郡阿智村浪合１１９２－８７３",
      "lat": 35.35804,
      "lng": 137.671661,
      "geocoding_level": null,
      "phone": "",
      "license_no": "07227794",
      "license_date": "2023-07-31",
      "expire_date": "2029-07-31"
    },
    {
      "name": "谷尻商店",
      "name_kana": "タニジリショウテン",
      "business_type": "① 飲食店営業",
      "address": "長野県下伊那郡阿智村浪合５９",
      "lat": 35.400032,
      "lng": 137.691227,
      "geocoding_level": null,
      "phone": "",
      "license_no": "07246912",
      "license_date": "2024-07-11",
      "expire_date": "2029-07-31"
    },
    {
      "name": "谷尻商店",
      "name_kana": "タニジリショウテン",
      "business_type": "① 飲食店営業",
      "address": "長野県下伊那郡阿智村浪合５９",
      "lat": 35.400032,
      "lng": 137.691227,
      "geocoding_level": null,
      "phone": "",
      "license_no": "07246920",
      "license_date": "2024-07-11",
      "expire_date": "2029-07-31"
    },
    {
      "name": "谷尻商店",
      "name_kana": "タニジリショウテン",
      "business_type": "① 飲食店営業",
      "address": "長野県下伊那郡阿智村智里西　花もも特設会場",
      "lat": 35.443849,
      "lng": 137.661917,
      "geocoding_level": null,
      "phone": "000000000000",
      "license_no": "07218839",
      "license_date": "2024-07-31",
      "expire_date": "2029-07-31"
    },
    {
      "name": "日長庵　桂月",
      "name_kana": "ニッチョウアン　ケイゲツ",
      "business_type": "① 飲食店営業",
      "address": "長野県下伊那郡阿智村智里４２５",
      "lat": 35.457771,
      "lng": 137.714429,
      "geocoding_level": null,
      "phone": "0265-43-3500",
      "license_no": "07135838",
      "license_date": "2023-07-31",
      "expire_date": "2029-07-31"
    },
    {
      "name": "日長庵　桂月",
      "name_kana": "ニッチョウアン　ケイゲツ",
      "business_type": "① 飲食店営業",
      "address": "長野県下伊那郡阿智村智里４２５",
      "lat": 35.457771,
      "lng": 137.714429,
      "geocoding_level": null,
      "phone": "0265-43-3500",
      "license_no": "07135821",
      "license_date": "2023-07-31",
      "expire_date": "2029-07-31"
    },
    {
      "name": "阿智村多機能型事業所　夢のつばさ",
      "name_kana": "アチムラタキノウガタジギョウショ　ユメノツバサ",
      "business_type": "① 飲食店営業",
      "address": "長野県下伊那郡阿智村春日３２９１番地４",
      "lat": 35.44912,
      "lng": 137.751584,
      "geocoding_level": null,
      "phone": "0265-43-3737",
      "license_no": "07184739",
      "license_date": "2023-07-31",
      "expire_date": "2029-07-31"
    },
    {
      "name": "喫茶　ふらっとホッと",
      "name_kana": "キッサ　フラットホット",
      "business_type": "① 飲食店営業",
      "address": "長野県下伊那郡阿智村駒場４２６ （ショッピングタウンピア内）",
      "lat": 35.44726,
      "lng": 137.748952,
      "geocoding_level": null,
      "phone": "0265-43-3737",
      "license_no": "07206089",
      "license_date": "2023-07-31",
      "expire_date": "2029-07-31"
    },
    {
      "name": "阿智村多機能型事業所　夢のつばさ",
      "name_kana": "アチムラタキノウガタジギョウショ　ユメノツバサ",
      "business_type": "⑪ 菓子製造業",
      "address": "長野県下伊那郡阿智村春日３２９１番地４",
      "lat": 35.44912,
      "lng": 137.751584,
      "geocoding_level": null,
      "phone": "0265-43-3737",
      "license_no": "07184746",
      "license_date": "2023-07-31",
      "expire_date": "2029-07-31"
    },
    {
      "name": "ごか食堂",
      "name_kana": "ゴカショクドウ",
      "business_type": "① 飲食店営業",
      "address": "長野県下伊那郡阿智村伍和４８２－２",
      "lat": 35.440777,
      "lng": 137.751148,
      "geocoding_level": null,
      "phone": "0265-43-2744",
      "license_no": "07208325",
      "license_date": "2023-07-31",
      "expire_date": "2029-07-31"
    },
    {
      "name": "韓国料理山ちゃん",
      "name_kana": "カンコクリョウリヤマチャン",
      "business_type": "① 飲食店営業",
      "address": "長野県下伊那郡阿智村智里４２２－１",
      "lat": 35.457542,
      "lng": 137.714412,
      "geocoding_level": null,
      "phone": "0265-43-3999",
      "license_no": "07208695",
      "license_date": "2023-07-31",
      "expire_date": "2029-07-31"
    },
    {
      "name": "なみあい遊楽館",
      "name_kana": "ナミアイユウラクカン",
      "business_type": "① 飲食店営業",
      "address": "長野県下伊那郡阿智村浪合１５６１",
      "lat": 35.388729,
      "lng": 137.688536,
      "geocoding_level": null,
      "phone": "0265-47-2853",
      "license_no": "07208859",
      "license_date": "2023-07-31",
      "expire_date": "2029-07-31"
    },
    {
      "name": "スナック　輝龍",
      "name_kana": "スナック　キラリ",
      "business_type": "① 飲食店営業",
      "address": "長野県下伊那郡阿智村駒場５２３",
      "lat": 35.444824,
      "lng": 137.74417,
      "geocoding_level": null,
      "phone": "",
      "license_no": "07230908",
      "license_date": "2023-07-31",
      "expire_date": "2028-07-31"
    },
    {
      "name": "スナック　輝龍",
      "name_kana": "スナック　キラリ",
      "business_type": "① 飲食店営業",
      "address": "長野県下伊那郡阿智村駒場５２３",
      "lat": 35.444824,
      "lng": 137.74417,
      "geocoding_level": null,
      "phone": "0265-43-2007",
      "license_no": "07216051",
      "license_date": "2023-07-31",
      "expire_date": "2028-07-31"
    },
    {
      "name": "スナック　輝龍",
      "name_kana": "スナック　キラリ",
      "business_type": "① 飲食店営業",
      "address": "長野県下伊那郡阿智村駒場５２３",
      "lat": 35.444824,
      "lng": 137.74417,
      "geocoding_level": null,
      "phone": "0265-43-2007",
      "license_no": "07216069",
      "license_date": "2023-07-31",
      "expire_date": "2028-07-31"
    },
    {
      "name": "癒楽の宿　清風苑　スナック喫茶（万葉）",
      "name_kana": "ユラノヤド　セイフウエン　スナックキッサマンヨウ",
      "business_type": "① 飲食店営業",
      "address": "長野県下伊那郡阿智村智里３３８番地１９",
      "lat": 35.457041,
      "lng": 137.712894,
      "geocoding_level": null,
      "phone": "0265-43-4141",
      "license_no": "07178469",
      "license_date": "2023-07-31",
      "expire_date": "2028-07-31"
    },
    {
      "name": "癒楽の宿　清風苑　喫茶（リラクゼーションルーム）",
      "name_kana": "ユラノヤド　セイフウエン　キッサ リラクゼーション",
      "business_type": "① 飲食店営業",
      "address": "長野県下伊那郡阿智村智里３３８番地１９",
      "lat": 35.457041,
      "lng": 137.712894,
      "geocoding_level": null,
      "phone": "0265-43-4141",
      "license_no": "07178476",
      "license_date": "2023-07-31",
      "expire_date": "2028-07-31"
    },
    {
      "name": "癒楽の宿　清風苑",
      "name_kana": "ユラクノヤド　セイフウエン",
      "business_type": "① 飲食店営業",
      "address": "長野県下伊那郡阿智村智里３３８番地１９",
      "lat": 35.457041,
      "lng": 137.712894,
      "geocoding_level": null,
      "phone": "0265-43-4141",
      "license_no": "07178444",
      "license_date": "2024-07-31",
      "expire_date": "2030-07-31"
    },
    {
      "name": "デイリーヤマザキ阿智パーキングエリア上り店",
      "name_kana": "デイリーヤマザキアチパーキングエリアノボリテン",
      "business_type": "① 飲食店営業",
      "address": "長野県下伊那郡阿智村駒場１１７－１",
      "lat": 35.449508,
      "lng": 137.745418,
      "geocoding_level": null,
      "phone": "0265-43-4660",
      "license_no": "07196353",
      "license_date": "2023-07-31",
      "expire_date": "2028-07-31"
    },
    {
      "name": "デイリーヤマザキ阿智パーキングエリア上り店",
      "name_kana": "デイリーヤマザキアチパーキングエリアノボリテン",
      "business_type": "⑩ コンビニエンスストア",
      "address": "長野県下伊那郡阿智村駒場１１７－１",
      "lat": 35.449934,
      "lng": 137.74543,
      "geocoding_level": null,
      "phone": "0265-43-4660",
      "license_no": "",
      "license_date": null,
      "expire_date": null
    },
    {
      "name": "ファミリーマート阿智ＰＡ下り店",
      "name_kana": "ファミリーマートアチピーエークダリテン",
      "business_type": "① 飲食店営業",
      "address": "長野県下伊那郡阿智村駒場１２１－２",
      "lat": 35.448861,
      "lng": 137.746375,
      "geocoding_level": null,
      "phone": "0265-45-1044",
      "license_no": "07196104",
      "license_date": "2023-07-31",
      "expire_date": "2028-07-31"
    },
    {
      "name": "（有）昼神食品",
      "name_kana": "ユウゲンガイシャヒルガミショクヒン",
      "business_type": "④ 魚介類販売業",
      "address": "長野県下伊那郡阿智村智里７２５－３",
      "lat": 35.448883,
      "lng": 137.720501,
      "geocoding_level": null,
      "phone": "0265-43-4433",
      "license_no": "07185531",
      "license_date": "2023-07-31",
      "expire_date": "2029-07-31"
    },
    {
      "name": "不動温泉花菱ラウンジコーナー　あや",
      "name_kana": "フドウオンセンハナビシラウンジコーナー　アヤ",
      "business_type": "① 飲食店営業",
      "address": "長野県下伊那郡阿智村浪合２５４番地１",
      "lat": 35.39051,
      "lng": 137.682505,
      "geocoding_level": null,
      "phone": "0265-47-2321",
      "license_no": "07176991",
      "license_date": "2023-07-31",
      "expire_date": "2028-07-31"
    },
    {
      "name": "不動温泉花菱",
      "name_kana": "フドウオンセンハナビシ",
      "business_type": "① 飲食店営業",
      "address": "長野県下伊那郡阿智村浪合２５４－１",
      "lat": 35.39051,
      "lng": 137.682505,
      "geocoding_level": null,
      "phone": "0265472321",
      "license_no": "07172338",
      "license_date": "2025-07-31",
      "expire_date": "2031-07-31"
    },
    {
      "name": "Taddy’s Farm",
      "name_kana": "タディーズファーム",
      "business_type": "⑳ 精穀・製粉業",
      "address": "長野県下伊那郡阿智村駒場1252",
      "lat": 35.444793,
      "lng": 137.740267,
      "geocoding_level": null,
      "phone": "0265-43-4554",
      "license_no": "",
      "license_date": null,
      "expire_date": null
    },
    {
      "name": "Taddy’s Farm",
      "name_kana": "タディーズファーム",
      "business_type": "㉑ 製茶業",
      "address": "長野県下伊那郡阿智村駒場1252",
      "lat": 35.444793,
      "lng": 137.740267,
      "geocoding_level": null,
      "phone": "0265-43-4554",
      "license_no": "",
      "license_date": null,
      "expire_date": null
    },
    {
      "name": "熊谷典彦　天然専科やませみ",
      "name_kana": "クマガイノリヒコ　テンネンセンカヤマセミ",
      "business_type": "㉑ 製茶業",
      "address": "長野県下伊那郡阿智村智里２２６８－３",
      "lat": 35.445506,
      "lng": 137.71117,
      "geocoding_level": null,
      "phone": "",
      "license_no": "",
      "license_date": null,
      "expire_date": null
    },
    {
      "name": "（有）湯川沢",
      "name_kana": "ユウゲンガイシャユカワザワ",
      "business_type": "① 飲食店営業",
      "address": "長野県下伊那郡阿智村春日１６５７",
      "lat": 35.450125,
      "lng": 137.760667,
      "geocoding_level": null,
      "phone": "0265-43-3240",
      "license_no": "07141734",
      "license_date": "2024-07-31",
      "expire_date": "2030-07-31"
    },
    {
      "name": "（有）湯川沢",
      "name_kana": "ユウゲンガイシャユカワザワ",
      "business_type": "④ 魚介類販売業",
      "address": "長野県下伊那郡阿智村春日１６５７",
      "lat": 35.450138,
      "lng": 137.760654,
      "geocoding_level": null,
      "phone": "0265-43-3240",
      "license_no": "07141741",
      "license_date": "2024-07-31",
      "expire_date": "2030-07-31"
    },
    {
      "name": "（有）湯川沢",
      "name_kana": "ユウゲンガイシャユカワザワ",
      "business_type": "㉕ そうざい製造業",
      "address": "長野県下伊那郡阿智村春日１６５７",
      "lat": 35.450138,
      "lng": 137.760654,
      "geocoding_level": null,
      "phone": "0265-43-3240",
      "license_no": "07141759",
      "license_date": "2024-07-31",
      "expire_date": "2030-07-31"
    },
    {
      "name": "治部坂十割そば",
      "name_kana": "ジブサカジュウワリソバ",
      "business_type": "① 飲食店営業",
      "address": "長野県下伊那郡阿智村浪合１１８６－１",
      "lat": 35.353758,
      "lng": 137.668935,
      "geocoding_level": null,
      "phone": "0265-48-0917",
      "license_no": "07229197",
      "license_date": "2024-07-31",
      "expire_date": "2030-07-31"
    },
    {
      "name": "ふるさと村自然園せいなの森キャンプ場",
      "name_kana": "フルサトムラシゼンエンセイナノモリキャンプジョウ",
      "business_type": "① 飲食店営業",
      "address": "長野県下伊那郡阿智村清内路２９９１",
      "lat": 35.507963,
      "lng": 137.694751,
      "geocoding_level": null,
      "phone": "0265-46-2525",
      "license_no": "07230527",
      "license_date": "2024-07-31",
      "expire_date": "2030-07-31"
    },
    {
      "name": "あひる",
      "name_kana": "アヒル",
      "business_type": "① 飲食店営業",
      "address": "長野県下伊那郡阿智村智里２０－４",
      "lat": 35.454488,
      "lng": 137.718309,
      "geocoding_level": null,
      "phone": "0265-43-2678",
      "license_no": "07168884",
      "license_date": "2024-07-31",
      "expire_date": "2030-07-31"
    },
    {
      "name": "ひるがみ茶屋",
      "name_kana": "ヒルガミチャヤ",
      "business_type": "① 飲食店営業",
      "address": "長野県下伊那郡阿智村智里３４６－２２",
      "lat": 35.455035,
      "lng": 137.715343,
      "geocoding_level": null,
      "phone": "0265-43-4056",
      "license_no": "07187921",
      "license_date": "2024-07-31",
      "expire_date": "2030-07-31"
    },
    {
      "name": "ひるがみ茶屋",
      "name_kana": "ヒルガミチャヤ",
      "business_type": "⑪ 菓子製造業",
      "address": "長野県下伊那郡阿智村智里３４６－２２",
      "lat": 35.455035,
      "lng": 137.715343,
      "geocoding_level": null,
      "phone": "0265-43-4056",
      "license_no": "07187938",
      "license_date": "2024-07-31",
      "expire_date": "2030-07-31"
    },
    {
      "name": "お宿　山翠",
      "name_kana": "オヤド　サンスイ",
      "business_type": "① 飲食店営業",
      "address": "長野県下伊那郡阿智村智里２９０－１",
      "lat": 35.454057,
      "lng": 137.717494,
      "geocoding_level": null,
      "phone": "0265-43-2811",
      "license_no": "07158211",
      "license_date": "2024-07-31",
      "expire_date": "2030-07-31"
    },
    {
      "name": "湯元ホテル阿智川",
      "name_kana": "ユモトホテルアチガワ",
      "business_type": "① 飲食店営業",
      "address": "長野県下伊那郡阿智村智里５０３－１１５",
      "lat": 35.461418,
      "lng": 137.709108,
      "geocoding_level": null,
      "phone": "0265-43-2800",
      "license_no": "07165863",
      "license_date": "2024-07-31",
      "expire_date": "2029-07-31"
    },
    {
      "name": "有限会社　あちの里",
      "name_kana": "ユウゲンガイシャ　アチノサト",
      "business_type": "① 飲食店営業",
      "address": "長野県下伊那郡阿智村伍和５５７１－１",
      "lat": 35.422566,
      "lng": 137.75247,
      "geocoding_level": null,
      "phone": "0265-43-3730",
      "license_no": "07183046",
      "license_date": "2024-07-31",
      "expire_date": "2029-07-31"
    },
    {
      "name": "レストラン　まなーま",
      "name_kana": "レストラン　マナーマ",
      "business_type": "① 飲食店営業",
      "address": "長野県下伊那郡阿智村春日２２６５－４",
      "lat": 35.452678,
      "lng": 137.750764,
      "geocoding_level": null,
      "phone": "0265-43-4509",
      "license_no": "07200741",
      "license_date": "2024-07-31",
      "expire_date": "2029-07-31"
    },
    {
      "name": "レストランまなーま",
      "name_kana": "レストラン　マナーマ",
      "business_type": "① 飲食店営業",
      "address": "長野県下伊那郡阿智村智里西　花もも祭会場",
      "lat": 35.443849,
      "lng": 137.661917,
      "geocoding_level": null,
      "phone": "000000000000",
      "license_no": "07218732",
      "license_date": "2024-07-31",
      "expire_date": "2029-07-31"
    },
    {
      "name": "料理旅館　むらさわ",
      "name_kana": "リョウリリョカン　ムラサワ",
      "business_type": "① 飲食店営業",
      "address": "長野県下伊那郡阿智村智里２６０－１",
      "lat": 35.455382,
      "lng": 137.716561,
      "geocoding_level": null,
      "phone": "0265-43-3883",
      "license_no": "07165490",
      "license_date": "2024-07-31",
      "expire_date": "2029-07-31"
    },
    {
      "name": "清内路郷土食の会",
      "name_kana": "セイナイジキョウドショクノカイ",
      "business_type": "① 飲食店営業",
      "address": "長野県下伊那郡阿智村清内路３９５番地２",
      "lat": 35.487931,
      "lng": 137.701564,
      "geocoding_level": null,
      "phone": "090-2318-4617",
      "license_no": "07210995",
      "license_date": "2024-07-31",
      "expire_date": "2030-07-31"
    },
    {
      "name": "野熊の庄　月川",
      "name_kana": "ノグマノショウ　ゲッセン",
      "business_type": "① 飲食店営業",
      "address": "長野県下伊那郡阿智村智里４０９２－７",
      "lat": 35.445086,
      "lng": 137.662705,
      "geocoding_level": null,
      "phone": "0265-44-2321",
      "license_no": "07234479",
      "license_date": "2024-07-31",
      "expire_date": "2029-07-31"
    },
    {
      "name": "野熊の庄　月川",
      "name_kana": "ノグマノショウ　ゲッセン",
      "business_type": "① 飲食店営業",
      "address": "長野県下伊那郡阿智村智里４０９２－７",
      "lat": 35.445086,
      "lng": 137.662705,
      "geocoding_level": null,
      "phone": "0265442321",
      "license_no": "07234461",
      "license_date": "2025-07-31",
      "expire_date": "2031-07-31"
    },
    {
      "name": "一般財団法人阿智開発公社　湯ったり－な　昼神",
      "name_kana": "イッパンザイダンホウジンアチカイハツコウシャ　ユッタリーナ　ヒルガミ",
      "business_type": "① 飲食店営業",
      "address": "長野県下伊那郡阿智村智里３７０－１",
      "lat": 35.456066,
      "lng": 137.715476,
      "geocoding_level": null,
      "phone": "0265434311",
      "license_no": "07172046",
      "license_date": "2025-07-31",
      "expire_date": "2031-07-31"
    },
    {
      "name": "やま星",
      "name_kana": "ヤマボシ",
      "business_type": "① 飲食店営業",
      "address": "長野県下伊那郡阿智村駒場２００７－４",
      "lat": 35.446264,
      "lng": 137.733779,
      "geocoding_level": null,
      "phone": "0265-49-8098",
      "license_no": "07241185",
      "license_date": "2022-05-24",
      "expire_date": "2028-07-31"
    },
    {
      "name": "株式会社Ｂｒａｎｄｓ",
      "name_kana": "カブシキガイシャブランツ",
      "business_type": "① 飲食店営業",
      "address": "長野県下伊那郡阿智村駒場６２０－１",
      "lat": 35.443084,
      "lng": 137.750089,
      "geocoding_level": null,
      "phone": "0265-49-8734",
      "license_no": "07247708",
      "license_date": "2024-10-02",
      "expire_date": "2029-10-31"
    },
    {
      "name": "昼神温泉ひるがみの森",
      "name_kana": "ヒルガミオンセンヒルガミノモリ",
      "business_type": "⑪ 菓子製造業",
      "address": "長野県下伊那郡阿智村智里５６７－１０",
      "lat": 35.452549,
      "lng": 137.718244,
      "geocoding_level": null,
      "phone": "0265-43-4321",
      "license_no": "07247882",
      "license_date": "2024-10-16",
      "expire_date": "2031-07-31"
    },
    {
      "name": "ふくまるくん事務局",
      "name_kana": "フクマルクンジムキョク",
      "business_type": "⑦ 野菜果物販売業",
      "address": "長野県下伊那郡阿智村駒場４２６",
      "lat": 35.44726,
      "lng": 137.748952,
      "geocoding_level": null,
      "phone": "",
      "license_no": "",
      "license_date": null,
      "expire_date": null
    },
    {
      "name": "ふくまるくん事務局",
      "name_kana": "フクマルクンジムキョク",
      "business_type": "⑦ 野菜果物販売業",
      "address": "長野県下伊那郡阿智村駒場426",
      "lat": 35.44726,
      "lng": 137.748952,
      "geocoding_level": null,
      "phone": "0265-43-3376",
      "license_no": "",
      "license_date": null,
      "expire_date": null
    },
    {
      "name": "ふくまるくん事務局",
      "name_kana": "フクマルクンジムキョク",
      "business_type": "⑬ その他の食料・飲料販売業",
      "address": "長野県下伊那郡阿智村駒場426",
      "lat": 35.44726,
      "lng": 137.748952,
      "geocoding_level": null,
      "phone": "0265-43-3376",
      "license_no": "",
      "license_date": null,
      "expire_date": null
    },
    {
      "name": "四季の織 はなや",
      "name_kana": "シキノオリ　ハナヤ",
      "business_type": "① 飲食店営業",
      "address": "長野県下伊那郡阿智村智里５３０―１",
      "lat": 35.453782,
      "lng": 137.711032,
      "geocoding_level": null,
      "phone": "0265432700",
      "license_no": "07125922",
      "license_date": "2025-07-31",
      "expire_date": "2031-07-31"
    },
    {
      "name": "やごころＳａｋｅ Ｂａｒ地酒の館",
      "name_kana": "ヤゴコロサケバージザケノヤカタ",
      "business_type": "① 飲食店営業",
      "address": "長野県下伊那郡阿智村智里３１５－３",
      "lat": 35.453893,
      "lng": 137.716968,
      "geocoding_level": null,
      "phone": "",
      "license_no": "07251561",
      "license_date": "2026-04-08",
      "expire_date": "2031-07-31"
    },
    {
      "name": "コトノカ　ｈｅｒｂａｌ　ｗｏｒｋｓ",
      "name_kana": "コトノカ　ハーバル　ワークス",
      "business_type": "㉑ 製茶業",
      "address": "長野県下伊那郡阿智村浪合６７０－１４中の瀬団地７－１",
      "lat": 35.38161,
      "lng": 137.694751,
      "geocoding_level": null,
      "phone": "",
      "license_no": "",
      "license_date": null,
      "expire_date": null
    },
    {
      "name": "原　佳孝",
      "name_kana": "ハラ ヨシユキ",
      "business_type": "⑰ 農産保存食料品製造・加工業",
      "address": "長野県下伊那郡阿智村智里２９３４",
      "lat": 35.441315,
      "lng": 137.703659,
      "geocoding_level": null,
      "phone": "0265-43-2465",
      "license_no": "",
      "license_date": null,
      "expire_date": null
    },
    {
      "name": "くらら",
      "name_kana": "クララ",
      "business_type": "① 飲食店営業",
      "address": "長野県下伊那郡阿智村浪合１１９２－８７３",
      "lat": 35.35804,
      "lng": 137.671661,
      "geocoding_level": null,
      "phone": "0265-47-2025",
      "license_no": "07249723",
      "license_date": "2025-08-06",
      "expire_date": "2031-08-31"
    },
    {
      "name": "治部坂くらら",
      "name_kana": "ジブザカクララ",
      "business_type": "③ 食肉販売業",
      "address": "長野県下伊那郡阿智村浪合１１０２－８７３",
      "lat": 35.38161,
      "lng": 137.694751,
      "geocoding_level": null,
      "phone": "0265-47-2025",
      "license_no": "07250177",
      "license_date": "2025-09-26",
      "expire_date": "2032-08-31"
    },
    {
      "name": "農事組合法人きくいもの郷",
      "name_kana": "ノウジクミアイホウジンキクイモノサト",
      "business_type": "⑳ 精穀・製粉業",
      "address": "長野県下伊那郡阿智村浪合１４００",
      "lat": 35.371338,
      "lng": 137.701028,
      "geocoding_level": null,
      "phone": "",
      "license_no": "",
      "license_date": null,
      "expire_date": null
    },
    {
      "name": "あららぎカントリークラブレストラン",
      "name_kana": "アララギカントリークラブレストラン",
      "business_type": "① 飲食店営業",
      "address": "長野県下伊那郡阿智村浪合恩田１５３",
      "lat": 35.38161,
      "lng": 137.694751,
      "geocoding_level": null,
      "phone": "0265472331",
      "license_no": "07233288",
      "license_date": "2025-07-31",
      "expire_date": "2031-07-31"
    },
    {
      "name": "うどんや　こいけ",
      "name_kana": "ウドンヤ　コイケ",
      "business_type": "① 飲食店営業",
      "address": "長野県下伊那郡阿智村駒場２４５－１２",
      "lat": 35.447801,
      "lng": 137.749559,
      "geocoding_level": null,
      "phone": "09093052212",
      "license_no": "07233612",
      "license_date": "2025-07-31",
      "expire_date": "2031-07-31"
    },
    {
      "name": "大坂屋",
      "name_kana": "オオサカヤ",
      "business_type": "① 飲食店営業",
      "address": "長野県下伊那郡阿智村駒場１１７９―２",
      "lat": 35.444506,
      "lng": 137.743117,
      "geocoding_level": null,
      "phone": "0265432059",
      "license_no": "07041206",
      "license_date": "2025-07-31",
      "expire_date": "2031-07-31"
    },
    {
      "name": "（株）湯元ホテル阿智川　万葉館",
      "name_kana": "カブシキガイシャユモトアチガワ　マンヨウカン",
      "business_type": "① 飲食店営業",
      "address": "長野県下伊那郡阿智村智里５０３―１１５",
      "lat": 35.461418,
      "lng": 137.709108,
      "geocoding_level": null,
      "phone": "0265432800",
      "license_no": "07125438",
      "license_date": "2025-07-31",
      "expire_date": "2031-07-31"
    },
    {
      "name": "湯元ホテル阿智川",
      "name_kana": "ユモトホテルアチガワ",
      "business_type": "① 飲食店営業",
      "address": "長野県下伊那郡阿智村智里５０３－１１５",
      "lat": 35.461418,
      "lng": 137.709108,
      "geocoding_level": null,
      "phone": "0265432800",
      "license_no": "07162671",
      "license_date": "2025-07-31",
      "expire_date": "2031-07-31"
    },
    {
      "name": "阿智村ジビエ加工施設",
      "name_kana": "アチムラジビエカコウシセツ",
      "business_type": "⑨ 食肉処理業",
      "address": "長野県下伊那郡阿智村智里６２８－１",
      "lat": 35.454928,
      "lng": 137.65536,
      "geocoding_level": null,
      "phone": "",
      "license_no": "07250024",
      "license_date": "2025-09-05",
      "expire_date": "2032-07-31"
    },
    {
      "name": "和食処　舟よし",
      "name_kana": "ワショクドコロ　フナヨシ",
      "business_type": "① 飲食店営業",
      "address": "長野県下伊那郡阿智村春日２０５７―３",
      "lat": 35.45378,
      "lng": 137.751866,
      "geocoding_level": null,
      "phone": "0265433778",
      "license_no": "07128078",
      "license_date": "2025-07-31",
      "expire_date": "2031-07-31"
    },
    {
      "name": "スナック＆喫茶　まみあな",
      "name_kana": "スナックアンドキッサ　マミアナ",
      "business_type": "① 飲食店営業",
      "address": "長野県下伊那郡阿智村智里４０８",
      "lat": 35.457256,
      "lng": 137.71445,
      "geocoding_level": null,
      "phone": "0265433191",
      "license_no": "07103460",
      "license_date": "2025-07-31",
      "expire_date": "2030-07-31"
    },
    {
      "name": "南国飯店",
      "name_kana": "ナンゴクハンテン",
      "business_type": "① 飲食店営業",
      "address": "長野県下伊那郡阿智村駒場１５０２―２",
      "lat": 35.448367,
      "lng": 137.733011,
      "geocoding_level": null,
      "phone": "0265432283",
      "license_no": "07041471",
      "license_date": "2025-07-31",
      "expire_date": "2031-07-31"
    },
    {
      "name": "玄竹株式会社",
      "name_kana": "クロタケカブシキガイシャ",
      "business_type": "① 飲食店営業",
      "address": "長野県下伊那郡阿智村智里３３１番地８",
      "lat": 35.456755,
      "lng": 137.71375,
      "geocoding_level": null,
      "phone": "0265435111",
      "license_no": "07215106",
      "license_date": "2025-07-31",
      "expire_date": "2031-07-31"
    },
    {
      "name": "長田屋商店",
      "name_kana": "ナガタヤショウテン",
      "business_type": "㉒ 豆腐製造業",
      "address": "長野県下伊那郡阿智村清内路２４６０―３",
      "lat": 35.507963,
      "lng": 137.694751,
      "geocoding_level": null,
      "phone": "0265462255",
      "license_no": "07022880",
      "license_date": "2025-07-31",
      "expire_date": "2030-07-31"
    },
    {
      "name": "ナイトイン阿智川",
      "name_kana": "ナイトインアチガワ",
      "business_type": "① 飲食店営業",
      "address": "長野県下伊那郡阿智村智里５０３－１１５",
      "lat": 35.461418,
      "lng": 137.709108,
      "geocoding_level": null,
      "phone": "0265-43-4301",
      "license_no": "07133731",
      "license_date": "2025-07-31",
      "expire_date": "2030-07-31"
    },
    {
      "name": "古民家つぼや",
      "name_kana": "コミンカツボヤ",
      "business_type": "① 飲食店営業",
      "address": "長野県下伊那郡阿智村駒場１１５１",
      "lat": 35.444472,
      "lng": 137.740105,
      "geocoding_level": null,
      "phone": "0265480556",
      "license_no": "07250526",
      "license_date": "2025-11-12",
      "expire_date": "2032-07-31"
    },
    {
      "name": "ひなたばた",
      "name_kana": "ヒナタバタ",
      "business_type": "① 飲食店営業",
      "address": "長野県下伊那郡阿智村駒場７０３－１",
      "lat": 35.441333,
      "lng": 137.747698,
      "geocoding_level": null,
      "phone": "0265-43-5711",
      "license_no": "07250622",
      "license_date": "2025-11-26",
      "expire_date": "2032-07-31"
    }
  ]
}
