{
  "meta": {
    "updated": 1783568789,
    "sources": [
      {
        "source": "厚生労働省 食品衛生申請等システム（オープンデータ）",
        "license": "公共データ利用規約（第1.0版, PDL1.0）"
      }
    ]
  },
  "data": [
    {
      "name": "株式会社タイショーテクノス　富士小山事業所　第二工場",
      "name_kana": "カブシキガイシャタイショーテクノスフジオヤマジギョウショダイニコウジョウ",
      "business_type": "㉜ 添加物製造業",
      "address": "静岡県駿東郡小山町湯船１１５７－１６",
      "lat": 35.359345501,
      "lng": 138.964084344,
      "geocoding_level": 8,
      "phone": "0550-76-5771",
      "license_no": "S57200600231",
      "license_date": "2025-11-28",
      "expire_date": "2031-11-30"
    },
    {
      "name": "株式会社タイショーテクノス 富士小山事業所 バルク工場",
      "name_kana": "カブシキガイシャタイショーテクノスフジオヤマジギョウショバルクコウジョウ",
      "business_type": "㉜ 添加物製造業",
      "address": "静岡県駿東郡小山町湯船１１５７－１６",
      "lat": 35.359345501,
      "lng": 138.964084344,
      "geocoding_level": 8,
      "phone": "0550-76-5771",
      "license_no": "S57201800149",
      "license_date": "2025-11-28",
      "expire_date": "2031-11-30"
    },
    {
      "name": "丸善食品工業株式会社　富士小山工場",
      "name_kana": "マルゼンショクヒンコウギョウカブシキガイシャフジオヤマコウジョウ",
      "business_type": "⑭ 清涼飲料水製造業",
      "address": "静岡県駿東郡小山町菅沼８８４－１",
      "lat": 35.357287,
      "lng": 138.982085,
      "geocoding_level": null,
      "phone": "0550-76-8888",
      "license_no": "S57200400174",
      "license_date": "2023-10-27",
      "expire_date": "2029-11-30"
    },
    {
      "name": "信濃高原食品株式会社　富士小山工場",
      "name_kana": "シナノコウゲンショクヒンカブシキガイシャフジオヤマコウジョウ",
      "business_type": "㉑ 酒類製造業",
      "address": "静岡県駿東郡小山町小山1-1",
      "lat": 35.359937,
      "lng": 138.998956,
      "geocoding_level": null,
      "phone": "0550767888",
      "license_no": "S57202100051",
      "license_date": "2021-10-28",
      "expire_date": "2027-11-30"
    },
    {
      "name": "信濃高原食品株式会社　富士小山工場",
      "name_kana": "シナノコウゲンショクヒンカブシキガイシャフジオヤマコウジョウ",
      "business_type": "⑭ 清涼飲料水製造業",
      "address": "静岡県駿東郡小山町小山１－１",
      "lat": 35.359937,
      "lng": 138.998956,
      "geocoding_level": null,
      "phone": "0550-76-7888",
      "license_no": "S57201700175",
      "license_date": "2023-10-27",
      "expire_date": "2029-11-30"
    },
    {
      "name": "ファミリーマート　足柄ＳＡ下り",
      "name_kana": "ファミリーマート　アシガラサービスエリアクダリ",
      "business_type": "⑩ コンビニエンスストア",
      "address": "静岡県駿東郡小山町桑木５９５－５",
      "lat": 35.312894,
      "lng": 138.967068,
      "geocoding_level": null,
      "phone": "0550-70-0004",
      "license_no": "",
      "license_date": null,
      "expire_date": null
    },
    {
      "name": "ファミリーマート足柄SA下り店",
      "name_kana": "ファミリーマートアシガラサービスエリアクダリテン",
      "business_type": "① 飲食店営業",
      "address": "静岡県駿東郡小山町桑木595-5",
      "lat": 35.312894,
      "lng": 138.967068,
      "geocoding_level": null,
      "phone": "0550-70-0004",
      "license_no": "S57201000008",
      "license_date": "2021-11-19",
      "expire_date": "2026-11-30"
    },
    {
      "name": "足柄浪漫館　あしがら湯",
      "name_kana": "アシガラロマンカン　アシガラユ",
      "business_type": "③ 乳類販売業",
      "address": "静岡県駿東郡小山町桑木599",
      "lat": 35.31234,
      "lng": 138.967256,
      "geocoding_level": null,
      "phone": "",
      "license_no": "",
      "license_date": null,
      "expire_date": null
    },
    {
      "name": "スターバックスコーヒー足柄サービスエリア（下り線）店",
      "name_kana": "スターバックスコーヒーアシガラサービスエリアクダリセンテン",
      "business_type": "⑬ その他の食料・飲料販売業",
      "address": "静岡県駿東郡小山町桑木字南の原599 東名高速道路足柄サービスエリア（下り線）",
      "lat": 35.305884,
      "lng": 138.980898,
      "geocoding_level": 3,
      "phone": "0550-70-1117",
      "license_no": "",
      "license_date": null,
      "expire_date": null
    },
    {
      "name": "スターバックスコーヒー　足柄サービスエリア（下り線）店",
      "name_kana": "スターバックスコーヒーアシガラサービスエリアクダリセンテン",
      "business_type": "① 飲食店営業",
      "address": "静岡県駿東郡小山町桑木字南の原５９９",
      "lat": 35.305884,
      "lng": 138.980898,
      "geocoding_level": 3,
      "phone": "0550-70-1117",
      "license_no": "S57201000002",
      "license_date": "2021-11-19",
      "expire_date": "2026-11-30"
    },
    {
      "name": "マルショウ御殿場営業所",
      "name_kana": "マルショウゴテンバエイギョウショ",
      "business_type": "③ 食肉販売業",
      "address": "静岡県駿東郡小山町吉久保４１２－５",
      "lat": 35.343093092,
      "lng": 138.957430635,
      "geocoding_level": 8,
      "phone": "0550-76-5866",
      "license_no": "S57201800086",
      "license_date": "2024-11-29",
      "expire_date": "2030-11-30"
    },
    {
      "name": "静岡県立小山高校",
      "name_kana": "シズオカケンリツオヤマコオコウ",
      "business_type": "③ 乳類販売業",
      "address": "静岡県駿東郡小山町竹之下369",
      "lat": 35.328465,
      "lng": 138.974445,
      "geocoding_level": null,
      "phone": "",
      "license_no": "",
      "license_date": null,
      "expire_date": null
    },
    {
      "name": "(株）リンガーハット",
      "name_kana": "リンガーハット",
      "business_type": "⑤ コップ式自動販売機（自動洗浄・屋内設置）",
      "address": "静岡県駿東郡小山町棚頭224-5",
      "lat": 35.356957,
      "lng": 138.945869,
      "geocoding_level": null,
      "phone": "050-3132-1794",
      "license_no": "",
      "license_date": null,
      "expire_date": null
    },
    {
      "name": "(株）リンガーハット",
      "name_kana": "リンガーハット",
      "business_type": "⑤ コップ式自動販売機（自動洗浄・屋内設置）",
      "address": "静岡県駿東郡小山町棚頭224-5",
      "lat": 35.356957,
      "lng": 138.945869,
      "geocoding_level": null,
      "phone": "050-3132-1794",
      "license_no": "",
      "license_date": null,
      "expire_date": null
    },
    {
      "name": "富士国際ゴルフクラブ",
      "name_kana": "フジコクサイゴルフクラブ",
      "business_type": "⑤ コップ式自動販売機（自動洗浄・屋内設置）",
      "address": "静岡県駿東郡小山町用沢1442-23",
      "lat": 35.352984,
      "lng": 138.915147,
      "geocoding_level": null,
      "phone": "",
      "license_no": "",
      "license_date": null,
      "expire_date": null
    },
    {
      "name": "自動販売機",
      "name_kana": "ジドウハンバイキ",
      "business_type": "⑫ 自動販売機による販売業（コップ式自動販売機（自動洗浄・屋内設置）及び営業許可の対象となる自動販売機を除く）",
      "address": "静岡県駿東郡小山町菅沼834-6",
      "lat": 35.356771,
      "lng": 138.983889,
      "geocoding_level": null,
      "phone": "",
      "license_no": "",
      "license_date": null,
      "expire_date": null
    },
    {
      "name": "富士ヘルス",
      "name_kana": "フジヘルス",
      "business_type": "⑤ コップ式自動販売機（自動洗浄・屋内設置）",
      "address": "静岡県駿東郡小山町上野1492",
      "lat": 35.378435,
      "lng": 138.95528,
      "geocoding_level": null,
      "phone": "",
      "license_no": "",
      "license_date": null,
      "expire_date": null
    },
    {
      "name": "富士の杜ゴルフクラブ",
      "name_kana": "フジノモリゴルフクラブ",
      "business_type": "⑤ コップ式自動販売機（自動洗浄・屋内設置）",
      "address": "静岡県駿東郡小山町須走４９３",
      "lat": 35.364316,
      "lng": 138.882882,
      "geocoding_level": null,
      "phone": "",
      "license_no": "",
      "license_date": null,
      "expire_date": null
    },
    {
      "name": "アルテミラ製缶株式会社　富士小山工場",
      "name_kana": "アルテミラセイカンカブシキガイシャ　フジオヤマコウジョウ",
      "business_type": "㉗ 器具、容器包装の製造・加工業（合成樹脂が使用された器具又は容器包装の製造、加工に限る。）",
      "address": "静岡県駿東郡小山町菅沼１５００",
      "lat": 35.349469,
      "lng": 138.968837,
      "geocoding_level": null,
      "phone": "0550763211",
      "license_no": "",
      "license_date": null,
      "expire_date": null
    },
    {
      "name": "共栄火災研修会館",
      "name_kana": "キョウエイカサイケンシュウカイカン",
      "business_type": "⑫ 自動販売機による販売業（コップ式自動販売機（自動洗浄・屋内設置）及び営業許可の対象となる自動販売機を除く）",
      "address": "静岡県駿東郡小山町一色2065-63",
      "lat": 35.348041,
      "lng": 138.908406,
      "geocoding_level": null,
      "phone": "0550-78-1470",
      "license_no": "",
      "license_date": null,
      "expire_date": null
    },
    {
      "name": "崎陽軒　EXPASA足柄下り店",
      "name_kana": "キヨウケン エクスパーサ アシガラクダリテン",
      "business_type": "⑥ 弁当販売業",
      "address": "静岡県駿東郡小山町桑木599 東名高速道路 下り線 EXPASA足柄内",
      "lat": 35.31234,
      "lng": 138.967256,
      "geocoding_level": null,
      "phone": "0550838885",
      "license_no": "",
      "license_date": null,
      "expire_date": null
    },
    {
      "name": "崎陽軒　ＥＸＰＡＳＡ足柄下り店",
      "name_kana": "キヨウケンエクスパーサ　アシガラクダリテン",
      "business_type": "① 飲食店営業",
      "address": "静岡県駿東郡小山町桑木５９９",
      "lat": 35.305884,
      "lng": 138.980898,
      "geocoding_level": 3,
      "phone": "0550-83-8885",
      "license_no": "S57201400224",
      "license_date": "2025-11-28",
      "expire_date": "2030-11-30"
    },
    {
      "name": "マックスバリュエクスプレス小山町店",
      "name_kana": "マックスバリュエクスプレスオヤマチョウテン",
      "business_type": "⑪ 百貨店、総合スーパー",
      "address": "静岡県駿東郡小山町小山101-2",
      "lat": 35.360312,
      "lng": 138.988697,
      "geocoding_level": null,
      "phone": "0550-70-3020",
      "license_no": "",
      "license_date": null,
      "expire_date": null
    },
    {
      "name": "マックスバリュエクスプレス小山須走店",
      "name_kana": "マックスバリュエクスプレスオヤマスバシリテン",
      "business_type": "① 飲食店営業",
      "address": "静岡県駿東郡小山町須走244-3",
      "lat": 35.361687,
      "lng": 138.867787,
      "geocoding_level": null,
      "phone": "0550-75-3770",
      "license_no": "S57202300066",
      "license_date": "2023-07-14",
      "expire_date": "2029-11-30"
    },
    {
      "name": "マックスバリュエクスプレス小山須走店",
      "name_kana": "マックスバリュエクスプレスオヤマスバシリテン",
      "business_type": "⑪ 菓子製造業",
      "address": "静岡県駿東郡小山町須走244-3",
      "lat": 35.361687,
      "lng": 138.867787,
      "geocoding_level": null,
      "phone": "0550-75-3770",
      "license_no": "S57202300067",
      "license_date": "2023-07-14",
      "expire_date": "2029-11-30"
    },
    {
      "name": "マックスバリュエクスプレス小山須走店",
      "name_kana": "マックスバリュエクスプレスオヤマスバシリテン",
      "business_type": "⑪ 百貨店、総合スーパー",
      "address": "静岡県駿東郡小山町須走244-3",
      "lat": 35.361687,
      "lng": 138.867787,
      "geocoding_level": null,
      "phone": "0550-75-3770",
      "license_no": "",
      "license_date": null,
      "expire_date": null
    },
    {
      "name": "足柄麺処（下り線店）",
      "name_kana": "アシガラメンドコロクダリセンテン",
      "business_type": "① 飲食店営業",
      "address": "静岡県駿東郡小山町桑木字南ノ原５９９ 東名高速道路足柄サービスエリア下り線",
      "lat": 35.305884,
      "lng": 138.980898,
      "geocoding_level": 3,
      "phone": "0550-70-0818",
      "license_no": "S57201900151",
      "license_date": "2025-11-28",
      "expire_date": "2030-11-30"
    },
    {
      "name": "BUNNY",
      "name_kana": "バニー",
      "business_type": "① 飲食店営業",
      "address": "静岡県駿東郡小山町中日向694",
      "lat": 35.372679,
      "lng": 138.930161,
      "geocoding_level": null,
      "phone": "08066305743",
      "license_no": "S57202300265",
      "license_date": "2024-03-05",
      "expire_date": "2029-11-30"
    },
    {
      "name": "ケータリング43 号",
      "name_kana": "ケータリングヨンジュウサンゴウ",
      "business_type": "① 飲食店営業",
      "address": "静岡県駿東郡小山町中日向694",
      "lat": 35.372679,
      "lng": 138.930161,
      "geocoding_level": null,
      "phone": "",
      "license_no": "S57202400184",
      "license_date": "2024-11-13",
      "expire_date": "2029-11-30"
    },
    {
      "name": "小山売店",
      "name_kana": "オヤマバイテン",
      "business_type": "① 飲食店営業",
      "address": "静岡県駿東郡小山町上野1024-1",
      "lat": 35.394011,
      "lng": 138.945475,
      "geocoding_level": null,
      "phone": "",
      "license_no": "S57202100018",
      "license_date": "2021-08-10",
      "expire_date": "2026-11-30"
    },
    {
      "name": "有限会社押尾精肉店",
      "name_kana": "ユウゲンガイシャオシオセイニクテン",
      "business_type": "① 飲食店営業",
      "address": "静岡県駿東郡小山町藤曲",
      "lat": 35.361127,
      "lng": 138.979504,
      "geocoding_level": null,
      "phone": "0550-76-0102",
      "license_no": "S57202100072",
      "license_date": "2021-12-02",
      "expire_date": "2027-11-30"
    },
    {
      "name": "有限会社押尾精肉店",
      "name_kana": "ユウゲンガイシャオシオセイニクテン",
      "business_type": "⑯ コーヒー製造・加工業（飲料の製造を除く。）",
      "address": "静岡県駿東郡小山町藤曲54-21",
      "lat": 35.360502,
      "lng": 138.987601,
      "geocoding_level": null,
      "phone": "0550-76-0102",
      "license_no": "",
      "license_date": null,
      "expire_date": null
    },
    {
      "name": "LEMONADEbyLemonica",
      "name_kana": "レモネードバイレモニカ",
      "business_type": "① 飲食店営業",
      "address": "静岡県駿東郡小山町中日向694 富士スピードウェイ",
      "lat": 35.368274,
      "lng": 138.938251,
      "geocoding_level": null,
      "phone": "",
      "license_no": "S57202200129",
      "license_date": "2022-09-06",
      "expire_date": "2027-11-30"
    },
    {
      "name": "株式会社やまみ富士山麓工場",
      "name_kana": "カブシキガイシャヤマミフジサンロクコウジョウ",
      "business_type": "㉒ 豆腐製造業",
      "address": "静岡県駿東郡小山町湯船字下原９５９－１６",
      "lat": 35.380072,
      "lng": 138.965778,
      "geocoding_level": 3,
      "phone": "0550-88-8032",
      "license_no": "S57201900121",
      "license_date": "2025-11-28",
      "expire_date": "2030-11-30"
    },
    {
      "name": "ジャパンフード株式会社 岳南建設内食堂",
      "name_kana": "ジャパンフードカブシキガイシャ ガクナンケンセツナイショクドウ",
      "business_type": "① 飲食店営業",
      "address": "静岡県駿東郡小山町湯船1277-1404",
      "lat": 35.371676,
      "lng": 138.958825,
      "geocoding_level": null,
      "phone": "",
      "license_no": "S57202200206",
      "license_date": "2023-03-27",
      "expire_date": "2028-11-30"
    },
    {
      "name": "M.a.n.　静岡県",
      "name_kana": "マアン",
      "business_type": "① 飲食店営業",
      "address": "静岡県駿東郡小山町中日向694",
      "lat": 35.368274,
      "lng": 138.938251,
      "geocoding_level": null,
      "phone": "",
      "license_no": "S57202200085",
      "license_date": "2022-07-26",
      "expire_date": "2027-11-30"
    },
    {
      "name": "株式会社リンガーハット",
      "name_kana": "カブシキガイシャリンガーハット",
      "business_type": "㉛ 食品の小分け業",
      "address": "静岡県駿東郡小山町棚頭224-5",
      "lat": 35.356936,
      "lng": 138.945866,
      "geocoding_level": null,
      "phone": "0550-78-1351",
      "license_no": "S57202100050",
      "license_date": "2021-10-20",
      "expire_date": "2026-11-30"
    },
    {
      "name": "株式会社リンガーハット富士小山工場",
      "name_kana": "リンガーハットフジオヤマコウジョウ",
      "business_type": "㉖ 複合型そうざい製造業",
      "address": "静岡県駿東郡小山町棚頭字高天秤２２４－５",
      "lat": 35.36011,
      "lng": 138.987328,
      "geocoding_level": null,
      "phone": "0550-78-1351",
      "license_no": "S57200300029",
      "license_date": "2021-11-09",
      "expire_date": "2026-11-30"
    },
    {
      "name": "株式会社リンガーハット富士小山工場",
      "name_kana": "リンガーハットフジオヤマコウジョウ",
      "business_type": "⑰ 農産保存食料品製造・加工業",
      "address": "静岡県駿東郡小山町棚頭字高天秤２２４－５",
      "lat": 35.36011,
      "lng": 138.987328,
      "geocoding_level": null,
      "phone": "0550-78-1351",
      "license_no": "",
      "license_date": null,
      "expire_date": null
    },
    {
      "name": "㈱リンガーハット　富士小山工場第3倉庫",
      "name_kana": "カブシキガイシャリンガーハットフジオヤマコウジョウダイサンソウコ",
      "business_type": "⑬ その他の食料・飲料販売業",
      "address": "静岡県駿東郡小山町棚頭254-1",
      "lat": 35.357738,
      "lng": 138.944294,
      "geocoding_level": null,
      "phone": "",
      "license_no": "",
      "license_date": null,
      "expire_date": null
    },
    {
      "name": "㈱リンガーハット　富士小山第２工場（揚げかまぼこ）",
      "name_kana": "リンガーハット　フジオヤマダイニコウジョウアゲカマボコ",
      "business_type": "⑯ 水産製品製造業",
      "address": "静岡県駿東郡小山町棚頭２２４－１２",
      "lat": 35.357239,
      "lng": 138.94517,
      "geocoding_level": null,
      "phone": "0550-78-1351",
      "license_no": "S57201100115",
      "license_date": "2023-11-21",
      "expire_date": "2029-11-30"
    },
    {
      "name": "㈱リンガーハット　富士小山第２工場",
      "name_kana": "カブリンガーハットフジオヤマダイニコウジョウ",
      "business_type": "㉖ 複合型そうざい製造業",
      "address": "静岡県駿東郡小山町棚頭224-12",
      "lat": 35.357239,
      "lng": 138.94517,
      "geocoding_level": null,
      "phone": "0550-78-1351",
      "license_no": "S57201100113",
      "license_date": "2023-11-21",
      "expire_date": "2029-11-30"
    },
    {
      "name": "㈱リンガーハット　富士小山第２工場",
      "name_kana": "カブリンガーハットフジオヤマダイニコウジョウ",
      "business_type": "⑰ 農産保存食料品製造・加工業",
      "address": "静岡県駿東郡小山町棚頭２２４－１２",
      "lat": 35.357239,
      "lng": 138.94517,
      "geocoding_level": null,
      "phone": "0550-78-1351",
      "license_no": "",
      "license_date": null,
      "expire_date": null
    },
    {
      "name": "株式会社リンガーハット　富士小山工場",
      "name_kana": "カブシキガイシャリンガーハット　フジオヤマコウジョウ",
      "business_type": "⑲ 食用油脂製造業",
      "address": "静岡県駿東郡小山町棚頭224-5",
      "lat": 35.356936,
      "lng": 138.945866,
      "geocoding_level": null,
      "phone": "0550-78-1351",
      "license_no": "S57202400017",
      "license_date": "2024-05-10",
      "expire_date": "2030-11-30"
    },
    {
      "name": "株式会社リンガーハット　富士小山工場",
      "name_kana": "カブシキガイシャリンガーハット　フジオヤマコウジョウ",
      "business_type": "㉚ 密封包装食品製造業",
      "address": "静岡県駿東郡小山町棚頭224-5",
      "lat": 35.356936,
      "lng": 138.945866,
      "geocoding_level": null,
      "phone": "0550-78-1351",
      "license_no": "S57202400018",
      "license_date": "2024-05-10",
      "expire_date": "2030-11-30"
    },
    {
      "name": "（株）リンガーハット移動販売車３号",
      "name_kana": "カブシキガイシャリンガーハットイドウハンバイシャサンゴウ",
      "business_type": "① 飲食店営業",
      "address": "静岡県駿東郡小山町棚頭２２４－５",
      "lat": 35.356936,
      "lng": 138.945866,
      "geocoding_level": null,
      "phone": "",
      "license_no": "S57202000103",
      "license_date": "2025-11-28",
      "expire_date": "2030-11-30"
    },
    {
      "name": "株式会社リンガーハット富士小山工場",
      "name_kana": "リンガーハットフジオヤマコウジョウ",
      "business_type": "⑯ 水産製品製造業",
      "address": "静岡県駿東郡小山町棚頭２２４－５",
      "lat": 35.356936,
      "lng": 138.945866,
      "geocoding_level": null,
      "phone": "0550-78-1351",
      "license_no": "S00544080212",
      "license_date": "2025-11-28",
      "expire_date": "2030-11-30"
    },
    {
      "name": "カフェPAZL",
      "name_kana": "カフェパズル",
      "business_type": "⑪ 菓子製造業",
      "address": "静岡県駿東郡小山町須走495-222",
      "lat": 35.358813,
      "lng": 138.880564,
      "geocoding_level": null,
      "phone": "",
      "license_no": "S57202100081",
      "license_date": "2022-01-19",
      "expire_date": "2028-11-30"
    },
    {
      "name": "十八番や",
      "name_kana": "オハコヤ",
      "business_type": "① 飲食店営業",
      "address": "静岡県駿東郡小山町中日向６９４",
      "lat": 35.379784,
      "lng": 138.930459,
      "geocoding_level": 3,
      "phone": "090-3583-5249",
      "license_no": "S57202000018",
      "license_date": "2025-11-28",
      "expire_date": "2030-11-30"
    },
    {
      "name": "Cafe PAZL",
      "name_kana": "カフェパズル",
      "business_type": "① 飲食店営業",
      "address": "静岡県駿東郡小山町須走495-222",
      "lat": 35.349159,
      "lng": 138.884992,
      "geocoding_level": null,
      "phone": "0550-75-0550",
      "license_no": "S57202300113",
      "license_date": "2023-09-20",
      "expire_date": "2028-11-30"
    },
    {
      "name": "Cafe PAZL",
      "name_kana": "カフェ　パズル",
      "business_type": "① 飲食店営業",
      "address": "静岡県駿東郡小山町大御神627 ウェルカムセンター２階",
      "lat": 35.377427,
      "lng": 138.905172,
      "geocoding_level": null,
      "phone": "",
      "license_no": "S57202400172",
      "license_date": "2024-11-14",
      "expire_date": "2030-11-30"
    },
    {
      "name": "Cａｆｅ ＰＡＺＬ",
      "name_kana": "カフェパズル",
      "business_type": "① 飲食店営業",
      "address": "静岡県駿東郡小山町須走県保健所管内一円",
      "lat": 35.361005,
      "lng": 138.870783,
      "geocoding_level": null,
      "phone": "",
      "license_no": "S57200900154",
      "license_date": "2024-11-29",
      "expire_date": "2029-11-30"
    },
    {
      "name": "Ｃａｆｅ　ＰＡＺＬ",
      "name_kana": "カフェパズル",
      "business_type": "① 飲食店営業",
      "address": "静岡県駿東郡小山町阿多野１３０ （小山町総合文化会館内）",
      "lat": 35.349429,
      "lng": 138.958155,
      "geocoding_level": null,
      "phone": "0550-76-5700",
      "license_no": "S57201900099",
      "license_date": "2024-11-29",
      "expire_date": "2029-11-30"
    },
    {
      "name": "富士小山病院",
      "name_kana": "フジオヤマビョウイン",
      "business_type": "① 飲食店営業",
      "address": "静岡県駿東郡小山町用沢４３７－１",
      "lat": 35.349688839,
      "lng": 138.945396119,
      "geocoding_level": 8,
      "phone": "0550-78-1305",
      "license_no": "S00544110120",
      "license_date": "2024-11-29",
      "expire_date": "2030-11-30"
    },
    {
      "name": "food　market　POTATO　小山店",
      "name_kana": "フードマーケット　ポテト　オヤマテン",
      "business_type": "⑪ 百貨店、総合スーパー",
      "address": "静岡県駿東郡小山町菅沼515-6",
      "lat": 35.352105,
      "lng": 138.975817,
      "geocoding_level": null,
      "phone": "0550-76-1000",
      "license_no": "",
      "license_date": null,
      "expire_date": null
    },
    {
      "name": "日立ハイテクサイエンス食堂（喫茶店）",
      "name_kana": "ヒタチハイテクサイエンスキッサテンショクドウ　キッサテン",
      "business_type": "① 飲食店営業",
      "address": "静岡県駿東郡小山町竹之下３６－１",
      "lat": 35.325447,
      "lng": 138.976479,
      "geocoding_level": null,
      "phone": "",
      "license_no": "S57201500038",
      "license_date": "2021-11-19",
      "expire_date": "2027-11-30"
    },
    {
      "name": "日立ハイテクサイエンス食堂",
      "name_kana": "ヒタチハイテクサイエンスショクドウ",
      "business_type": "① 飲食店営業",
      "address": "静岡県駿東郡小山町竹之下３６－１",
      "lat": 35.32586,
      "lng": 138.973733,
      "geocoding_level": null,
      "phone": "",
      "license_no": "S57201500037",
      "license_date": "2021-11-19",
      "expire_date": "2027-11-30"
    },
    {
      "name": "駿東郡小山町③　20221210",
      "name_kana": "スントウグンオヤマチョウ",
      "business_type": "① 飲食店営業",
      "address": "静岡県駿東郡小山町一色2065ｰ56",
      "lat": 35.348907,
      "lng": 138.904638,
      "geocoding_level": null,
      "phone": "",
      "license_no": "S57202200170",
      "license_date": "2022-12-05",
      "expire_date": "2029-11-30"
    },
    {
      "name": "アイリスオーヤマ株式会社　（富士小山工場）",
      "name_kana": "アイリスオーヤマカブシキガイシャフジオヤマコウジョウ",
      "business_type": "① 飲食店営業",
      "address": "静岡県駿東郡小山町桑木２２１－１",
      "lat": 35.32392728,
      "lng": 138.971562371,
      "geocoding_level": 8,
      "phone": "0550-76-4000",
      "license_no": "S57200600022",
      "license_date": "2023-10-27",
      "expire_date": "2029-11-30"
    },
    {
      "name": "（株）学究社　富士山合宿所１号館内食堂",
      "name_kana": "カブシキガイシャガッキュウシャフジサンガッシュクジョイチゴウカンナイショクドウ",
      "business_type": "① 飲食店営業",
      "address": "静岡県駿東郡小山町須走３９７",
      "lat": 35.361576,
      "lng": 138.809419,
      "geocoding_level": 3,
      "phone": "",
      "license_no": "S57201900184",
      "license_date": "2025-11-28",
      "expire_date": "2031-11-30"
    },
    {
      "name": "フィットセントラルキッチン",
      "name_kana": "フィットセントラルキッチン",
      "business_type": "㉕ そうざい製造業",
      "address": "静岡県駿東郡小山町一色97-1",
      "lat": 35.340538,
      "lng": 138.949506,
      "geocoding_level": null,
      "phone": "",
      "license_no": "S57202100046",
      "license_date": "2021-10-27",
      "expire_date": "2027-11-30"
    },
    {
      "name": "フィットセントラルキッチン",
      "name_kana": "フィットセントラルキッチン",
      "business_type": "① 飲食店営業",
      "address": "静岡県駿東郡小山町一色県保健所管内一円",
      "lat": 35.345204,
      "lng": 138.924061,
      "geocoding_level": null,
      "phone": "0550-76-0574",
      "license_no": "S57201800014",
      "license_date": "2023-10-17",
      "expire_date": "2028-11-30"
    },
    {
      "name": "フィットセントラルキッチン",
      "name_kana": "フィットセントラルキッチン",
      "business_type": "㉚ 密封包装食品製造業",
      "address": "静岡県駿東郡小山町一色97-1",
      "lat": 35.340538,
      "lng": 138.949506,
      "geocoding_level": null,
      "phone": "",
      "license_no": "S57202400120",
      "license_date": "2024-09-12",
      "expire_date": "2030-11-30"
    },
    {
      "name": "フィットセントラルキッチン",
      "name_kana": "フィットセントラルキッチン",
      "business_type": "③ 食肉販売業",
      "address": "静岡県駿東郡小山町一色９７－１",
      "lat": 35.340655114,
      "lng": 138.949445312,
      "geocoding_level": 8,
      "phone": "0550-76-0574",
      "license_no": "S57201900062",
      "license_date": "2025-11-28",
      "expire_date": "2031-11-30"
    },
    {
      "name": "フィットセントラルキッチン",
      "name_kana": "フィットセントラルキッチン",
      "business_type": "⑨ 食肉処理業",
      "address": "静岡県駿東郡小山町一色９７－１",
      "lat": 35.340655114,
      "lng": 138.949445312,
      "geocoding_level": 8,
      "phone": "0550-76-0574",
      "license_no": "S57201900068",
      "license_date": "2025-11-28",
      "expire_date": "2031-11-30"
    },
    {
      "name": "とんかつ新宿さぼてん　足柄ＳＡ下り線店",
      "name_kana": "トンカツシンジュクサボテンアシガラサービスエリアクダリセンテン",
      "business_type": "① 飲食店営業",
      "address": "静岡県駿東郡小山町桑木字南の原５９９　足柄ＳＡ下り線",
      "lat": 35.313361,
      "lng": 138.967081,
      "geocoding_level": null,
      "phone": "0550-82-3226",
      "license_no": "S57201800047",
      "license_date": "2023-10-27",
      "expire_date": "2029-11-30"
    },
    {
      "name": "駿東学園",
      "name_kana": "スントウガクエン",
      "business_type": "① 飲食店営業",
      "address": "静岡県駿東郡小山町吉久保県保健所管内一円",
      "lat": 35.343514,
      "lng": 138.963946,
      "geocoding_level": 3,
      "phone": "0550-76-3808",
      "license_no": "S57201000123",
      "license_date": "2025-11-28",
      "expire_date": "2030-11-30"
    },
    {
      "name": "かつ榮　小山茶寮",
      "name_kana": "カツエイオヤマサリョウ",
      "business_type": "① 飲食店営業",
      "address": "静岡県駿東郡小山町用沢４２０－４",
      "lat": 35.349233,
      "lng": 138.948491,
      "geocoding_level": null,
      "phone": "0550-78-3000",
      "license_no": "S57201600175",
      "license_date": "2022-11-25",
      "expire_date": "2027-11-30"
    },
    {
      "name": "ＦＵＪＩＹＡＭＡ　ＫＩＴＣＨＥＮ",
      "name_kana": "フジヤマキッチン",
      "business_type": "① 飲食店営業",
      "address": "静岡県駿東郡小山町用沢",
      "lat": 35.3529,
      "lng": 138.917764,
      "geocoding_level": null,
      "phone": "090-1266-3414",
      "license_no": "S57201100034",
      "license_date": "2021-11-08",
      "expire_date": "2026-11-30"
    },
    {
      "name": "みらいこども園",
      "name_kana": "ミライコドモエン",
      "business_type": "㉖ 集団給食施設",
      "address": "静岡県駿東郡小山町上野１０２４番地の５",
      "lat": 35.371588,
      "lng": 138.954331,
      "geocoding_level": null,
      "phone": "",
      "license_no": "",
      "license_date": null,
      "expire_date": null
    },
    {
      "name": "社会福祉法人寿康会　特別養護老人ホーム　徳風園",
      "name_kana": "シャカイフクシホウジンジュコウカイトクベツヨウゴロウジンホームトクフウエン",
      "business_type": "㉕ そうざい製造業",
      "address": "静岡県駿東郡小山町上野１４４０の１",
      "lat": 35.366456,
      "lng": 138.957249,
      "geocoding_level": null,
      "phone": "0550-76-3388",
      "license_no": "S57201700048",
      "license_date": "2022-11-25",
      "expire_date": "2028-11-30"
    },
    {
      "name": "菊屋",
      "name_kana": "キクヤ",
      "business_type": "③ 乳類販売業",
      "address": "静岡県駿東郡小山町須走字木ノ根坂国有林５００二小班",
      "lat": 35.361005,
      "lng": 138.870783,
      "geocoding_level": null,
      "phone": "090-8680-0686",
      "license_no": "",
      "license_date": null,
      "expire_date": null
    },
    {
      "name": "Ｂ－Ｒサーティワンアイスクリーム株式会社　富士小山工場",
      "name_kana": "ビーアールサーティワンアイスクリーム　フジオヤマコウジョウ",
      "business_type": "⑫ アイスクリーム類製造業",
      "address": "静岡県駿東郡小山町大御神９０７－３",
      "lat": 35.36085829300001,
      "lng": 138.919748989,
      "geocoding_level": 8,
      "phone": "0550-78-0346",
      "license_no": "S00543620114",
      "license_date": "2021-11-11",
      "expire_date": "2027-11-30"
    },
    {
      "name": "くまさんのカステラ",
      "name_kana": "クマサンノカステラ",
      "business_type": "① 飲食店営業",
      "address": "静岡県駿東郡小山町中日向",
      "lat": 35.381974,
      "lng": 138.932878,
      "geocoding_level": null,
      "phone": "090-3345-6074",
      "license_no": "S57200500280",
      "license_date": "2021-11-08",
      "expire_date": "2026-11-30"
    },
    {
      "name": "おおごだ荘",
      "name_kana": "オオゴダソウ",
      "business_type": "① 飲食店営業",
      "address": "静岡県駿東郡小山町字大胡田９５８番地１",
      "lat": 35.36011,
      "lng": 138.98729600000001,
      "geocoding_level": 2,
      "phone": "0550-76-5151",
      "license_no": "S00543630422",
      "license_date": "2021-11-19",
      "expire_date": "2026-11-30"
    },
    {
      "name": "小山健康福祉会館",
      "name_kana": "オヤマケンコウフクシカイカン",
      "business_type": "⑫ 自動販売機による販売業（コップ式自動販売機（自動洗浄・屋内設置）及び営業許可の対象となる自動販売機を除く）",
      "address": "静岡県駿東郡小山町小山７５−７",
      "lat": 35.360567,
      "lng": 138.99335,
      "geocoding_level": null,
      "phone": "0550-76-6666",
      "license_no": "",
      "license_date": null,
      "expire_date": null
    },
    {
      "name": "ケークサレ専門店dill",
      "name_kana": "ケークサレセンモンテンディル",
      "business_type": "① 飲食店営業",
      "address": "静岡県駿東郡小山町中日向県保健所管内一円",
      "lat": 35.381974,
      "lng": 138.932878,
      "geocoding_level": null,
      "phone": "070-5654-9894",
      "license_no": "S57202300105",
      "license_date": "2023-08-31",
      "expire_date": "2028-11-30"
    },
    {
      "name": "小見山食品",
      "name_kana": "コミヤマショクヒン",
      "business_type": "㉔ その他の食料品製造・加工業",
      "address": "静岡県駿東郡小山町桑木745",
      "lat": 35.31587,
      "lng": 138.978224,
      "geocoding_level": null,
      "phone": "0550762596",
      "license_no": "",
      "license_date": null,
      "expire_date": null
    },
    {
      "name": "よしのダイニング",
      "name_kana": "ヨシノダイニング",
      "business_type": "⑬ その他の食料・飲料販売業",
      "address": "静岡県駿東郡小山町一色97-1",
      "lat": 35.340538,
      "lng": 138.949506,
      "geocoding_level": null,
      "phone": "0550706671",
      "license_no": "",
      "license_date": null,
      "expire_date": null
    },
    {
      "name": "EXPASA足柄下り2号機",
      "name_kana": "エクスパーサアシガラクダリニゴウキ",
      "business_type": "⑤ コップ式自動販売機（自動洗浄・屋内設置）",
      "address": "静岡県駿東郡小山町桑木599",
      "lat": 35.31234,
      "lng": 138.967256,
      "geocoding_level": null,
      "phone": "",
      "license_no": "",
      "license_date": null,
      "expire_date": null
    },
    {
      "name": "道の駅ふじおやま　情報センター内",
      "name_kana": "ミチノエキフジオヤマ　ジョウホウセンターナイ",
      "business_type": "⑤ コップ式自動販売機（自動洗浄・屋内設置）",
      "address": "静岡県駿東郡小山町用沢７２番地の２",
      "lat": 35.344487,
      "lng": 138.95025,
      "geocoding_level": null,
      "phone": "",
      "license_no": "",
      "license_date": null,
      "expire_date": null
    },
    {
      "name": "杉山精肉店",
      "name_kana": "スギヤマセイニクテン",
      "business_type": "③ 食肉販売業",
      "address": "静岡県駿東郡小山町須走２１９",
      "lat": 35.361576,
      "lng": 138.809419,
      "geocoding_level": 3,
      "phone": "0550-75-2052",
      "license_no": "S00543500078",
      "license_date": "2021-11-08",
      "expire_date": "2026-11-30"
    },
    {
      "name": "東富士カントリークラブ",
      "name_kana": "ヒガシフジカントリークラブ",
      "business_type": "① 飲食店営業",
      "address": "静岡県駿東郡小山町大御神６０４－３",
      "lat": 35.374071,
      "lng": 138.923425,
      "geocoding_level": null,
      "phone": "0550-78-0121",
      "license_no": "S00543490027",
      "license_date": "2021-11-08",
      "expire_date": "2027-11-30"
    },
    {
      "name": "東富士カントリークラブコース売店６番",
      "name_kana": "ヒガシフジカントリークラブコースバイテンロクバン",
      "business_type": "① 飲食店営業",
      "address": "静岡県駿東郡小山町大御神６４５－１",
      "lat": 35.366355,
      "lng": 138.917986,
      "geocoding_level": null,
      "phone": "0550-78-0121",
      "license_no": "S00544010810",
      "license_date": "2021-11-08",
      "expire_date": "2026-11-30"
    },
    {
      "name": "東富士カントリークラブコース売店６番",
      "name_kana": "ヒガシフジカントリークラブコースバイテンロクバン",
      "business_type": "⑬ その他の食料・飲料販売業",
      "address": "静岡県駿東郡小山町大御神６４５－１",
      "lat": 35.366355,
      "lng": 138.917986,
      "geocoding_level": null,
      "phone": "0550-78-0121",
      "license_no": "",
      "license_date": null,
      "expire_date": null
    },
    {
      "name": "東富士カントリークラブコース売店１５番",
      "name_kana": "ヒガシフジカントリークラブコースバイテンジュウゴバン",
      "business_type": "① 飲食店営業",
      "address": "静岡県駿東郡小山町大御神６４５ー１",
      "lat": 35.366355,
      "lng": 138.917986,
      "geocoding_level": null,
      "phone": "0550-78-0121",
      "license_no": "S00544010811",
      "license_date": "2021-11-08",
      "expire_date": "2026-11-30"
    },
    {
      "name": "勝栄堂",
      "name_kana": "ショウエイドウ",
      "business_type": "⑪ 菓子製造業",
      "address": "静岡県駿東郡小山町生土３－１３",
      "lat": 35.361672516,
      "lng": 138.989645595,
      "geocoding_level": 8,
      "phone": "0550-76-5558",
      "license_no": "S00543580017",
      "license_date": "2021-11-08",
      "expire_date": "2026-11-30"
    },
    {
      "name": "旅館　こざる",
      "name_kana": "リョカン　コザル",
      "business_type": "① 飲食店営業",
      "address": "静岡県駿東郡小山町須走１６５",
      "lat": 35.361576,
      "lng": 138.809419,
      "geocoding_level": 3,
      "phone": "0550-75-2018",
      "license_no": "S57200000184",
      "license_date": "2021-11-08",
      "expire_date": "2026-11-30"
    },
    {
      "name": "ＭＡＭＡ’Ｓ ＫＩＴＣＨＥＮ",
      "name_kana": "ママス　キッチン",
      "business_type": "① 飲食店営業",
      "address": "静岡県駿東郡小山町中日向　県保健所管内一円県保健所管内一円",
      "lat": 35.381974,
      "lng": 138.932878,
      "geocoding_level": null,
      "phone": "0550-76-1022",
      "license_no": "S57200600150",
      "license_date": "2021-11-08",
      "expire_date": "2026-11-30"
    },
    {
      "name": "ＭＡＭＡ’Ｓ　ＨＡＲＭＯＮＹ",
      "name_kana": "ママズハーモニー",
      "business_type": "① 飲食店営業",
      "address": "静岡県駿東郡小山町中日向６９４",
      "lat": 35.372679,
      "lng": 138.930161,
      "geocoding_level": null,
      "phone": "090-6090-3654",
      "license_no": "S57201000304",
      "license_date": "2021-11-08",
      "expire_date": "2026-11-30"
    },
    {
      "name": "Ｈａｒｕｋｏｍａ（春駒）",
      "name_kana": "ハルコマ",
      "business_type": "① 飲食店営業",
      "address": "静岡県駿東郡小山町須走２１８－４",
      "lat": 35.360871,
      "lng": 138.871522,
      "geocoding_level": null,
      "phone": "0550-75-2161",
      "license_no": "S57201000270",
      "license_date": "2021-11-08",
      "expire_date": "2026-11-30"
    },
    {
      "name": "セブン－イレブン　駿東小山町須走東店",
      "name_kana": "セブンイレブンスントウオヤマチョウスバシリヒガシテン",
      "business_type": "① 飲食店営業",
      "address": "静岡県駿東郡小山町須走１２－７",
      "lat": 35.359586,
      "lng": 138.873624,
      "geocoding_level": null,
      "phone": "0550-75-3523",
      "license_no": "S57201000288",
      "license_date": "2021-11-08",
      "expire_date": "2026-11-30"
    },
    {
      "name": "セブン－イレブン　駿東小山町須走東店",
      "name_kana": "セブンイレブンスントウオヤマチョウスバシリヒガシテン",
      "business_type": "⑩ コンビニエンスストア",
      "address": "静岡県駿東郡小山町須走１２－７",
      "lat": 35.359586,
      "lng": 138.873624,
      "geocoding_level": null,
      "phone": "0550-75-3523",
      "license_no": "",
      "license_date": null,
      "expire_date": null
    },
    {
      "name": "フィオーリ",
      "name_kana": "フィオーリ",
      "business_type": "⑪ 菓子製造業",
      "address": "静岡県駿東郡小山町竹之下１７７",
      "lat": 35.331276173,
      "lng": 138.977488521,
      "geocoding_level": 8,
      "phone": "0550-76-2888",
      "license_no": "S57201000303",
      "license_date": "2021-11-08",
      "expire_date": "2027-11-30"
    },
    {
      "name": "ジーシー富士小山店",
      "name_kana": "ジーシーフジオヤマテン",
      "business_type": "① 飲食店営業",
      "address": "静岡県駿東郡小山町中日向５８４－１",
      "lat": 35.364477356,
      "lng": 138.939317991,
      "geocoding_level": 8,
      "phone": "0550-76-4432",
      "license_no": "S57201500159",
      "license_date": "2021-11-08",
      "expire_date": "2026-11-30"
    },
    {
      "name": "足柄マルシェ",
      "name_kana": "アシガラマルシェ",
      "business_type": "① 魚介類販売業（包装済みの魚介類のみの販売）",
      "address": "静岡県駿東郡小山町桑木字南の原599 EXPASA足柄下り線内",
      "lat": 35.305884,
      "lng": 138.980898,
      "geocoding_level": 3,
      "phone": "",
      "license_no": "",
      "license_date": null,
      "expire_date": null
    },
    {
      "name": "足柄マルシェ",
      "name_kana": "アシガラマルシェ",
      "business_type": "② 食肉販売業（包装済みの食肉のみの販売）",
      "address": "静岡県駿東郡小山町桑木字南の原599 EXPASA足柄下り線内",
      "lat": 35.305884,
      "lng": 138.980898,
      "geocoding_level": 3,
      "phone": "",
      "license_no": "",
      "license_date": null,
      "expire_date": null
    },
    {
      "name": "足柄マルシェ",
      "name_kana": "アシガラマルシェ",
      "business_type": "③ 乳類販売業",
      "address": "静岡県駿東郡小山町桑木字南の原599 EXPASA足柄下り線内",
      "lat": 35.305884,
      "lng": 138.980898,
      "geocoding_level": 3,
      "phone": "",
      "license_no": "",
      "license_date": null,
      "expire_date": null
    },
    {
      "name": "足柄マルシェ",
      "name_kana": "アシガラマルシェ",
      "business_type": "⑥ 弁当販売業",
      "address": "静岡県駿東郡小山町桑木字南の原599 EXPASA足柄下り線内",
      "lat": 35.305884,
      "lng": 138.980898,
      "geocoding_level": 3,
      "phone": "",
      "license_no": "",
      "license_date": null,
      "expire_date": null
    },
    {
      "name": "足柄マルシェ",
      "name_kana": "アシガラマルシェ",
      "business_type": "⑦ 野菜果物販売業",
      "address": "静岡県駿東郡小山町桑木字南の原599 EXPASA足柄下り線内",
      "lat": 35.305884,
      "lng": 138.980898,
      "geocoding_level": 3,
      "phone": "",
      "license_no": "",
      "license_date": null,
      "expire_date": null
    },
    {
      "name": "足柄マルシェ",
      "name_kana": "アシガラマルシェ",
      "business_type": "⑧ 米穀類販売業",
      "address": "静岡県駿東郡小山町桑木字南の原599 EXPASA足柄下り線内",
      "lat": 35.305884,
      "lng": 138.980898,
      "geocoding_level": 3,
      "phone": "",
      "license_no": "",
      "license_date": null,
      "expire_date": null
    },
    {
      "name": "足柄マルシェ",
      "name_kana": "アシガラマルシェ",
      "business_type": "⑨ 通信販売・訪問販売による販売業",
      "address": "静岡県駿東郡小山町桑木字南の原599 EXPASA足柄下り線内",
      "lat": 35.305884,
      "lng": 138.980898,
      "geocoding_level": 3,
      "phone": "",
      "license_no": "",
      "license_date": null,
      "expire_date": null
    },
    {
      "name": "足柄マルシェ",
      "name_kana": "アシガラマルシェ",
      "business_type": "⑬ その他の食料・飲料販売業",
      "address": "静岡県駿東郡小山町桑木字南の原599 EXPASA足柄下り線内",
      "lat": 35.305884,
      "lng": 138.980898,
      "geocoding_level": 3,
      "phone": "",
      "license_no": "",
      "license_date": null,
      "expire_date": null
    },
    {
      "name": "足柄マルシェ",
      "name_kana": "アシガラマルシェ",
      "business_type": "① 飲食店営業",
      "address": "静岡県駿東郡小山町桑木字南ノ原５９９",
      "lat": 35.321372,
      "lng": 138.974699,
      "geocoding_level": null,
      "phone": "0550-82-8111",
      "license_no": "S57201000246",
      "license_date": "2022-11-28",
      "expire_date": "2027-11-30"
    },
    {
      "name": "EUROPEAN　Cafe＆Bar",
      "name_kana": "ヨーロピアンカフェアンドバー",
      "business_type": "① 飲食店営業",
      "address": "静岡県駿東郡小山町中日向",
      "lat": 35.381974,
      "lng": 138.932878,
      "geocoding_level": null,
      "phone": "07050841977",
      "license_no": "S57202100067",
      "license_date": "2021-11-18",
      "expire_date": "2026-11-30"
    },
    {
      "name": "小山町農村活性化センター　ふじあざみ",
      "name_kana": "オヤマチョウノウソンカッセイカセンター　フジアザミ",
      "business_type": "㉕ そうざい製造業",
      "address": "静岡県駿東郡小山町用沢５６－１",
      "lat": 35.344402,
      "lng": 138.95092,
      "geocoding_level": null,
      "phone": "0550-76-6660",
      "license_no": "S57201500216",
      "license_date": "2021-11-08",
      "expire_date": "2027-11-30"
    },
    {
      "name": "小山町農村活性化センターふじあざみ",
      "name_kana": "オヤマチョウノウソンカッセイカセンターフジアザミ",
      "business_type": "㉙ 漬物製造業",
      "address": "静岡県駿東郡小山町用沢56-1",
      "lat": 35.344408,
      "lng": 138.950839,
      "geocoding_level": null,
      "phone": "0550766660",
      "license_no": "S57202400104",
      "license_date": "2024-08-27",
      "expire_date": "2029-11-30"
    },
    {
      "name": "小山町農村活性化センターふじあざみ",
      "name_kana": "オヤマチョウノウソンカッセイカセンターフジアザミ",
      "business_type": "⑪ 菓子製造業",
      "address": "静岡県駿東郡小山町用沢５６－１",
      "lat": 35.344348726,
      "lng": 138.950826741,
      "geocoding_level": 8,
      "phone": "0550-76-6660",
      "license_no": "S57201800140",
      "license_date": "2025-11-28",
      "expire_date": "2031-11-30"
    },
    {
      "name": "金太郎ベーカリー",
      "name_kana": "キンタロウベーカリー",
      "business_type": "⑪ 菓子製造業",
      "address": "静岡県駿東郡小山町用沢72-2",
      "lat": 35.344848,
      "lng": 138.950614,
      "geocoding_level": null,
      "phone": "0550-76-5258",
      "license_no": "S57202500229",
      "license_date": "2026-03-16",
      "expire_date": "2032-11-30"
    },
    {
      "name": "めいさん会",
      "name_kana": "メイサンカイ",
      "business_type": "① 飲食店営業",
      "address": "静岡県駿東郡小山町県保健所管内一円",
      "lat": 35.36011,
      "lng": 138.987328,
      "geocoding_level": null,
      "phone": "0550-76-0425",
      "license_no": "S57201100049",
      "license_date": "2021-11-08",
      "expire_date": "2026-11-30"
    },
    {
      "name": "ファミリーマート富士駐屯地店",
      "name_kana": "ファミリーマートフジチュウトンチテン",
      "business_type": "⑩ コンビニエンスストア",
      "address": "静岡県駿東郡小山町須走481－27",
      "lat": 35.357259,
      "lng": 138.863757,
      "geocoding_level": null,
      "phone": "0550-75-6175",
      "license_no": "",
      "license_date": null,
      "expire_date": null
    },
    {
      "name": "小見山　純子",
      "name_kana": "コミヤマ　ジュンコ",
      "business_type": "㉔ その他の食料品製造・加工業",
      "address": "静岡県駿東郡小山町桑木７７２",
      "lat": 35.315326,
      "lng": 138.976868,
      "geocoding_level": null,
      "phone": "",
      "license_no": "",
      "license_date": null,
      "expire_date": null
    },
    {
      "name": "道の駅「ふじおやま」農産物出荷組合",
      "name_kana": "ミチノエキフジオヤマノウサンブツシュッカクミアイ",
      "business_type": "㉔ その他の食料品製造・加工業",
      "address": "静岡県駿東郡小山町用沢７２-２",
      "lat": 35.344478,
      "lng": 138.950279,
      "geocoding_level": null,
      "phone": "",
      "license_no": "",
      "license_date": null,
      "expire_date": null
    },
    {
      "name": "露店営業_イベント.jp田邉",
      "name_kana": "ロテンエイギョウ　イベントドツトジエイピー",
      "business_type": "① 飲食店営業",
      "address": "静岡県駿東郡小山町中日向県保健所管内一円",
      "lat": 35.381974,
      "lng": 138.932878,
      "geocoding_level": null,
      "phone": "",
      "license_no": "S57202500035",
      "license_date": "2025-04-24",
      "expire_date": "2030-11-30"
    },
    {
      "name": "イベント.JP　ウイング2号",
      "name_kana": "イベントドットジェーピーウイングニゴウ",
      "business_type": "① 飲食店営業",
      "address": "静岡県駿東郡小山町中日向694 富士スピードウェイイベント広場",
      "lat": 35.372679,
      "lng": 138.930161,
      "geocoding_level": null,
      "phone": "012017312",
      "license_no": "S57202500067",
      "license_date": "2025-06-05",
      "expire_date": "2030-11-30"
    },
    {
      "name": "イベント.JP",
      "name_kana": "イベントドットジェーピー",
      "business_type": "① 飲食店営業",
      "address": "静岡県駿東郡小山町中日向県保健所管内一円",
      "lat": 35.381974,
      "lng": 138.932878,
      "geocoding_level": null,
      "phone": "0120017312",
      "license_no": "S57202600023",
      "license_date": "2026-04-30",
      "expire_date": "2031-11-30"
    },
    {
      "name": "小山町立成美小学校",
      "name_kana": "オヤマチョウリツセイビショウガッコウ",
      "business_type": "㉖ 集団給食施設",
      "address": "静岡県駿東郡小山町藤曲150",
      "lat": 35.361127,
      "lng": 138.979504,
      "geocoding_level": null,
      "phone": "0550-76-0063",
      "license_no": "",
      "license_date": null,
      "expire_date": null
    },
    {
      "name": "小山町立明倫小学校",
      "name_kana": "オヤマチョウリツメイリンショウガッコウ",
      "business_type": "㉖ 集団給食施設",
      "address": "静岡県駿東郡小山町菅沼627",
      "lat": 35.352698,
      "lng": 138.978769,
      "geocoding_level": null,
      "phone": "0550760064",
      "license_no": "",
      "license_date": null,
      "expire_date": null
    },
    {
      "name": "小山町立足柄小学校",
      "name_kana": "オヤマチョウリツアシガラショウガッコウ",
      "business_type": "㉖ 集団給食施設",
      "address": "静岡県駿東郡小山町竹之下2411-1",
      "lat": 35.332703,
      "lng": 138.983483,
      "geocoding_level": null,
      "phone": "0550-76-0596",
      "license_no": "",
      "license_date": null,
      "expire_date": null
    },
    {
      "name": "小山町立北郷小学校",
      "name_kana": "オヤマチョウリツキタゴウショウガッコウ",
      "business_type": "㉖ 集団給食施設",
      "address": "静岡県駿東郡小山町用沢604-1",
      "lat": 35.344242,
      "lng": 138.942449,
      "geocoding_level": null,
      "phone": "0550-78-0520",
      "license_no": "",
      "license_date": null,
      "expire_date": null
    },
    {
      "name": "小山町立須走小学校",
      "name_kana": "オヤマチョウリツスバシリショウガッコウ",
      "business_type": "㉖ 集団給食施設",
      "address": "静岡県駿東郡小山町須走70-18",
      "lat": 35.364396,
      "lng": 138.869812,
      "geocoding_level": null,
      "phone": "0550-75-2730",
      "license_no": "",
      "license_date": null,
      "expire_date": null
    },
    {
      "name": "小山町立小山中学校",
      "name_kana": "オヤマチョウリツオヤマチュウガッコウ",
      "business_type": "㉖ 集団給食施設",
      "address": "静岡県駿東郡小山町藤曲142",
      "lat": 35.361487,
      "lng": 138.987561,
      "geocoding_level": null,
      "phone": "0550-76-0154",
      "license_no": "",
      "license_date": null,
      "expire_date": null
    },
    {
      "name": "小山町立北郷中学校",
      "name_kana": "オヤマチョウリツキタゴウチュウガッコウ",
      "business_type": "㉖ 集団給食施設",
      "address": "静岡県駿東郡小山町用沢355",
      "lat": 35.347592,
      "lng": 138.944944,
      "geocoding_level": null,
      "phone": "055078-0514",
      "license_no": "",
      "license_date": null,
      "expire_date": null
    },
    {
      "name": "きたごうこども園",
      "name_kana": "キタゴウコドモエン",
      "business_type": "㉖ 集団給食施設",
      "address": "静岡県駿東郡小山町用沢207-1",
      "lat": 35.345047,
      "lng": 138.945984,
      "geocoding_level": null,
      "phone": "0550780504",
      "license_no": "",
      "license_date": null,
      "expire_date": null
    },
    {
      "name": "すがぬまこども園",
      "name_kana": "スガヌマコドモエン",
      "business_type": "㉖ 集団給食施設",
      "address": "静岡県駿東郡小山町菅沼274-2",
      "lat": 35.34627,
      "lng": 138.974001,
      "geocoding_level": null,
      "phone": "0550760429",
      "license_no": "",
      "license_date": null,
      "expire_date": null
    },
    {
      "name": "すばしりこども園",
      "name_kana": "スバシリコドモエン",
      "business_type": "㉖ 集団給食施設",
      "address": "静岡県駿東郡小山町須走83",
      "lat": 35.364681,
      "lng": 138.867364,
      "geocoding_level": null,
      "phone": "0550752710",
      "license_no": "",
      "license_date": null,
      "expire_date": null
    },
    {
      "name": "カレーハウスＣｏＣｏ壱番屋　ＥＸＰＡＳＡ足柄下り店",
      "name_kana": "カレーハウスココイチバンヤ　アシガラクダリテン",
      "business_type": "① 飲食店営業",
      "address": "静岡県駿東郡小山町桑木５９９ 東名高速道路足柄サービスエリア下り線",
      "lat": 35.305884,
      "lng": 138.980898,
      "geocoding_level": 3,
      "phone": "0550-81-1551",
      "license_no": "S57201500120",
      "license_date": "2021-11-19",
      "expire_date": "2027-11-30"
    },
    {
      "name": "カブト食堂",
      "name_kana": "カブトショクドウ",
      "business_type": "① 飲食店営業",
      "address": "静岡県駿東郡小山町小山７１－８７",
      "lat": 35.359209895,
      "lng": 138.995674193,
      "geocoding_level": 8,
      "phone": "0550-76-0254",
      "license_no": "S57201600046",
      "license_date": "2021-11-19",
      "expire_date": "2026-11-30"
    },
    {
      "name": "まんぷくカフェ",
      "name_kana": "マンプクカフェ",
      "business_type": "① 飲食店営業",
      "address": "静岡県駿東郡小山町竹之下字向田１３５３－１３",
      "lat": 35.326024000000004,
      "lng": 138.996542,
      "geocoding_level": 3,
      "phone": "0550-76-2000",
      "license_no": "S57200000139",
      "license_date": "2021-11-19",
      "expire_date": "2026-11-30"
    },
    {
      "name": "足柄峠茶屋",
      "name_kana": "アシガラトウゲチャヤ",
      "business_type": "① 飲食店営業",
      "address": "静岡県駿東郡小山町竹之下３６４９",
      "lat": 35.326024000000004,
      "lng": 138.996542,
      "geocoding_level": 3,
      "phone": "0550-76-3838",
      "license_no": "S57201100122",
      "license_date": "2021-11-19",
      "expire_date": "2026-11-30"
    },
    {
      "name": "ゼッテリア　ＥＸＰＡＳＡ足柄店",
      "name_kana": "ゼッテリア　エクスパーサアシガラテン",
      "business_type": "① 飲食店営業",
      "address": "静岡県駿東郡小山町桑木字南ノ原５９９ 東名高速道路　ＥＸＰＡＳＡ足柄下り線内",
      "lat": 35.321372,
      "lng": 138.974699,
      "geocoding_level": null,
      "phone": "080-4601-3170",
      "license_no": "S57201000180",
      "license_date": "2021-11-19",
      "expire_date": "2027-11-30"
    },
    {
      "name": "喫茶　シェリーメイ",
      "name_kana": "キッサ　シェリーメイ",
      "business_type": "① 飲食店営業",
      "address": "静岡県駿東郡小山町竹之下３２１ 菜の花の丘内",
      "lat": 35.326024000000004,
      "lng": 138.996542,
      "geocoding_level": 3,
      "phone": "0550-76-5800",
      "license_no": "S57201500122",
      "license_date": "2021-11-19",
      "expire_date": "2027-11-30"
    },
    {
      "name": "Ｓ１０２４６",
      "name_kana": "エスイチゼロニヨンロク",
      "business_type": "① 飲食店営業",
      "address": "静岡県駿東郡小山町棚頭３０５番９",
      "lat": 35.355427,
      "lng": 138.946676,
      "geocoding_level": null,
      "phone": "0550-78-2090",
      "license_no": "S57200800299",
      "license_date": "2021-11-19",
      "expire_date": "2027-11-30"
    },
    {
      "name": "魚重",
      "name_kana": "ウオジュウ",
      "business_type": "④ 魚介類販売業",
      "address": "静岡県駿東郡小山町生土３－１５",
      "lat": 35.361658682,
      "lng": 138.989504076,
      "geocoding_level": 8,
      "phone": "0550-76-0111",
      "license_no": "S00543560111",
      "license_date": "2021-11-19",
      "expire_date": "2026-11-30"
    },
    {
      "name": "魚重商店出店コーナー",
      "name_kana": "ウオジュウショウテンシュッテンコーナー",
      "business_type": "① 飲食店営業",
      "address": "静岡県駿東郡小山町県保健所管内一円県保健所管内一円",
      "lat": 35.36011,
      "lng": 138.98729600000001,
      "geocoding_level": 2,
      "phone": "",
      "license_no": "S57200600084",
      "license_date": "2021-11-19",
      "expire_date": "2026-11-30"
    },
    {
      "name": "橋本屋商店",
      "name_kana": "ハシモトヤショウテン",
      "business_type": "① 飲食店営業",
      "address": "静岡県駿東郡小山町竹之下１３１４－３",
      "lat": 35.332537009,
      "lng": 138.980886047,
      "geocoding_level": 8,
      "phone": "0550-76-1490",
      "license_no": "S00544090092",
      "license_date": "2021-11-19",
      "expire_date": "2026-11-30"
    },
    {
      "name": "橋本屋商店",
      "name_kana": "ハシモトヤショウテン",
      "business_type": "③ 乳類販売業",
      "address": "静岡県駿東郡小山町竹之下１３１４－３",
      "lat": 35.332537009,
      "lng": 138.980886047,
      "geocoding_level": 8,
      "phone": "0550-76-1490",
      "license_no": "",
      "license_date": null,
      "expire_date": null
    },
    {
      "name": "オサキ",
      "name_kana": "オサキ",
      "business_type": "㉔ その他の食料品製造・加工業",
      "address": "静岡県駿東郡小山町湯船24-1",
      "lat": 35.369574,
      "lng": 138.978972,
      "geocoding_level": null,
      "phone": "",
      "license_no": "",
      "license_date": null,
      "expire_date": null
    },
    {
      "name": "天野　三徳",
      "name_kana": "アマノ　ミツノリ",
      "business_type": "㉔ その他の食料品製造・加工業",
      "address": "静岡県駿東郡小山町阿多野433",
      "lat": 35.348073,
      "lng": 138.961901,
      "geocoding_level": null,
      "phone": "0550761887",
      "license_no": "",
      "license_date": null,
      "expire_date": null
    },
    {
      "name": "長田辰代",
      "name_kana": "オサダタツヨ",
      "business_type": "㉔ その他の食料品製造・加工業",
      "address": "静岡県駿東郡小山町一色1745",
      "lat": 35.3437,
      "lng": 138.921949,
      "geocoding_level": null,
      "phone": "0550-78-0373",
      "license_no": "",
      "license_date": null,
      "expire_date": null
    },
    {
      "name": "なべっち",
      "name_kana": "ナベッチ",
      "business_type": "⑬ その他の食料・飲料販売業",
      "address": "静岡県駿東郡小山町藤曲610-1",
      "lat": 35.361307,
      "lng": 138.980725,
      "geocoding_level": null,
      "phone": "0550760637",
      "license_no": "",
      "license_date": null,
      "expire_date": null
    },
    {
      "name": "アイリスオーヤマ株式会社　富士小山工場",
      "name_kana": "アイリスオーヤマカブシキガイシャ　フジオヤマコウジョウ",
      "business_type": "⑭ 清涼飲料水製造業",
      "address": "静岡県駿東郡小山町桑木221-1",
      "lat": 35.323297,
      "lng": 138.971625,
      "geocoding_level": null,
      "phone": "",
      "license_no": "S57202100080",
      "license_date": "2022-01-12",
      "expire_date": "2027-11-30"
    },
    {
      "name": "アイリスオーヤマ株式会社  富士小山工場",
      "name_kana": "アイリスオーヤマカブシキガイシャ  フジオヤマコウジョウ",
      "business_type": "㉗ 器具、容器包装の製造・加工業（合成樹脂が使用された器具又は容器包装の製造、加工に限る。）",
      "address": "静岡県駿東郡小山町桑木221-1",
      "lat": 35.323297,
      "lng": 138.971625,
      "geocoding_level": null,
      "phone": "",
      "license_no": "",
      "license_date": null,
      "expire_date": null
    },
    {
      "name": "ハタコーヒースタンド",
      "name_kana": "ハタコーヒースタンド",
      "business_type": "① 飲食店営業",
      "address": "静岡県駿東郡小山町中日向694",
      "lat": 35.372679,
      "lng": 138.930161,
      "geocoding_level": null,
      "phone": "090-4921-4926",
      "license_no": "S57202500103",
      "license_date": "2025-07-24",
      "expire_date": "2030-11-30"
    },
    {
      "name": "RESTAURANT CRANE Garden",
      "name_kana": "レストランクレインガーデン",
      "business_type": "① 飲食店営業",
      "address": "静岡県駿東郡小山町中日向694 富士スピードウェイ内　Aパドック",
      "lat": 35.368274,
      "lng": 138.938251,
      "geocoding_level": null,
      "phone": "0550781232",
      "license_no": "S57202100079",
      "license_date": "2022-01-12",
      "expire_date": "2028-11-30"
    },
    {
      "name": "RESTAURANT CRANE Garden",
      "name_kana": "レストランクレインガーデン",
      "business_type": "① 飲食店営業",
      "address": "静岡県駿東郡小山町中日向694 富士スピードウェイ内　Aパドック",
      "lat": 35.372679,
      "lng": 138.930161,
      "geocoding_level": null,
      "phone": "0550781232",
      "license_no": "S57202200038",
      "license_date": "2022-06-01",
      "expire_date": "2027-11-30"
    },
    {
      "name": "RESTAURANT CRANE Garden",
      "name_kana": "レストランクレインガーデン",
      "business_type": "① 飲食店営業",
      "address": "静岡県駿東郡小山町中日向694 富士スピードウェイ内　Aパドック",
      "lat": 35.368274,
      "lng": 138.938251,
      "geocoding_level": null,
      "phone": "0550781232",
      "license_no": "S57202200039",
      "license_date": "2022-06-08",
      "expire_date": "2028-11-30"
    },
    {
      "name": "名代　しょうが焼き丼ぶり",
      "name_kana": "ナダイショウガヤキドンブリ",
      "business_type": "① 飲食店営業",
      "address": "静岡県駿東郡小山町中日向６９４ ショッピングテラスＮｏ．１０",
      "lat": 35.368274,
      "lng": 138.938251,
      "geocoding_level": null,
      "phone": "0550-78-1235",
      "license_no": "S57202200169",
      "license_date": "2022-11-30",
      "expire_date": "2027-11-30"
    },
    {
      "name": "RESTAURANT CRANE Garden",
      "name_kana": "レストランクレインガーデン",
      "business_type": "① 飲食店営業",
      "address": "静岡県駿東郡小山町中日向694富士スピードウェイ内Aパドック 県保健所管内一円",
      "lat": 35.372679,
      "lng": 138.930161,
      "geocoding_level": null,
      "phone": "",
      "license_no": "S57202300106",
      "license_date": "2023-09-01",
      "expire_date": "2028-11-30"
    },
    {
      "name": "陸上自衛隊富士学校",
      "name_kana": "リクジョウジエイタイフジガッコウ",
      "business_type": "① 飲食店営業",
      "address": "静岡県駿東郡小山町須走481-27",
      "lat": 35.357259,
      "lng": 138.863757,
      "geocoding_level": null,
      "phone": "0550-75-2311",
      "license_no": "S57202100078",
      "license_date": "2022-01-14",
      "expire_date": "2028-11-30"
    },
    {
      "name": "ローソン小山町白岩",
      "name_kana": "ローソンオヤマチョウシライワ",
      "business_type": "⑩ コンビニエンスストア",
      "address": "静岡県駿東郡小山町小山１０８８－２０",
      "lat": 35.358459,
      "lng": 139.010321,
      "geocoding_level": null,
      "phone": "",
      "license_no": "",
      "license_date": null,
      "expire_date": null
    },
    {
      "name": "ローソン小山町白岩",
      "name_kana": "ローソンオヤマチョウシライワ",
      "business_type": "① 飲食店営業",
      "address": "静岡県駿東郡小山町小山１０８８－２０",
      "lat": 35.358459,
      "lng": 139.010321,
      "geocoding_level": null,
      "phone": "",
      "license_no": "S57201300127",
      "license_date": "2024-11-29",
      "expire_date": "2029-11-30"
    },
    {
      "name": "林商店",
      "name_kana": "ハヤシショウテン",
      "business_type": "⑦ 野菜果物販売業",
      "address": "静岡県駿東郡小山町藤曲５４－１",
      "lat": 35.360688,
      "lng": 138.989023,
      "geocoding_level": null,
      "phone": "0550-76-0121",
      "license_no": "",
      "license_date": null,
      "expire_date": null
    },
    {
      "name": "ミニボートピア　富士おやま富岳売店",
      "name_kana": "ミニボートピアフジオヤマフガクバイテン",
      "business_type": "③ 乳類販売業",
      "address": "静岡県駿東郡小山町須走４９８－４１４",
      "lat": 35.34461,
      "lng": 138.879419,
      "geocoding_level": null,
      "phone": "0550-75-1100",
      "license_no": "",
      "license_date": null,
      "expire_date": null
    },
    {
      "name": "ミニボートピア富士おやま",
      "name_kana": "ミニボートピアフジオヤマ",
      "business_type": "① 飲食店営業",
      "address": "静岡県駿東郡小山町須走字西澤４９８－４１４",
      "lat": 35.361576,
      "lng": 138.809419,
      "geocoding_level": 3,
      "phone": "",
      "license_no": "S57201800152",
      "license_date": "2024-11-29",
      "expire_date": "2029-11-30"
    },
    {
      "name": "キッチンカー大尊",
      "name_kana": "キッチンカーダイソン",
      "business_type": "① 飲食店営業",
      "address": "静岡県駿東郡小山町中日向６９４",
      "lat": 35.372679,
      "lng": 138.930161,
      "geocoding_level": null,
      "phone": "",
      "license_no": "S57202500159",
      "license_date": "2025-10-09",
      "expire_date": "2030-11-30"
    },
    {
      "name": "格之進",
      "name_kana": "カクノシン",
      "business_type": "① 飲食店営業",
      "address": "静岡県駿東郡小山町大御神県保健所管内一円",
      "lat": 35.377427,
      "lng": 138.905172,
      "geocoding_level": null,
      "phone": "0550-75-7151",
      "license_no": "S57202500181",
      "license_date": "2025-11-14",
      "expire_date": "2030-11-30"
    },
    {
      "name": "Homon Cafe",
      "name_kana": "ホウモンカフェ",
      "business_type": "① 飲食店営業",
      "address": "静岡県駿東郡小山町藤曲１４２−７ 西洋館",
      "lat": 35.362772,
      "lng": 138.986178,
      "geocoding_level": null,
      "phone": "0550707222",
      "license_no": "S57202100097",
      "license_date": "2022-02-28",
      "expire_date": "2027-11-30"
    },
    {
      "name": "豊門ラウンジ",
      "name_kana": "ホウモンラウンジ",
      "business_type": "① 飲食店営業",
      "address": "静岡県駿東郡小山町藤曲１４４－８ 豊門会館",
      "lat": 35.362539,
      "lng": 138.986722,
      "geocoding_level": null,
      "phone": "0550-70-7222",
      "license_no": "S57202400015",
      "license_date": "2024-04-17",
      "expire_date": "2030-11-30"
    },
    {
      "name": "柿次郎　東名高速道路（下り線）足柄ＳＡ店",
      "name_kana": "カキジロウアシガラサービスエリアテンクダリセン",
      "business_type": "① 飲食店営業",
      "address": "静岡県駿東郡小山町桑木字南の原５９９",
      "lat": 35.348521,
      "lng": 138.94901,
      "geocoding_level": null,
      "phone": "",
      "license_no": "S57201000023",
      "license_date": "2022-11-09",
      "expire_date": "2028-11-30"
    },
    {
      "name": "サムズキッチン",
      "name_kana": "サムズキッチン",
      "business_type": "① 飲食店営業",
      "address": "静岡県駿東郡小山町中日向",
      "lat": 35.381974,
      "lng": 138.932878,
      "geocoding_level": null,
      "phone": "",
      "license_no": "S57202100124",
      "license_date": "2022-03-28",
      "expire_date": "2027-11-30"
    },
    {
      "name": "Red Barn cafe",
      "name_kana": "レッドバーンカフェ",
      "business_type": "① 飲食店営業",
      "address": "静岡県駿東郡小山町中日向694",
      "lat": 35.372679,
      "lng": 138.930161,
      "geocoding_level": null,
      "phone": "080-3429-1932",
      "license_no": "S57202400115",
      "license_date": "2024-08-29",
      "expire_date": "2029-11-30"
    },
    {
      "name": "Ｓｕｇａｒ　Ｍｔ．",
      "name_kana": "シュガーマウンテン",
      "business_type": "① 飲食店営業",
      "address": "静岡県駿東郡小山町桑木５９９ 足柄サービスエリア　下り線",
      "lat": 35.31234,
      "lng": 138.967256,
      "geocoding_level": null,
      "phone": "0550-82-3566",
      "license_no": "S57201000166",
      "license_date": "2022-11-28",
      "expire_date": "2027-11-30"
    },
    {
      "name": "富士見茶屋",
      "name_kana": "フジミヂャヤ",
      "business_type": "① 飲食店営業",
      "address": "静岡県駿東郡小山町桑木５９９ 足柄サービスエリア　下り線",
      "lat": 35.31234,
      "lng": 138.967256,
      "geocoding_level": null,
      "phone": "0550-82-3566",
      "license_no": "S57201000167",
      "license_date": "2022-11-28",
      "expire_date": "2027-11-30"
    },
    {
      "name": "中華　万里",
      "name_kana": "バンリ",
      "business_type": "① 飲食店営業",
      "address": "静岡県駿東郡小山町桑木字南ノ原５９９ 足柄サービスエリア　下り線",
      "lat": 35.321372,
      "lng": 138.974699,
      "geocoding_level": null,
      "phone": "0550-82-3566",
      "license_no": "S57201000177",
      "license_date": "2022-11-28",
      "expire_date": "2028-11-30"
    },
    {
      "name": "自衛隊富士学校　御殿場営業所",
      "name_kana": "ジエイタイフジガッコウ　ゴテンバエイギョウショ",
      "business_type": "① 飲食店営業",
      "address": "静岡県駿東郡小山町自衛隊富士学校",
      "lat": 35.358343,
      "lng": 138.860683,
      "geocoding_level": null,
      "phone": "",
      "license_no": "S57202100117",
      "license_date": "2022-03-23",
      "expire_date": "2028-11-30"
    },
    {
      "name": "OHANA 310kitchen",
      "name_kana": "オハナサンイチゼロキッチン",
      "business_type": "① 飲食店営業",
      "address": "静岡県駿東郡小山町中日向694",
      "lat": 35.368274,
      "lng": 138.938251,
      "geocoding_level": null,
      "phone": "09027423100",
      "license_no": "S57202200009",
      "license_date": "2022-06-27",
      "expire_date": "2027-11-30"
    },
    {
      "name": "富士山麓レストラン",
      "name_kana": "フジサンロクレストラン",
      "business_type": "① 飲食店営業",
      "address": "静岡県駿東郡小山町中日向694",
      "lat": 35.368274,
      "lng": 138.938251,
      "geocoding_level": null,
      "phone": "",
      "license_no": "S57202100123",
      "license_date": "2022-03-24",
      "expire_date": "2027-11-30"
    },
    {
      "name": "Tea Era",
      "name_kana": "ティーエラ",
      "business_type": "① 飲食店営業",
      "address": "静岡県駿東郡小山町中日向６９４",
      "lat": 35.372679,
      "lng": 138.930161,
      "geocoding_level": null,
      "phone": "",
      "license_no": "S57202400195",
      "license_date": "2024-12-02",
      "expire_date": "2030-11-30"
    },
    {
      "name": "街の定食屋さん　アンジェロ",
      "name_kana": "マチノテイショクヤサン　アンジェロ",
      "business_type": "① 飲食店営業",
      "address": "静岡県駿東郡小山町中日向６９４",
      "lat": 35.368274,
      "lng": 138.938251,
      "geocoding_level": null,
      "phone": "",
      "license_no": "S57202200003",
      "license_date": "2022-04-18",
      "expire_date": "2027-11-30"
    },
    {
      "name": "ハッピーチャッピー",
      "name_kana": "ハッピーチャッピー",
      "business_type": "① 飲食店営業",
      "address": "静岡県駿東郡小山町中日向県保健所管内一円",
      "lat": 35.381974,
      "lng": 138.932878,
      "geocoding_level": null,
      "phone": "08066651015",
      "license_no": "S57202300078",
      "license_date": "2023-07-21",
      "expire_date": "2028-11-30"
    },
    {
      "name": "Baran",
      "name_kana": "バラン",
      "business_type": "① 飲食店営業",
      "address": "静岡県駿東郡小山町中日向６９４",
      "lat": 35.372679,
      "lng": 138.930161,
      "geocoding_level": null,
      "phone": "090-5827-5461",
      "license_no": "S57202400237",
      "license_date": "2025-03-10",
      "expire_date": "2030-11-30"
    },
    {
      "name": "Baran",
      "name_kana": "バラン",
      "business_type": "① 飲食店営業",
      "address": "静岡県駿東郡小山町中日向県保健所管内一円",
      "lat": 35.381974,
      "lng": 138.932878,
      "geocoding_level": null,
      "phone": "",
      "license_no": "S57202500022",
      "license_date": "2025-04-14",
      "expire_date": "2030-11-30"
    },
    {
      "name": "富士スピードウェイ",
      "name_kana": "フジスピードウェイ",
      "business_type": "① 飲食店営業",
      "address": "静岡県駿東郡小山町中日向県保健所管内一円",
      "lat": 35.381974,
      "lng": 138.932878,
      "geocoding_level": null,
      "phone": "",
      "license_no": "S57202500030",
      "license_date": "2025-04-18",
      "expire_date": "2030-11-30"
    },
    {
      "name": "デリシャス本舗ミニ",
      "name_kana": "デリシャスホンポミニ",
      "business_type": "① 飲食店営業",
      "address": "静岡県駿東郡小山町中日向６９４",
      "lat": 35.372679,
      "lng": 138.930161,
      "geocoding_level": null,
      "phone": "",
      "license_no": "S57202500193",
      "license_date": "2025-12-08",
      "expire_date": "2031-11-30"
    },
    {
      "name": "富士スピードウェイ",
      "name_kana": "フジスピードウェイ",
      "business_type": "① 飲食店営業",
      "address": "静岡県駿東郡小山町中日向694",
      "lat": 35.368274,
      "lng": 138.938251,
      "geocoding_level": null,
      "phone": "05507811234",
      "license_no": "S57202200022",
      "license_date": "2022-05-02",
      "expire_date": "2027-11-30"
    },
    {
      "name": "Shallow Bee",
      "name_kana": "シャロービー",
      "business_type": "① 飲食店営業",
      "address": "静岡県駿東郡小山町中日向県保健所管内一円",
      "lat": 35.381974,
      "lng": 138.932878,
      "geocoding_level": null,
      "phone": "0463210904",
      "license_no": "S57202200043",
      "license_date": "2022-06-08",
      "expire_date": "2027-11-30"
    },
    {
      "name": "Shallow Bee",
      "name_kana": "シャロービー",
      "business_type": "① 飲食店営業",
      "address": "静岡県駿東郡小山町中日向694",
      "lat": 35.372679,
      "lng": 138.930161,
      "geocoding_level": null,
      "phone": "0463210904",
      "license_no": "S57202200177",
      "license_date": "2022-12-13",
      "expire_date": "2028-11-30"
    },
    {
      "name": "ベーカリーソレイユ",
      "name_kana": "ベーカリーソレイユ",
      "business_type": "⑪ 菓子製造業",
      "address": "静岡県駿東郡小山町中島302-5",
      "lat": 35.366762,
      "lng": 138.986222,
      "geocoding_level": null,
      "phone": "0550761920",
      "license_no": "S57202200031",
      "license_date": "2022-05-18",
      "expire_date": "2027-11-30"
    },
    {
      "name": "海鮮焼きアキちゃん",
      "name_kana": "カイセンヤキアキチャン",
      "business_type": "① 飲食店営業",
      "address": "静岡県駿東郡小山町生土県保健所管内一円",
      "lat": 35.368999,
      "lng": 138.995895,
      "geocoding_level": null,
      "phone": "08069692930",
      "license_no": "S57202200034",
      "license_date": "2022-05-25",
      "expire_date": "2027-11-30"
    },
    {
      "name": "エムズエージェンシー　富士スピードウェイ　催事",
      "name_kana": "エムズエージェンシー　フジスピードウェイ　サイジ",
      "business_type": "① 飲食店営業",
      "address": "静岡県駿東郡小山町中日向694県保健所管内一円",
      "lat": 35.368274,
      "lng": 138.938251,
      "geocoding_level": null,
      "phone": "090-1388-7816",
      "license_no": "S57202200041",
      "license_date": "2022-06-02",
      "expire_date": "2027-11-30"
    },
    {
      "name": "27LAYERS",
      "name_kana": "トゥエンティーセブンレイヤーズ",
      "business_type": "① 飲食店営業",
      "address": "静岡県駿東郡小山町中日向県保健所管内一円",
      "lat": 35.381974,
      "lng": 138.932878,
      "geocoding_level": null,
      "phone": "055-999-0540",
      "license_no": "S57202200049",
      "license_date": "2022-06-13",
      "expire_date": "2027-11-30"
    },
    {
      "name": "はなの舞　富士駐屯地店",
      "name_kana": "ハナノマイフジチュウトンチテン",
      "business_type": "① 飲食店営業",
      "address": "静岡県駿東郡小山町須走４８１－２７",
      "lat": 35.35539,
      "lng": 138.862702,
      "geocoding_level": null,
      "phone": "0550-75-2831",
      "license_no": "S57201100230",
      "license_date": "2023-10-27",
      "expire_date": "2029-11-30"
    },
    {
      "name": "株式会社四国屋台村",
      "name_kana": "カブシキカイシャシコクヤタイムラ",
      "business_type": "① 飲食店営業",
      "address": "静岡県駿東郡小山町中日向６９４",
      "lat": 35.372679,
      "lng": 138.930161,
      "geocoding_level": null,
      "phone": "",
      "license_no": "S57202200069",
      "license_date": "2022-07-12",
      "expire_date": "2027-11-30"
    },
    {
      "name": "株式会社四国屋台村",
      "name_kana": "カブシキカイシャシコクヤタイムラ",
      "business_type": "① 飲食店営業",
      "address": "静岡県駿東郡小山町中日向　　県保健所管内一円",
      "lat": 35.381974,
      "lng": 138.932878,
      "geocoding_level": null,
      "phone": "",
      "license_no": "S57202200070",
      "license_date": "2022-07-12",
      "expire_date": "2027-11-30"
    },
    {
      "name": "小山町商工会",
      "name_kana": "オヤマチョウショウコウカイ",
      "business_type": "① 飲食店営業",
      "address": "静岡県駿東郡小山町小山県保健所管内一円",
      "lat": 35.349447,
      "lng": 138.998418,
      "geocoding_level": null,
      "phone": "0550761100",
      "license_no": "S57202200056",
      "license_date": "2022-06-20",
      "expire_date": "2027-11-30"
    },
    {
      "name": "山下珈琲",
      "name_kana": "ヤマシタコーヒー",
      "business_type": "① 飲食店営業",
      "address": "静岡県駿東郡小山町藤曲54-65",
      "lat": 35.360704,
      "lng": 138.987482,
      "geocoding_level": null,
      "phone": "09095554969",
      "license_no": "S57202200057",
      "license_date": "2022-06-28",
      "expire_date": "2027-11-30"
    },
    {
      "name": "山下珈琲",
      "name_kana": "ヤマシタコーヒー",
      "business_type": "⑯ コーヒー製造・加工業（飲料の製造を除く。）",
      "address": "静岡県駿東郡小山町藤曲54-91",
      "lat": 35.360513,
      "lng": 138.987566,
      "geocoding_level": null,
      "phone": "09095554969",
      "license_no": "",
      "license_date": null,
      "expire_date": null
    },
    {
      "name": "山下珈琲",
      "name_kana": "ヤマシタコーヒー",
      "business_type": "① 飲食店営業",
      "address": "静岡県駿東郡小山町藤曲県保健所管内一円",
      "lat": 35.361127,
      "lng": 138.979504,
      "geocoding_level": null,
      "phone": "09095554969",
      "license_no": "S57202200087",
      "license_date": "2022-07-29",
      "expire_date": "2027-11-30"
    },
    {
      "name": "山下珈琲",
      "name_kana": "ヤマシタコーヒー",
      "business_type": "⑯ コーヒー製造・加工業（飲料の製造を除く。）",
      "address": "静岡県駿東郡小山町藤曲54-65",
      "lat": 35.360704,
      "lng": 138.987482,
      "geocoding_level": null,
      "phone": "09095554969",
      "license_no": "",
      "license_date": null,
      "expire_date": null
    },
    {
      "name": "山下珈琲",
      "name_kana": "ヤマシタコーヒー",
      "business_type": "① 飲食店営業",
      "address": "静岡県駿東郡小山町藤曲54-91",
      "lat": 35.360876,
      "lng": 138.988311,
      "geocoding_level": null,
      "phone": "09095554969",
      "license_no": "S57202300015",
      "license_date": "2023-04-20",
      "expire_date": "2028-11-30"
    },
    {
      "name": "BREAD GARDEN",
      "name_kana": "ブレッドガーデン",
      "business_type": "① 飲食店営業",
      "address": "静岡県駿東郡小山町中日向694 富士スピードウェイ",
      "lat": 35.372679,
      "lng": 138.930161,
      "geocoding_level": null,
      "phone": "042-553-7234",
      "license_no": "S57202300074",
      "license_date": "2023-07-14",
      "expire_date": "2028-11-30"
    },
    {
      "name": "バドワイザーＡ",
      "name_kana": "バドワイザーエー",
      "business_type": "① 飲食店営業",
      "address": "静岡県駿東郡小山町中日向県保健所管内一円",
      "lat": 35.381974,
      "lng": 138.932878,
      "geocoding_level": null,
      "phone": "0550-78-1234",
      "license_no": "S57201000068",
      "license_date": "2025-11-28",
      "expire_date": "2030-11-30"
    },
    {
      "name": "白猫堂　ｓｈｉｒｏｎｅｋｏ－Ｄｏ",
      "name_kana": "シロネコドウ",
      "business_type": "① 飲食店営業",
      "address": "静岡県駿東郡小山町中日向県保健所管内一円",
      "lat": 35.379784,
      "lng": 138.930459,
      "geocoding_level": 3,
      "phone": "0550-78-1234",
      "license_no": "S57201000070",
      "license_date": "2025-11-28",
      "expire_date": "2030-11-30"
    },
    {
      "name": "ソラナスタジオ",
      "name_kana": "ソラナスタジオ",
      "business_type": "① 飲食店営業",
      "address": "静岡県駿東郡小山町須走県保健所管内一円",
      "lat": 35.362504,
      "lng": 138.824651,
      "geocoding_level": null,
      "phone": "",
      "license_no": "S57202200081",
      "license_date": "2022-08-08",
      "expire_date": "2027-11-30"
    },
    {
      "name": "Ｉ’Ｓ  ＢＡＳＥＣＡＭＰ  ＢＢＱ（アイズ  ベースキャンプ・バーベキュー）",
      "name_kana": "アイズ  ベースキャンプ  バーベキュー",
      "business_type": "① 飲食店営業",
      "address": "静岡県駿東郡小山町中日向694 富士スピードウェイ",
      "lat": 35.372679,
      "lng": 138.930161,
      "geocoding_level": null,
      "phone": "0266-24-2391",
      "license_no": "S57202500142",
      "license_date": "2025-09-26",
      "expire_date": "2030-11-30"
    },
    {
      "name": "株式会社　にしき",
      "name_kana": "ニシキ",
      "business_type": "① 飲食店営業",
      "address": "静岡県駿東郡小山町中日向県保健所管内一円",
      "lat": 35.381974,
      "lng": 138.932878,
      "geocoding_level": null,
      "phone": "09042352112",
      "license_no": "S57202200077",
      "license_date": "2022-07-21",
      "expire_date": "2027-11-30"
    },
    {
      "name": "アルテミラ製缶株式会社  富士小山オフィス",
      "name_kana": "アルテミラセイカンカブシキガイシャ  フジオヤマオフィス",
      "business_type": "㉗ 器具、容器包装の製造・加工業（合成樹脂が使用された器具又は容器包装の製造、加工に限る。）",
      "address": "静岡県駿東郡小山町菅沼1500",
      "lat": 35.349533,
      "lng": 138.968822,
      "geocoding_level": null,
      "phone": "",
      "license_no": "",
      "license_date": null,
      "expire_date": null
    },
    {
      "name": "小麦庵　志",
      "name_kana": "コムギアン　ココロザシ",
      "business_type": "① 飲食店営業",
      "address": "静岡県駿東郡小山町中日向694",
      "lat": 35.368274,
      "lng": 138.938251,
      "geocoding_level": null,
      "phone": "",
      "license_no": "S57202200089",
      "license_date": "2022-08-04",
      "expire_date": "2027-11-30"
    },
    {
      "name": "小麦庵　志",
      "name_kana": "コムギアン　ココロザシ",
      "business_type": "① 飲食店営業",
      "address": "静岡県駿東郡小山町中日向県保健所管内一円",
      "lat": 35.381974,
      "lng": 138.932878,
      "geocoding_level": null,
      "phone": "",
      "license_no": "S57202200090",
      "license_date": "2022-08-04",
      "expire_date": "2027-11-30"
    },
    {
      "name": "富士スピードウェイホテル内従業員食堂",
      "name_kana": "フジスピードウェイホテルナイジュウギョウインショクドウ",
      "business_type": "① 飲食店営業",
      "address": "静岡県駿東郡小山町大御神645",
      "lat": 35.367197,
      "lng": 138.917359,
      "geocoding_level": null,
      "phone": "",
      "license_no": "S57202200130",
      "license_date": "2022-09-07",
      "expire_date": "2028-11-30"
    },
    {
      "name": "小山町観光協会",
      "name_kana": "オヤマチョウカンコウキョウカイ",
      "business_type": "① 飲食店営業",
      "address": "静岡県駿東郡小山町用沢県保健所管内一円",
      "lat": 35.3529,
      "lng": 138.917764,
      "geocoding_level": null,
      "phone": "",
      "license_no": "S57202200095",
      "license_date": "2022-08-09",
      "expire_date": "2027-11-30"
    },
    {
      "name": "道の駅ふじおやま",
      "name_kana": "ミチノエキフジオヤマ",
      "business_type": "⑦ 野菜果物販売業",
      "address": "静岡県駿東郡小山町用沢72-2",
      "lat": 35.344478,
      "lng": 138.950279,
      "geocoding_level": null,
      "phone": "0550-76-5258",
      "license_no": "",
      "license_date": null,
      "expire_date": null
    },
    {
      "name": "PINK'S",
      "name_kana": "ピンクス",
      "business_type": "① 飲食店営業",
      "address": "静岡県駿東郡小山町中日向694",
      "lat": 35.368274,
      "lng": 138.938251,
      "geocoding_level": null,
      "phone": "",
      "license_no": "S57202200094",
      "license_date": "2022-08-09",
      "expire_date": "2027-11-30"
    },
    {
      "name": "足柄サービスエリア",
      "name_kana": "アシガラサービスエリア",
      "business_type": "① 飲食店営業",
      "address": "静岡県駿東郡小山町桑木599",
      "lat": 35.312339,
      "lng": 138.967248,
      "geocoding_level": null,
      "phone": "",
      "license_no": "S57202200100",
      "license_date": "2022-08-18",
      "expire_date": "2027-11-30"
    },
    {
      "name": "une-raclette",
      "name_kana": "アン・ラクレット",
      "business_type": "① 飲食店営業",
      "address": "静岡県駿東郡小山町中日向694",
      "lat": 35.368274,
      "lng": 138.938251,
      "geocoding_level": null,
      "phone": "",
      "license_no": "S57202200114",
      "license_date": "2022-08-29",
      "expire_date": "2027-11-30"
    },
    {
      "name": "Harley Camp",
      "name_kana": "ハーレイキャンプ",
      "business_type": "① 飲食店営業",
      "address": "静岡県駿東郡小山町中日向県保健所管内一円",
      "lat": 35.381974,
      "lng": 138.932878,
      "geocoding_level": null,
      "phone": "",
      "license_no": "S57202200117",
      "license_date": "2022-08-29",
      "expire_date": "2027-11-30"
    },
    {
      "name": "Harley Camp ドリンク",
      "name_kana": "ハーレイキャンプドリンク",
      "business_type": "① 飲食店営業",
      "address": "静岡県駿東郡小山町中日向県保健所管内一円",
      "lat": 35.381974,
      "lng": 138.932878,
      "geocoding_level": null,
      "phone": "",
      "license_no": "S57202200116",
      "license_date": "2022-08-29",
      "expire_date": "2027-11-30"
    },
    {
      "name": "THE　NYC　BOX",
      "name_kana": "ザニューヨリカンボックス",
      "business_type": "① 飲食店営業",
      "address": "静岡県駿東郡小山町中日向694",
      "lat": 35.372679,
      "lng": 138.930161,
      "geocoding_level": null,
      "phone": "0550781234",
      "license_no": "S57202200120",
      "license_date": "2022-09-01",
      "expire_date": "2027-11-30"
    },
    {
      "name": "タバジビエ",
      "name_kana": "タバジビエ",
      "business_type": "① 飲食店営業",
      "address": "静岡県駿東郡小山町中日向694",
      "lat": 35.368274,
      "lng": 138.938251,
      "geocoding_level": null,
      "phone": "09034714225",
      "license_no": "S57202200121",
      "license_date": "2022-08-31",
      "expire_date": "2027-11-30"
    },
    {
      "name": "タバジビエ",
      "name_kana": "タバジビエ",
      "business_type": "② 食肉販売業（包装済みの食肉のみの販売）",
      "address": "静岡県駿東郡小山町中日向６９４",
      "lat": 35.368274,
      "lng": 138.938251,
      "geocoding_level": null,
      "phone": "09034714225",
      "license_no": "",
      "license_date": null,
      "expire_date": null
    },
    {
      "name": "SANDWICH MOMENT",
      "name_kana": "サンドイッチモーメント",
      "business_type": "① 飲食店営業",
      "address": "静岡県駿東郡小山町中日向694 富士スピードウェイ",
      "lat": 35.372679,
      "lng": 138.930161,
      "geocoding_level": null,
      "phone": "0550781234",
      "license_no": "S57202200104",
      "license_date": "2022-08-25",
      "expire_date": "2027-11-30"
    },
    {
      "name": "城山グルメテント",
      "name_kana": "ジョウヤマグルメテント",
      "business_type": "① 飲食店営業",
      "address": "静岡県駿東郡小山町中日向県保健所管内一円",
      "lat": 35.381974,
      "lng": 138.932878,
      "geocoding_level": null,
      "phone": "",
      "license_no": "S57200800226",
      "license_date": "2023-10-17",
      "expire_date": "2028-11-30"
    },
    {
      "name": "アルバーニ",
      "name_kana": "アルバーニ",
      "business_type": "① 飲食店営業",
      "address": "静岡県駿東郡小山町中日向694",
      "lat": 35.368274,
      "lng": 138.938251,
      "geocoding_level": null,
      "phone": "",
      "license_no": "S57202200125",
      "license_date": "2022-09-01",
      "expire_date": "2027-11-30"
    },
    {
      "name": "LAMMAS",
      "name_kana": "ランマス",
      "business_type": "① 飲食店営業",
      "address": "静岡県駿東郡小山町中日向県保健所管内一円",
      "lat": 35.381974,
      "lng": 138.932878,
      "geocoding_level": null,
      "phone": "",
      "license_no": "S57202200127",
      "license_date": "2022-09-05",
      "expire_date": "2027-11-30"
    },
    {
      "name": "Fan Terrace",
      "name_kana": "ファンテラス",
      "business_type": "① 飲食店営業",
      "address": "静岡県駿東郡小山町大御神645 富士モータースポーツミュージアム３F",
      "lat": 35.367197,
      "lng": 138.917359,
      "geocoding_level": null,
      "phone": "0550782481",
      "license_no": "S57202200135",
      "license_date": "2022-10-05",
      "expire_date": "2028-11-30"
    },
    {
      "name": "足柄足湯とと",
      "name_kana": "アシガラアシユトト",
      "business_type": "① 飲食店営業",
      "address": "静岡県駿東郡小山町桑木５９５－５ 東名高速道路足柄ＳＡ下り",
      "lat": 35.312894,
      "lng": 138.967068,
      "geocoding_level": null,
      "phone": "",
      "license_no": "S57201200144",
      "license_date": "2022-11-28",
      "expire_date": "2027-11-30"
    },
    {
      "name": "ブラジルグリル",
      "name_kana": "ブラジルグリル",
      "business_type": "① 飲食店営業",
      "address": "静岡県駿東郡小山町中日向694",
      "lat": 35.36798,
      "lng": 138.937315,
      "geocoding_level": null,
      "phone": "08050427603",
      "license_no": "S57202500100",
      "license_date": "2025-07-18",
      "expire_date": "2030-11-30"
    },
    {
      "name": "瀬戸館",
      "name_kana": "セトカン",
      "business_type": "① 飲食店営業",
      "address": "静岡県駿東郡小山町須走字木ノ根坂国有林１００又林小班",
      "lat": 35.361576,
      "lng": 138.809419,
      "geocoding_level": 3,
      "phone": "",
      "license_no": "S00543610541",
      "license_date": "2022-09-13",
      "expire_date": "2027-09-30"
    },
    {
      "name": "ブリヂストン　カフェ　チャヤ　相模８３０と６",
      "name_kana": "ブリヂストンカフェチャヤ",
      "business_type": "① 飲食店営業",
      "address": "静岡県駿東郡小山町中日向６９４",
      "lat": 35.379784,
      "lng": 138.930459,
      "geocoding_level": 3,
      "phone": "",
      "license_no": "S57201600236",
      "license_date": "2022-11-25",
      "expire_date": "2027-11-30"
    },
    {
      "name": "ひとやすみの庭",
      "name_kana": "ヒトヤスミノニワ",
      "business_type": "① 飲食店営業",
      "address": "静岡県駿東郡小山町菅沼８５５－２",
      "lat": 35.359003,
      "lng": 138.984645,
      "geocoding_level": null,
      "phone": "0550-76-7272",
      "license_no": "S57201100144",
      "license_date": "2022-11-09",
      "expire_date": "2027-11-30"
    },
    {
      "name": "Chuckey's kitchen",
      "name_kana": "チャッキーズキッチン",
      "business_type": "① 飲食店営業",
      "address": "静岡県駿東郡小山町菅沼539-5",
      "lat": 35.350568,
      "lng": 138.975752,
      "geocoding_level": null,
      "phone": "",
      "license_no": "S57202400040",
      "license_date": "2024-06-07",
      "expire_date": "2029-11-30"
    },
    {
      "name": "スルガ荻島",
      "name_kana": "スルガオギシマ",
      "business_type": "① 飲食店営業",
      "address": "静岡県駿東郡小山町小山県保健所管内一円",
      "lat": 35.349447,
      "lng": 138.998418,
      "geocoding_level": null,
      "phone": "09024972735",
      "license_no": "S57202200167",
      "license_date": "2022-11-25",
      "expire_date": "2027-11-30"
    },
    {
      "name": "桑の実工房",
      "name_kana": "クワノミコウボウ",
      "business_type": "㉕ そうざい製造業",
      "address": "静岡県駿東郡小山町桑木４６５",
      "lat": 35.31557,
      "lng": 138.974284,
      "geocoding_level": null,
      "phone": "0550-76-2796",
      "license_no": "S57201700167",
      "license_date": "2022-11-09",
      "expire_date": "2027-11-30"
    },
    {
      "name": "田舎料理みや",
      "name_kana": "イナカリョウリミヤ",
      "business_type": "① 飲食店営業",
      "address": "静岡県駿東郡小山町桑木１５４－１",
      "lat": 35.320341,
      "lng": 138.974048,
      "geocoding_level": null,
      "phone": "090-1628-7808",
      "license_no": "S57201600201",
      "license_date": "2022-11-09",
      "expire_date": "2027-11-30"
    },
    {
      "name": "御門屋富士工場",
      "name_kana": "ミカドヤフジコウジョウ",
      "business_type": "⑪ 菓子製造業",
      "address": "静岡県駿東郡小山町棚頭１２１５－１",
      "lat": 35.355418,
      "lng": 138.945298,
      "geocoding_level": null,
      "phone": "0550-78-4333",
      "license_no": "S57201600113",
      "license_date": "2022-11-09",
      "expire_date": "2028-11-30"
    },
    {
      "name": "御門屋　富士工場　米菓",
      "name_kana": "ミカドヤフジコウジョウベイカ",
      "business_type": "⑪ 菓子製造業",
      "address": "静岡県駿東郡小山町棚頭１２１５－１",
      "lat": 35.355390342,
      "lng": 138.945211321,
      "geocoding_level": 8,
      "phone": "0550-78-4333",
      "license_no": "S57200500156",
      "license_date": "2023-11-27",
      "expire_date": "2029-11-30"
    },
    {
      "name": "大都富士リゾートホテル",
      "name_kana": "ダイトフジリゾートホテル",
      "business_type": "① 飲食店営業",
      "address": "静岡県駿東郡小山町須走３９５－１",
      "lat": 35.355775,
      "lng": 138.873665,
      "geocoding_level": null,
      "phone": "0550-75-6305",
      "license_no": "S57201500180",
      "license_date": "2022-11-09",
      "expire_date": "2027-11-30"
    },
    {
      "name": "ラーメン　まぁちゃん",
      "name_kana": "ラーメンマアチャン",
      "business_type": "① 飲食店営業",
      "address": "静岡県駿東郡小山町須走２１２－１",
      "lat": 35.361046,
      "lng": 138.871168,
      "geocoding_level": null,
      "phone": "0550-75-1800",
      "license_no": "S57200700182",
      "license_date": "2022-11-09",
      "expire_date": "2027-11-30"
    },
    {
      "name": "ふくろうの会",
      "name_kana": "フクロウノカイ",
      "business_type": "㉕ そうざい製造業",
      "address": "静岡県駿東郡小山町大胡田１０８０",
      "lat": 35.334793,
      "lng": 138.953233,
      "geocoding_level": null,
      "phone": "0550-76-2537",
      "license_no": "S57200700173",
      "license_date": "2022-11-09",
      "expire_date": "2027-11-30"
    },
    {
      "name": "セブン－イレブン　駿東小山店",
      "name_kana": "セブンイレブンスントウオヤマテン",
      "business_type": "① 飲食店営業",
      "address": "静岡県駿東郡小山町小山８８－２",
      "lat": 35.361857,
      "lng": 138.990989,
      "geocoding_level": null,
      "phone": "0550-76-0083",
      "license_no": "S57200700160",
      "license_date": "2022-11-09",
      "expire_date": "2027-11-30"
    },
    {
      "name": "セブン－イレブン　駿東小山店",
      "name_kana": "セブンイレブンスントウオヤマテン",
      "business_type": "⑩ コンビニエンスストア",
      "address": "静岡県駿東郡小山町小山８８－２",
      "lat": 35.361547,
      "lng": 138.990885,
      "geocoding_level": null,
      "phone": "0550-76-0083",
      "license_no": "",
      "license_date": null,
      "expire_date": null
    },
    {
      "name": "東富士山荘",
      "name_kana": "ヒガシフジサンソウ",
      "business_type": "① 飲食店営業",
      "address": "静岡県駿東郡小山町須走字木之根坂国有林５００ホ小班",
      "lat": 35.362504,
      "lng": 138.824651,
      "geocoding_level": null,
      "phone": "0550-75-2113",
      "license_no": "S57200200119",
      "license_date": "2022-11-09",
      "expire_date": "2027-11-30"
    },
    {
      "name": "東富士山荘",
      "name_kana": "ヒガシフジサンソウ",
      "business_type": "③ 乳類販売業",
      "address": "静岡県駿東郡小山町須走字木之根坂国有林５００ホ小班",
      "lat": 35.361576,
      "lng": 138.809419,
      "geocoding_level": 3,
      "phone": "0550-75-2113",
      "license_no": "",
      "license_date": null,
      "expire_date": null
    },
    {
      "name": "あかり",
      "name_kana": "アカリ",
      "business_type": "① 飲食店営業",
      "address": "静岡県駿東郡小山町須走２２０－１８",
      "lat": 35.360469,
      "lng": 138.870594,
      "geocoding_level": null,
      "phone": "0550-75-2131",
      "license_no": "S57200000197",
      "license_date": "2022-11-09",
      "expire_date": "2027-11-30"
    },
    {
      "name": "ニュー市松",
      "name_kana": "ニューイチマツ",
      "business_type": "① 飲食店営業",
      "address": "静岡県駿東郡小山町須走１７－１４",
      "lat": 35.36139,
      "lng": 138.871916,
      "geocoding_level": null,
      "phone": "0550-75-2120",
      "license_no": "S00544050186",
      "license_date": "2022-11-09",
      "expire_date": "2027-11-30"
    },
    {
      "name": "旅館みゆき",
      "name_kana": "ミユキ",
      "business_type": "① 飲食店営業",
      "address": "静岡県駿東郡小山町須走１８６－１",
      "lat": 35.361923,
      "lng": 138.868966,
      "geocoding_level": null,
      "phone": "0550-75-2022",
      "license_no": "S00543560160",
      "license_date": "2022-11-09",
      "expire_date": "2027-11-30"
    },
    {
      "name": "ＨＡＳＥＧＡＷＡ",
      "name_kana": "ハセガワ",
      "business_type": "① 飲食店営業",
      "address": "静岡県駿東郡小山町中日向６９４ 富士スピードウェイ内ショッピングテラスＮｏ．９",
      "lat": 35.379784,
      "lng": 138.930459,
      "geocoding_level": 3,
      "phone": "",
      "license_no": "S57201700011",
      "license_date": "2022-11-25",
      "expire_date": "2027-11-30"
    },
    {
      "name": "ドライブイン富士",
      "name_kana": "ドライブインフジ",
      "business_type": "① 飲食店営業",
      "address": "静岡県駿東郡小山町生土５５７－１",
      "lat": 35.35774587,
      "lng": 139.008437352,
      "geocoding_level": 8,
      "phone": "0550-76-1075",
      "license_no": "S00543610979",
      "license_date": "2022-11-25",
      "expire_date": "2027-11-30"
    },
    {
      "name": "シェブロンアウトドアカフェ",
      "name_kana": "シェブロンアウトドアカフェ",
      "business_type": "① 飲食店営業",
      "address": "静岡県駿東郡小山町中日向694",
      "lat": 35.372679,
      "lng": 138.930161,
      "geocoding_level": null,
      "phone": "08041182872",
      "license_no": "S57202200172",
      "license_date": "2022-12-05",
      "expire_date": "2028-11-30"
    },
    {
      "name": "山﨑青果店",
      "name_kana": "ヤマザキセイカテン",
      "business_type": "① 飲食店営業",
      "address": "静岡県駿東郡小山町生土３５－７",
      "lat": 35.36276587,
      "lng": 138.989052605,
      "geocoding_level": 8,
      "phone": "0550-76-0368",
      "license_no": "S57201100198",
      "license_date": "2022-11-25",
      "expire_date": "2027-11-30"
    },
    {
      "name": "津田商店",
      "name_kana": "ツダショウテン",
      "business_type": "① 飲食店営業",
      "address": "静岡県駿東郡小山町藤曲７４９",
      "lat": 35.362026,
      "lng": 138.981963,
      "geocoding_level": 3,
      "phone": "0550-76-1205",
      "license_no": "S57201200054",
      "license_date": "2022-11-25",
      "expire_date": "2027-11-30"
    },
    {
      "name": "津田商店",
      "name_kana": "ツダショウテン",
      "business_type": "⑪ 百貨店、総合スーパー",
      "address": "静岡県駿東郡小山町藤曲７４９",
      "lat": 35.359632,
      "lng": 138.979996,
      "geocoding_level": null,
      "phone": "0550-76-1205",
      "license_no": "",
      "license_date": null,
      "expire_date": null
    },
    {
      "name": "セブン－イレブン　駿東小山町菅沼東店",
      "name_kana": "セブンイレブンスントウオヤマチョウスガヌマヒガシテン",
      "business_type": "① 飲食店営業",
      "address": "静岡県駿東郡小山町菅沼４９９－１",
      "lat": 35.349588,
      "lng": 138.974824,
      "geocoding_level": null,
      "phone": "0550-76-3009",
      "license_no": "S57202200168",
      "license_date": "2022-11-25",
      "expire_date": "2027-11-30"
    },
    {
      "name": "セブン－イレブン　駿東小山町菅沼東店",
      "name_kana": "セブンイレブンスントウオヤマチョウスガヌマヒガシテン",
      "business_type": "⑩ コンビニエンスストア",
      "address": "静岡県駿東郡小山町菅沼４９９－１",
      "lat": 35.349584,
      "lng": 138.974836,
      "geocoding_level": null,
      "phone": "0550-76-3009",
      "license_no": "",
      "license_date": null,
      "expire_date": null
    },
    {
      "name": "たこ家　道頓堀　くくる",
      "name_kana": "タコヤドウトンボリククル",
      "business_type": "① 飲食店営業",
      "address": "静岡県駿東郡小山町桑木字南ノ原５９９ 東名高速　下り線　足柄サービスエリア",
      "lat": 35.321372,
      "lng": 138.974699,
      "geocoding_level": null,
      "phone": "0550-82-3766",
      "license_no": "S57201000168",
      "license_date": "2022-11-28",
      "expire_date": "2027-11-30"
    },
    {
      "name": "足柄の森レストラン",
      "name_kana": "アシガラノモリレストラン",
      "business_type": "① 飲食店営業",
      "address": "静岡県駿東郡小山町桑木字南ノ原５９９ エクスパーサ足柄（下）",
      "lat": 35.316115,
      "lng": 138.967764,
      "geocoding_level": null,
      "phone": "0550-81-1115",
      "license_no": "S57201000249",
      "license_date": "2022-11-28",
      "expire_date": "2027-11-30"
    },
    {
      "name": "食彩倶楽部セントラルキッチン",
      "name_kana": "ショクサイクラブセントラルキッチン",
      "business_type": "㉕ そうざい製造業",
      "address": "静岡県駿東郡小山町湯船字下原959-15",
      "lat": 35.384014,
      "lng": 138.965638,
      "geocoding_level": null,
      "phone": "0550757780",
      "license_no": "S57202200173",
      "license_date": "2022-12-15",
      "expire_date": "2029-11-30"
    },
    {
      "name": "勝永商店",
      "name_kana": "カツナガショウテン",
      "business_type": "③ 乳類販売業",
      "address": "静岡県駿東郡小山町須走２３８－４",
      "lat": 35.361605608,
      "lng": 138.868657181,
      "geocoding_level": 8,
      "phone": "0550-75-2015",
      "license_no": "",
      "license_date": null,
      "expire_date": null
    },
    {
      "name": "吉野屋商店",
      "name_kana": "ヨシノヤショウテン",
      "business_type": "③ 乳類販売業",
      "address": "静岡県駿東郡小山町須走３００－５５",
      "lat": 35.359457557,
      "lng": 138.873500561,
      "geocoding_level": 8,
      "phone": "0550-75-2119",
      "license_no": "",
      "license_date": null,
      "expire_date": null
    },
    {
      "name": "富士美華ホテル",
      "name_kana": "フジビカホテル",
      "business_type": "③ 乳類販売業",
      "address": "静岡県駿東郡小山町須走４９５－２０１",
      "lat": 35.349025349,
      "lng": 138.886614892,
      "geocoding_level": 8,
      "phone": "0550-75-1666",
      "license_no": "",
      "license_date": null,
      "expire_date": null
    },
    {
      "name": "華鳥",
      "name_kana": "ハナドリ",
      "business_type": "① 飲食店営業",
      "address": "静岡県駿東郡小山町中日向694 富士スピードウェイ　イベント会場",
      "lat": 35.372679,
      "lng": 138.930161,
      "geocoding_level": null,
      "phone": "0979337887",
      "license_no": "S57202300134",
      "license_date": "2023-10-20",
      "expire_date": "2028-11-30"
    },
    {
      "name": "小見山幸",
      "name_kana": "コミヤマミユキ",
      "business_type": "⑦ 野菜果物販売業",
      "address": "静岡県駿東郡小山町桑木57-4",
      "lat": 35.321235,
      "lng": 138.976924,
      "geocoding_level": null,
      "phone": "",
      "license_no": "",
      "license_date": null,
      "expire_date": null
    },
    {
      "name": "D&S catering world",
      "name_kana": "ディーアンドエスケータリングワールド",
      "business_type": "① 飲食店営業",
      "address": "静岡県駿東郡小山町中日向６９４",
      "lat": 35.372679,
      "lng": 138.930161,
      "geocoding_level": null,
      "phone": "",
      "license_no": "S57202500096",
      "license_date": "2025-07-17",
      "expire_date": "2030-11-30"
    },
    {
      "name": "ローソン小山町わさび平店",
      "name_kana": "ローソンオヤマチョウワサビダイラテン",
      "business_type": "⑨ 通信販売・訪問販売による販売業",
      "address": "静岡県駿東郡小山町用沢字北出口1389-1",
      "lat": 35.3529,
      "lng": 138.917764,
      "geocoding_level": null,
      "phone": "",
      "license_no": "",
      "license_date": null,
      "expire_date": null
    },
    {
      "name": "クラフトコーラヴィレッジ",
      "name_kana": "クラフトコーラヴィレッジ",
      "business_type": "① 飲食店営業",
      "address": "静岡県駿東郡小山町中日向 県保健所管内一円",
      "lat": 35.381974,
      "lng": 138.932878,
      "geocoding_level": null,
      "phone": "",
      "license_no": "S57202300100",
      "license_date": "2023-08-18",
      "expire_date": "2028-11-30"
    },
    {
      "name": "菜の花こども園",
      "name_kana": "ナノハナコドモエン",
      "business_type": "㉖ 集団給食施設",
      "address": "静岡県駿東郡小山町竹之下570-1",
      "lat": 35.332264,
      "lng": 138.974336,
      "geocoding_level": null,
      "phone": "0550-76-6622",
      "license_no": "",
      "license_date": null,
      "expire_date": null
    },
    {
      "name": "茶楼　KISURIN",
      "name_kana": "チャロウ　キスリン",
      "business_type": "① 飲食店営業",
      "address": "静岡県駿東郡小山町大御神121-28",
      "lat": 35.377427,
      "lng": 138.905172,
      "geocoding_level": null,
      "phone": "",
      "license_no": "S57202600008",
      "license_date": "2026-05-18",
      "expire_date": "2032-11-30"
    },
    {
      "name": "豊洲まぐろ問屋　虎市",
      "name_kana": "トヨスマグロドンヤ　トライチ",
      "business_type": "① 飲食店営業",
      "address": "静岡県駿東郡小山町大御神121-28",
      "lat": 35.377427,
      "lng": 138.905172,
      "geocoding_level": null,
      "phone": "",
      "license_no": "S57202600007",
      "license_date": "2026-05-18",
      "expire_date": "2032-11-30"
    },
    {
      "name": "umi",
      "name_kana": "ウミ",
      "business_type": "⑪ 菓子製造業",
      "address": "静岡県駿東郡小山町菅沼896-1",
      "lat": 35.358558,
      "lng": 138.982016,
      "geocoding_level": null,
      "phone": "08032223313",
      "license_no": "S57202300020",
      "license_date": "2023-04-24",
      "expire_date": "2028-11-30"
    },
    {
      "name": "陸上自衛隊富士駐屯地食堂",
      "name_kana": "リクジョウジエイタイフジチュウトンチショクドウ",
      "business_type": "① 飲食店営業",
      "address": "静岡県駿東郡小山町須走４８１－２７",
      "lat": 35.354906,
      "lng": 138.862778,
      "geocoding_level": null,
      "phone": "",
      "license_no": "S57202200204",
      "license_date": "2023-03-22",
      "expire_date": "2029-11-30"
    },
    {
      "name": "小山町町民いこいの家「あしがら温泉」",
      "name_kana": "オヤマチョウチョウインイコイノイエアシガラオンセン",
      "business_type": "⑥ 弁当販売業",
      "address": "静岡県駿東郡小山町竹之下456-1",
      "lat": 35.327638,
      "lng": 138.973043,
      "geocoding_level": null,
      "phone": "0550-76-7000",
      "license_no": "",
      "license_date": null,
      "expire_date": null
    },
    {
      "name": "フォルモサキッチン",
      "name_kana": "フォルモサキッチン",
      "business_type": "① 飲食店営業",
      "address": "静岡県駿東郡小山町中日向694 富士スピードウェイ",
      "lat": 35.372679,
      "lng": 138.930161,
      "geocoding_level": null,
      "phone": "09047587740",
      "license_no": "S57202300003",
      "license_date": "2023-04-07",
      "expire_date": "2028-11-30"
    },
    {
      "name": "ダイヤモンド酒場",
      "name_kana": "ダイヤモンドサカバ",
      "business_type": "① 飲食店営業",
      "address": "静岡県駿東郡小山町中日向694",
      "lat": 35.372679,
      "lng": 138.930161,
      "geocoding_level": null,
      "phone": "09056249220",
      "license_no": "S57202300196",
      "license_date": "2023-12-22",
      "expire_date": "2029-11-30"
    },
    {
      "name": "ダーチブラウチ",
      "name_kana": "ダーチブラウチ",
      "business_type": "① 飲食店営業",
      "address": "静岡県駿東郡小山町中日向６９４",
      "lat": 35.372679,
      "lng": 138.930161,
      "geocoding_level": null,
      "phone": "",
      "license_no": "S57202300010",
      "license_date": "2023-04-19",
      "expire_date": "2028-11-30"
    },
    {
      "name": "ＨＯＷ富士小山病院売店",
      "name_kana": "ハウフジオヤマビョウインバイテン",
      "business_type": "⑩ コンビニエンスストア",
      "address": "静岡県駿東郡小山町用沢４３７－１",
      "lat": 35.34963,
      "lng": 138.945515,
      "geocoding_level": null,
      "phone": "",
      "license_no": "",
      "license_date": null,
      "expire_date": null
    },
    {
      "name": "味乃大久保",
      "name_kana": "アジノオオクボ",
      "business_type": "① 飲食店営業",
      "address": "静岡県駿東郡小山町中日向694",
      "lat": 35.372679,
      "lng": 138.930161,
      "geocoding_level": null,
      "phone": "0463-75-2522",
      "license_no": "S57202300040",
      "license_date": "2023-06-13",
      "expire_date": "2028-11-30"
    },
    {
      "name": "Ｔｉｇｅｒ　Ｆｏｏｄ　Ｃａｒ",
      "name_kana": "タイガーフードカー",
      "business_type": "① 飲食店営業",
      "address": "静岡県駿東郡小山町中日向698 富士スピードウェイ",
      "lat": 35.381974,
      "lng": 138.932878,
      "geocoding_level": null,
      "phone": "",
      "license_no": "S57202400033",
      "license_date": "2024-05-17",
      "expire_date": "2029-11-30"
    },
    {
      "name": "SMILE KITCHEN（テント）",
      "name_kana": "スマイルキッチンテント",
      "business_type": "① 飲食店営業",
      "address": "静岡県駿東郡小山町中日向県保健所管内一円",
      "lat": 35.381974,
      "lng": 138.932878,
      "geocoding_level": null,
      "phone": "",
      "license_no": "S57202500004",
      "license_date": "2025-04-02",
      "expire_date": "2030-11-30"
    },
    {
      "name": "SMILEKITCHEN（キッチンカー）",
      "name_kana": "スマイルキッチンキッチンカー",
      "business_type": "① 飲食店営業",
      "address": "静岡県駿東郡小山町中日向694",
      "lat": 35.372679,
      "lng": 138.930161,
      "geocoding_level": null,
      "phone": "",
      "license_no": "S57202500003",
      "license_date": "2025-04-02",
      "expire_date": "2030-11-30"
    },
    {
      "name": "季節屋",
      "name_kana": "キセツヤ",
      "business_type": "① 飲食店営業",
      "address": "静岡県駿東郡小山町中日向694",
      "lat": 35.372679,
      "lng": 138.930161,
      "geocoding_level": null,
      "phone": "",
      "license_no": "S57202300043",
      "license_date": "2023-06-13",
      "expire_date": "2028-11-30"
    },
    {
      "name": "ナザルケバブ",
      "name_kana": "ナザルケバブ",
      "business_type": "① 飲食店営業",
      "address": "静岡県駿東郡小山町中日向694",
      "lat": 35.372679,
      "lng": 138.930161,
      "geocoding_level": null,
      "phone": "0550781234",
      "license_no": "S57202300055",
      "license_date": "2023-06-28",
      "expire_date": "2028-11-30"
    },
    {
      "name": "株式会社ナザルケバブ",
      "name_kana": "カブシキカイシャナザルケバブ",
      "business_type": "① 飲食店営業",
      "address": "静岡県駿東郡小山町中日向694",
      "lat": 35.372679,
      "lng": 138.930161,
      "geocoding_level": null,
      "phone": "048-812-7856",
      "license_no": "S57202500034",
      "license_date": "2025-04-23",
      "expire_date": "2030-11-30"
    },
    {
      "name": "YGGDRASILBREWING",
      "name_kana": "イグドラジルブルーイング",
      "business_type": "① 飲食店営業",
      "address": "静岡県駿東郡小山町中日向県保健所管内一円",
      "lat": 35.381974,
      "lng": 138.932878,
      "geocoding_level": null,
      "phone": "09085140853",
      "license_no": "S57202300057",
      "license_date": "2023-06-29",
      "expire_date": "2028-11-30"
    },
    {
      "name": "榮登庵",
      "name_kana": "エイドリアン",
      "business_type": "① 飲食店営業",
      "address": "静岡県駿東郡小山町中日向694",
      "lat": 35.372679,
      "lng": 138.930161,
      "geocoding_level": null,
      "phone": "",
      "license_no": "S57202300062",
      "license_date": "2023-07-03",
      "expire_date": "2028-11-30"
    },
    {
      "name": "Chronic Burger",
      "name_kana": "クロニックバーガー",
      "business_type": "① 飲食店営業",
      "address": "静岡県駿東郡小山町中日向694",
      "lat": 35.372679,
      "lng": 138.930161,
      "geocoding_level": null,
      "phone": "",
      "license_no": "S57202300086",
      "license_date": "2023-07-27",
      "expire_date": "2028-11-30"
    },
    {
      "name": "中華　味一",
      "name_kana": "チュウカ　アジイチ",
      "business_type": "① 飲食店営業",
      "address": "静岡県駿東郡小山町中日向県保健所管内一円",
      "lat": 35.381974,
      "lng": 138.932878,
      "geocoding_level": null,
      "phone": "",
      "license_no": "S57202600016",
      "license_date": "2026-04-30",
      "expire_date": "2031-11-30"
    },