{
  "meta": {
    "updated": 1783568789,
    "sources": [
      {
        "source": "厚生労働省 食品衛生申請等システム（オープンデータ）",
        "license": "公共データ利用規約（第1.0版, PDL1.0）"
      }
    ]
  },
  "data": [
    {
      "name": "ドラッグストア　マツモトキヨシ瀬戸内店",
      "name_kana": "ドラッグストア　マツモトキヨシセトウチテン",
      "business_type": "⑬ その他の食料・飲料販売業",
      "address": "鹿児島県大島郡瀬戸内町古仁屋字下間原15-1",
      "lat": 28.14639,
      "lng": 129.306429,
      "geocoding_level": null,
      "phone": "0997737117",
      "license_no": "",
      "license_date": null,
      "expire_date": null
    },
    {
      "name": "瀬戸内漁協直販店　海力",
      "name_kana": "セトウチギョキョウチョクハンテン　カイリキ",
      "business_type": "⑬ その他の食料・飲料販売業",
      "address": "鹿児島県大島郡瀬戸内町古仁屋大湊２６番地１４",
      "lat": 28.14674,
      "lng": 129.308299,
      "geocoding_level": null,
      "phone": "0997721596",
      "license_no": "",
      "license_date": null,
      "expire_date": null
    },
    {
      "name": "カケロマコーヒーファーム",
      "name_kana": "カケロマコーヒーファーム",
      "business_type": "⑯ コーヒー製造・加工業（飲料の製造を除く。）",
      "address": "鹿児島県大島郡瀬戸内町伊子茂193-3",
      "lat": 28.108399,
      "lng": 129.243272,
      "geocoding_level": null,
      "phone": "09020687734",
      "license_no": "",
      "license_date": null,
      "expire_date": null
    },
    {
      "name": "irロirロ",
      "name_kana": "イロイロ",
      "business_type": "③ 乳類販売業",
      "address": "鹿児島県大島郡瀬戸内町手安904-5",
      "lat": 28.149602,
      "lng": 129.303796,
      "geocoding_level": null,
      "phone": "07076589567",
      "license_no": "",
      "license_date": null,
      "expire_date": null
    },
    {
      "name": "irロirロ",
      "name_kana": "イロイロ",
      "business_type": "⑥ 弁当販売業",
      "address": "鹿児島県大島郡瀬戸内町手安904-5",
      "lat": 28.149602,
      "lng": 129.303796,
      "geocoding_level": null,
      "phone": "07076589567",
      "license_no": "",
      "license_date": null,
      "expire_date": null
    },
    {
      "name": "irロirロ",
      "name_kana": "イロイロ",
      "business_type": "⑦ 野菜果物販売業",
      "address": "鹿児島県大島郡瀬戸内町手安904-5",
      "lat": 28.149602,
      "lng": 129.303796,
      "geocoding_level": null,
      "phone": "07076589567",
      "license_no": "",
      "license_date": null,
      "expire_date": null
    },
    {
      "name": "タイケイ製糖合同会社",
      "name_kana": "タイケイセイトウゴウドウガイシャ",
      "business_type": "⑱ 調味料製造・加工業",
      "address": "鹿児島県大島郡瀬戸内町野見山411",
      "lat": 28.09577,
      "lng": 129.29727,
      "geocoding_level": null,
      "phone": "",
      "license_no": "",
      "license_date": null,
      "expire_date": null
    },
    {
      "name": "タイケイ製糖合同会社",
      "name_kana": "タイケイセイトウゴウドウガイシャ",
      "business_type": "⑲ 糖類製造・加工業",
      "address": "鹿児島県大島郡瀬戸内町野見山411",
      "lat": 28.09577,
      "lng": 129.29727,
      "geocoding_level": null,
      "phone": "",
      "license_no": "",
      "license_date": null,
      "expire_date": null
    },
    {
      "name": "タイケイ製糖合同会社",
      "name_kana": "タイケイセイトウゴウドウガイシャ",
      "business_type": "⑱ 調味料製造・加工業",
      "address": "鹿児島県大島郡瀬戸内町古仁屋船津３１",
      "lat": 28.145435,
      "lng": 129.314424,
      "geocoding_level": null,
      "phone": "",
      "license_no": "",
      "license_date": null,
      "expire_date": null
    },
    {
      "name": "タイケイ製糖合同会社",
      "name_kana": "タイケイセイトウゴウドウガイシャ",
      "business_type": "⑲ 糖類製造・加工業",
      "address": "鹿児島県大島郡瀬戸内町古仁屋船津３１",
      "lat": 28.145435,
      "lng": 129.314424,
      "geocoding_level": null,
      "phone": "",
      "license_no": "",
      "license_date": null,
      "expire_date": null
    },
    {
      "name": "タイケイ製糖合同会社",
      "name_kana": "タイケイセイトウゴウドウガイシャ",
      "business_type": "⑨ 通信販売・訪問販売による販売業",
      "address": "鹿児島県大島郡瀬戸内町古仁屋１９０−１２",
      "lat": 28.157564,
      "lng": 129.318029,
      "geocoding_level": null,
      "phone": "",
      "license_no": "",
      "license_date": null,
      "expire_date": null
    },
    {
      "name": "タイケイ製糖合同会社",
      "name_kana": "タイケイセイトウゴウドウガイシャ",
      "business_type": "⑬ その他の食料・飲料販売業",
      "address": "鹿児島県大島郡瀬戸内町古仁屋１９０−１２",
      "lat": 28.157564,
      "lng": 129.318029,
      "geocoding_level": null,
      "phone": "",
      "license_no": "",
      "license_date": null,
      "expire_date": null
    },
    {
      "name": "タイケイ製糖合同会社",
      "name_kana": "タイケイセイトウゴウドウガイシャ",
      "business_type": "⑲ 糖類製造・加工業",
      "address": "鹿児島県大島郡瀬戸内町古仁屋１９０−１２",
      "lat": 28.157564,
      "lng": 129.318029,
      "geocoding_level": null,
      "phone": "",
      "license_no": "",
      "license_date": null,
      "expire_date": null
    },
    {
      "name": "西古見GATE",
      "name_kana": "ニシコミゲート",
      "business_type": "② 食肉販売業（包装済みの食肉のみの販売）",
      "address": "鹿児島県大島郡瀬戸内町西古見265",
      "lat": 28.24244,
      "lng": 129.175425,
      "geocoding_level": null,
      "phone": "",
      "license_no": "",
      "license_date": null,
      "expire_date": null
    },
    {
      "name": "西古見GATE",
      "name_kana": "ニシコミゲート",
      "business_type": "④ 氷雪販売業",
      "address": "鹿児島県大島郡瀬戸内町西古見265",
      "lat": 28.24244,
      "lng": 129.175425,
      "geocoding_level": null,
      "phone": "",
      "license_no": "",
      "license_date": null,
      "expire_date": null
    },
    {
      "name": "西古見GATE",
      "name_kana": "ニシコミゲート",
      "business_type": "㉔ その他の食料品製造・加工業",
      "address": "鹿児島県大島郡瀬戸内町西古見265",
      "lat": 28.24244,
      "lng": 129.175425,
      "geocoding_level": null,
      "phone": "",
      "license_no": "",
      "license_date": null,
      "expire_date": null
    }
  ]
}
