{
  "meta": {
    "updated": 1783568789,
    "sources": [
      {
        "source": "厚生労働省 食品衛生申請等システム（オープンデータ）",
        "license": "公共データ利用規約（第1.0版, PDL1.0）"
      }
    ]
  },
  "data": [
    {
      "name": "Aコープ諸塚店",
      "name_kana": "エーコープモロツカテン",
      "business_type": "① 魚介類販売業（包装済みの魚介類のみの販売）",
      "address": "宮崎県東臼杵郡諸塚村家代4336番地6",
      "lat": 32.510373,
      "lng": 131.331363,
      "geocoding_level": null,
      "phone": "0982-65-0422",
      "license_no": "",
      "license_date": null,
      "expire_date": null
    },
    {
      "name": "Aコープ諸塚店",
      "name_kana": "エーコープモロツカテン",
      "business_type": "② 食肉販売業（包装済みの食肉のみの販売）",
      "address": "宮崎県東臼杵郡諸塚村家代4336番地6",
      "lat": 32.510373,
      "lng": 131.331363,
      "geocoding_level": null,
      "phone": "0982-65-0422",
      "license_no": "",
      "license_date": null,
      "expire_date": null
    },
    {
      "name": "Aコープ諸塚店",
      "name_kana": "エーコープモロツカテン",
      "business_type": "③ 乳類販売業",
      "address": "宮崎県東臼杵郡諸塚村家代4336番地6",
      "lat": 32.510373,
      "lng": 131.331363,
      "geocoding_level": null,
      "phone": "0982-65-0422",
      "license_no": "",
      "license_date": null,
      "expire_date": null
    },
    {
      "name": "Aコープ諸塚店",
      "name_kana": "エーコープモロツカテン",
      "business_type": "⑦ 野菜果物販売業",
      "address": "宮崎県東臼杵郡諸塚村家代4336番地6",
      "lat": 32.510373,
      "lng": 131.331363,
      "geocoding_level": null,
      "phone": "0982-65-0422",
      "license_no": "",
      "license_date": null,
      "expire_date": null
    },
    {
      "name": "Aコープ諸塚店",
      "name_kana": "エーコープモロツカテン",
      "business_type": "⑪ 百貨店、総合スーパー",
      "address": "宮崎県東臼杵郡諸塚村家代4336番地6",
      "lat": 32.510373,
      "lng": 131.331363,
      "geocoding_level": null,
      "phone": "0982-65-0422",
      "license_no": "",
      "license_date": null,
      "expire_date": null
    },
    {
      "name": "Aコープ諸塚店",
      "name_kana": "エーコープモロツカテン",
      "business_type": "㉕ 行商",
      "address": "宮崎県東臼杵郡諸塚村家代4336番地6",
      "lat": 32.510373,
      "lng": 131.331363,
      "geocoding_level": null,
      "phone": "0982-65-0422",
      "license_no": "",
      "license_date": null,
      "expire_date": null
    },
    {
      "name": "もろっこはうす",
      "name_kana": "モロッコハウス",
      "business_type": "⑧ 米穀類販売業",
      "address": "宮崎県東臼杵郡諸塚村家代2640番地3",
      "lat": 32.509839,
      "lng": 131.331354,
      "geocoding_level": null,
      "phone": "0982650264",
      "license_no": "",
      "license_date": null,
      "expire_date": null
    },
    {
      "name": "もろっこはうす",
      "name_kana": "モロッコハウス",
      "business_type": "② 食肉販売業（包装済みの食肉のみの販売）",
      "address": "宮崎県東臼杵郡諸塚村家代2640番地3",
      "lat": 32.509839,
      "lng": 131.331354,
      "geocoding_level": null,
      "phone": "0982650264",
      "license_no": "",
      "license_date": null,
      "expire_date": null
    },
    {
      "name": "もろっこはうす",
      "name_kana": "モロッコハウス",
      "business_type": "① 魚介類販売業（包装済みの魚介類のみの販売）",
      "address": "宮崎県東臼杵郡諸塚村家代2640番地3",
      "lat": 32.509839,
      "lng": 131.331354,
      "geocoding_level": null,
      "phone": "0982650264",
      "license_no": "",
      "license_date": null,
      "expire_date": null
    },
    {
      "name": "もろっこはうす",
      "name_kana": "モロッコハウス",
      "business_type": "⑦ 野菜果物販売業",
      "address": "宮崎県東臼杵郡諸塚村家代2640番地3",
      "lat": 32.509839,
      "lng": 131.331354,
      "geocoding_level": null,
      "phone": "0982650264",
      "license_no": "",
      "license_date": null,
      "expire_date": null
    },
    {
      "name": "もろっこはうす",
      "name_kana": "モロッコハウス",
      "business_type": "⑬ その他の食料・飲料販売業",
      "address": "宮崎県東臼杵郡諸塚村家代2640番地3",
      "lat": 32.509839,
      "lng": 131.331354,
      "geocoding_level": null,
      "phone": "0982650264",
      "license_no": "",
      "license_date": null,
      "expire_date": null
    },
    {
      "name": "もろっこはうす",
      "name_kana": "モロッコハウス",
      "business_type": "㉕ 行商",
      "address": "宮崎県東臼杵郡諸塚村家代2640番地3",
      "lat": 32.509839,
      "lng": 131.331354,
      "geocoding_level": null,
      "phone": "0982650264",
      "license_no": "",
      "license_date": null,
      "expire_date": null
    },
    {
      "name": "もろっこはうす",
      "name_kana": "モロッコハウス",
      "business_type": "③ 食肉販売業",
      "address": "宮崎県東臼杵郡諸塚村家代2640-3",
      "lat": 32.509839,
      "lng": 131.331354,
      "geocoding_level": null,
      "phone": "0982-65-0264",
      "license_no": "４０４６－３４－４",
      "license_date": "2022-03-01",
      "expire_date": "2028-02-29"
    },
    {
      "name": "諸塚地区釜茶加工施設",
      "name_kana": "モロツカチクカマチャカコウシセツ",
      "business_type": "㉑ 製茶業",
      "address": "宮崎県東臼杵郡諸塚村大字家代4405番地",
      "lat": 32.511084,
      "lng": 131.340476,
      "geocoding_level": null,
      "phone": "0982-65-1250",
      "license_no": "",
      "license_date": null,
      "expire_date": null
    },
    {
      "name": "創香",
      "name_kana": "ソウコ",
      "business_type": "① 飲食店営業",
      "address": "宮崎県東臼杵郡諸塚村大字家代2640-11",
      "lat": 32.510306,
      "lng": 131.331092,
      "geocoding_level": null,
      "phone": "0982-65-0939",
      "license_no": "４０４６－２－２５",
      "license_date": "2021-09-01",
      "expire_date": "2027-08-31"
    },
    {
      "name": "矢高香代子",
      "name_kana": "ヤタカカヨコ",
      "business_type": "② 食肉販売業（包装済みの食肉のみの販売）",
      "address": "宮崎県東臼杵郡諸塚村七ツ山5924",
      "lat": 32.573415,
      "lng": 131.31648,
      "geocoding_level": null,
      "phone": "090-1167-8623",
      "license_no": "",
      "license_date": null,
      "expire_date": null
    },
    {
      "name": "矢高香代子",
      "name_kana": "ヤタカカヨコ",
      "business_type": "㉔ その他の食料品製造・加工業",
      "address": "宮崎県東臼杵郡諸塚村七ツ山5924",
      "lat": 32.573365,
      "lng": 131.316465,
      "geocoding_level": null,
      "phone": "090-1167-8623",
      "license_no": "",
      "license_date": null,
      "expire_date": null
    },
    {
      "name": "もろつかストア",
      "name_kana": "モロツカストア",
      "business_type": "⑪ 百貨店、総合スーパー",
      "address": "宮崎県東臼杵郡諸塚村家代3068番地",
      "lat": 32.517499,
      "lng": 131.33631,
      "geocoding_level": null,
      "phone": "",
      "license_no": "",
      "license_date": null,
      "expire_date": null
    },
    {
      "name": "ファミリーマート諸塚店",
      "name_kana": "ファミリーマートモロツカテン",
      "business_type": "① 飲食店営業",
      "address": "宮崎県東臼杵郡諸塚村家代2639-15",
      "lat": 32.510193,
      "lng": 131.330602,
      "geocoding_level": null,
      "phone": "0982-68-5055",
      "license_no": "４０４６－１－４２",
      "license_date": "2021-10-26",
      "expire_date": "2027-11-30"
    },
    {
      "name": "ファミリーマート諸塚店",
      "name_kana": "ファミリーマートモロツカテン",
      "business_type": "⑩ コンビニエンスストア",
      "address": "宮崎県東臼杵郡諸塚村家代2639-15",
      "lat": 32.510193,
      "lng": 131.330602,
      "geocoding_level": null,
      "phone": "0982-68-5055",
      "license_no": "",
      "license_date": null,
      "expire_date": null
    },
    {
      "name": "食品加工施設",
      "name_kana": "ショクヒンカコウシセツ",
      "business_type": "① 飲食店営業",
      "address": "宮崎県東臼杵郡諸塚村大字家代2639-13",
      "lat": 32.510036,
      "lng": 131.330929,
      "geocoding_level": null,
      "phone": "080-1710-9945",
      "license_no": "４０４６－１－７７",
      "license_date": "2022-07-22",
      "expire_date": "2028-08-31"
    },
    {
      "name": "食品加工施設",
      "name_kana": "ショクヒンカコウシセツ",
      "business_type": "③ 食肉販売業",
      "address": "宮崎県東臼杵郡諸塚村大字家代2639-13",
      "lat": 32.510036,
      "lng": 131.330929,
      "geocoding_level": null,
      "phone": "080-1710-9945",
      "license_no": "４０４６－２３－７",
      "license_date": "2022-12-05",
      "expire_date": "2029-02-28"
    },
    {
      "name": "食品加工施設",
      "name_kana": "ショクヒンカコウシセツ",
      "business_type": "㉗ 冷凍食品製造業",
      "address": "宮崎県東臼杵郡諸塚村大字家代2639-13",
      "lat": 32.510036,
      "lng": 131.330929,
      "geocoding_level": null,
      "phone": "080-1710-9945",
      "license_no": "４０４６－３３－２",
      "license_date": "2022-12-05",
      "expire_date": "2029-02-28"
    },
    {
      "name": "食品加工施設",
      "name_kana": "ショクヒンカコウシセツ",
      "business_type": "㉕ そうざい製造業",
      "address": "宮崎県東臼杵郡諸塚村大字家代2639-13",
      "lat": 32.510036,
      "lng": 131.330929,
      "geocoding_level": null,
      "phone": "080-1710-9945",
      "license_no": "４０４６－５５－２３",
      "license_date": "2022-12-05",
      "expire_date": "2029-02-28"
    },
    {
      "name": "酒場　こおろぎ",
      "name_kana": "サカバコオロギ",
      "business_type": "① 飲食店営業",
      "address": "宮崎県東臼杵郡諸塚村大字家代4337-1",
      "lat": 32.508203,
      "lng": 131.332982,
      "geocoding_level": null,
      "phone": "090-8392-1943",
      "license_no": "４０４６－２－５２",
      "license_date": "2021-12-01",
      "expire_date": "2027-11-30"
    },
    {
      "name": "ど～の",
      "name_kana": "ドーノ",
      "business_type": "⑪ 菓子製造業",
      "address": "宮崎県東臼杵郡諸塚村大字七ツ山4014",
      "lat": 32.579981,
      "lng": 131.236782,
      "geocoding_level": null,
      "phone": "080-5216-9601",
      "license_no": "４０４６－１１－３",
      "license_date": "2021-12-01",
      "expire_date": "2027-11-30"
    },
    {
      "name": "綟川　千冬子",
      "name_kana": "モジカワチトコ",
      "business_type": "㉔ その他の食料品製造・加工業",
      "address": "宮崎県東臼杵郡諸塚村大字家代6008-1",
      "lat": 32.517873,
      "lng": 131.351086,
      "geocoding_level": null,
      "phone": "080-2714-9975",
      "license_no": "",
      "license_date": null,
      "expire_date": null
    },
    {
      "name": "もうが春",
      "name_kana": "モウガハル",
      "business_type": "㉔ その他の食料品製造・加工業",
      "address": "宮崎県東臼杵郡諸塚村七ツ山3641",
      "lat": 32.57387,
      "lng": 131.255048,
      "geocoding_level": null,
      "phone": "0982-65-4418",
      "license_no": "",
      "license_date": null,
      "expire_date": null
    },
    {
      "name": "もうが春",
      "name_kana": "モウガハル",
      "business_type": "㉕ 行商",
      "address": "宮崎県東臼杵郡諸塚村七ツ山3641（県内一円）",
      "lat": 32.57387,
      "lng": 131.255048,
      "geocoding_level": null,
      "phone": "0982-65-4418",
      "license_no": "",
      "license_date": null,
      "expire_date": null
    },
    {
      "name": "もうが春",
      "name_kana": "モウガハル",
      "business_type": "⑪ 菓子製造業",
      "address": "宮崎県東臼杵郡諸塚村大字七ツ山3641",
      "lat": 32.57387,
      "lng": 131.255048,
      "geocoding_level": null,
      "phone": "0982-65-4418",
      "license_no": "４０４６－１１－５",
      "license_date": "2022-03-01",
      "expire_date": "2028-02-29"
    },
    {
      "name": "もうが春",
      "name_kana": "モウガハル",
      "business_type": "㉕ そうざい製造業",
      "address": "宮崎県東臼杵郡諸塚村大字七ツ山3641",
      "lat": 32.57387,
      "lng": 131.255048,
      "geocoding_level": null,
      "phone": "0982-65-4418",
      "license_no": "４０４６－７４－７",
      "license_date": "2022-03-01",
      "expire_date": "2028-02-29"
    },
    {
      "name": "もうが春",
      "name_kana": "モウガハル",
      "business_type": "㉙ 漬物製造業",
      "address": "宮崎県東臼杵郡諸塚村大字七ツ山3641",
      "lat": 32.57387,
      "lng": 131.255048,
      "geocoding_level": null,
      "phone": "0982-65-4418",
      "license_no": "４０４６－８６－９",
      "license_date": "2022-02-15",
      "expire_date": "2028-02-29"
    },
    {
      "name": "やかた婦人",
      "name_kana": "ヤカタフジン",
      "business_type": "⑪ 菓子製造業",
      "address": "宮崎県東臼杵郡諸塚村大字家代4324",
      "lat": 32.513921,
      "lng": 131.33539,
      "geocoding_level": null,
      "phone": "0982-65-1084",
      "license_no": "４０４６－１１－８",
      "license_date": "2022-03-01",
      "expire_date": "2028-02-29"
    },
    {
      "name": "やかた婦人",
      "name_kana": "ヤカタフジン",
      "business_type": "㉕ そうざい製造業",
      "address": "宮崎県東臼杵郡諸塚村大字家代4324",
      "lat": 32.513921,
      "lng": 131.33539,
      "geocoding_level": null,
      "phone": "0982-65-1084",
      "license_no": "４０４６－７４－１０",
      "license_date": "2022-03-01",
      "expire_date": "2028-02-29"
    },
    {
      "name": "やかた婦人",
      "name_kana": "ヤカタフジン",
      "business_type": "㉚ 密封包装食品製造業",
      "address": "宮崎県東臼杵郡諸塚村大字家代4324",
      "lat": 32.513921,
      "lng": 131.33539,
      "geocoding_level": null,
      "phone": "0982-65-1084",
      "license_no": "４０４６－９２－３",
      "license_date": "2022-03-01",
      "expire_date": "2028-02-29"
    },
    {
      "name": "どんぐりハウス",
      "name_kana": "ドングリハウス",
      "business_type": "⑪ 菓子製造業",
      "address": "宮崎県東臼杵郡諸塚村大字七ツ山7194-2",
      "lat": 32.587833,
      "lng": 131.322565,
      "geocoding_level": null,
      "phone": "0982-65-0107",
      "license_no": "４０４６－８－７",
      "license_date": "2022-05-18",
      "expire_date": "2028-05-31"
    },
    {
      "name": "どんぐりハウス",
      "name_kana": "ドングリハウス",
      "business_type": "㉕ そうざい製造業",
      "address": "宮崎県東臼杵郡諸塚村大字七ツ山7194-2",
      "lat": 32.587833,
      "lng": 131.322565,
      "geocoding_level": null,
      "phone": "0982-65-0107",
      "license_no": "４０４６－５５－６",
      "license_date": "2022-05-18",
      "expire_date": "2028-05-31"
    },
    {
      "name": "どんぐりハウス",
      "name_kana": "ドングリハウス",
      "business_type": "㉕ 行商",
      "address": "宮崎県東臼杵郡諸塚村大字七ツ山7194-2（県内一円）",
      "lat": 32.587833,
      "lng": 131.322565,
      "geocoding_level": null,
      "phone": "",
      "license_no": "",
      "license_date": null,
      "expire_date": null
    },
    {
      "name": "西田商店",
      "name_kana": "ニシダショウテン",
      "business_type": "① 魚介類販売業（包装済みの魚介類のみの販売）",
      "address": "宮崎県東臼杵郡諸塚村大字家代2938-1",
      "lat": 32.515305,
      "lng": 131.330591,
      "geocoding_level": null,
      "phone": "0982-65-0012",
      "license_no": "",
      "license_date": null,
      "expire_date": null
    },
    {
      "name": "西田商店",
      "name_kana": "ニシダショウテン",
      "business_type": "② 食肉販売業（包装済みの食肉のみの販売）",
      "address": "宮崎県東臼杵郡諸塚村大字家代2938-1",
      "lat": 32.515305,
      "lng": 131.330591,
      "geocoding_level": null,
      "phone": "0982-65-0012",
      "license_no": "",
      "license_date": null,
      "expire_date": null
    },
    {
      "name": "西田商店",
      "name_kana": "ニシダショウテン",
      "business_type": "③ 乳類販売業",
      "address": "宮崎県東臼杵郡諸塚村大字家代2938-1",
      "lat": 32.515305,
      "lng": 131.330591,
      "geocoding_level": null,
      "phone": "0982-65-0012",
      "license_no": "",
      "license_date": null,
      "expire_date": null
    },
    {
      "name": "西田商店",
      "name_kana": "ニシダショウテン",
      "business_type": "⑪ 百貨店、総合スーパー",
      "address": "宮崎県東臼杵郡諸塚村大字家代2938-1",
      "lat": 32.515305,
      "lng": 131.330591,
      "geocoding_level": null,
      "phone": "0982-65-0012",
      "license_no": "",
      "license_date": null,
      "expire_date": null
    },
    {
      "name": "もろつかこども園",
      "name_kana": "モロツカコドモエン",
      "business_type": "㉖ 集団給食施設",
      "address": "宮崎県東臼杵郡諸塚村大字家代3150-2",
      "lat": 32.518801,
      "lng": 131.333128,
      "geocoding_level": null,
      "phone": "0982-65-0044",
      "license_no": "",
      "license_date": null,
      "expire_date": null
    },
    {
      "name": "国民健康保険諸塚診療所",
      "name_kana": "コクミンケンコウホケンモロツカシンリョウショ",
      "business_type": "㉖ 集団給食施設",
      "address": "宮崎県東臼杵郡諸塚村大字家代3063",
      "lat": 32.516794,
      "lng": 131.335911,
      "geocoding_level": null,
      "phone": "0982-65-0140",
      "license_no": "",
      "license_date": null,
      "expire_date": null
    },
    {
      "name": "元気・四季を食べる　どんこ亭",
      "name_kana": "ゲンキ・シキヲタベル　ドンコテイ",
      "business_type": "㉕ 行商",
      "address": "宮崎県東臼杵郡諸塚村家代3068（県内一円）",
      "lat": 32.5175,
      "lng": 131.336319,
      "geocoding_level": null,
      "phone": "0982650178",
      "license_no": "",
      "license_date": null,
      "expire_date": null
    },
    {
      "name": "えくぼ亭",
      "name_kana": "エクボテイ",
      "business_type": "① 飲食店営業",
      "address": "宮崎県東臼杵郡諸塚村大字家代3574-2",
      "lat": 32.525059,
      "lng": 131.361964,
      "geocoding_level": null,
      "phone": "0982-65-0526",
      "license_no": "２４０４６－１－４５",
      "license_date": "2026-05-15",
      "expire_date": "2032-05-31"
    },
    {
      "name": "えくぼ亭",
      "name_kana": "エクボテイ",
      "business_type": "⑪ 菓子製造業",
      "address": "宮崎県東臼杵郡諸塚村大字家代3574-2",
      "lat": 32.525059,
      "lng": 131.361964,
      "geocoding_level": null,
      "phone": "0982-65-0526",
      "license_no": "２４０４６－８－５",
      "license_date": "2026-05-15",
      "expire_date": "2032-05-31"
    },
    {
      "name": "黒岳会",
      "name_kana": "クロダケカイ",
      "business_type": "⑪ 菓子製造業",
      "address": "宮崎県東臼杵郡諸塚村大字七ツ山4015",
      "lat": 32.580166,
      "lng": 131.236787,
      "geocoding_level": null,
      "phone": "0982-65-4010",
      "license_no": "４０４６－８－２２",
      "license_date": "2025-03-01",
      "expire_date": "2031-02-28"
    },
    {
      "name": "七ツ山解体施設",
      "name_kana": "ナナツヤマカイタイシセツ",
      "business_type": "⑨ 食肉処理業",
      "address": "宮崎県東臼杵郡諸塚村大字七ツ山2407-8",
      "lat": 32.56014,
      "lng": 131.281965,
      "geocoding_level": null,
      "phone": "0982-65-4183",
      "license_no": "４０４６－２１－１",
      "license_date": "2023-06-01",
      "expire_date": "2029-05-31"
    },
    {
      "name": "諸塚村立諸塚中学校",
      "name_kana": "モロツカソンリツモロツカチュウガッコウ",
      "business_type": "㉖ 集団給食施設",
      "address": "宮崎県東臼杵郡諸塚村大字家代3292番地",
      "lat": 32.521671,
      "lng": 131.340853,
      "geocoding_level": null,
      "phone": "0982-65-0013",
      "license_no": "",
      "license_date": null,
      "expire_date": null
    },
    {
      "name": "特別養護老人ホーム　もろつかせせらぎの里",
      "name_kana": "トクベツヨウゴロウジンホーム　モロツカセセラギノサト",
      "business_type": "㉖ 集団給食施設",
      "address": "宮崎県東臼杵郡諸塚村大字七ツ山54番地",
      "lat": 32.49327,
      "lng": 131.326524,
      "geocoding_level": null,
      "phone": "0982-65-1222",
      "license_no": "",
      "license_date": null,
      "expire_date": null
    },
    {
      "name": "宮崎県農業協同組合　諸塚椎茸共選場",
      "name_kana": "ミヤザキケンノウギョウキョウドウクミアイ　モロツカシイタケキョウセンジョウ",
      "business_type": "⑰ 農産保存食料品製造・加工業",
      "address": "宮崎県東臼杵郡諸塚村大字家代鶴の河原3314-1",
      "lat": 32.517873,
      "lng": 131.351086,
      "geocoding_level": null,
      "phone": "0982-65-0911",
      "license_no": "",
      "license_date": null,
      "expire_date": null
    },
    {
      "name": "戸下加工グループ",
      "name_kana": "トシタカコウグループ",
      "business_type": "㉕ 行商",
      "address": "宮崎県東臼杵郡諸塚村家代荒谷戸下（県内一円）",
      "lat": 32.492209,
      "lng": 131.383168,
      "geocoding_level": null,
      "phone": "",
      "license_no": "",
      "license_date": null,
      "expire_date": null
    },
    {
      "name": "農事組合法人えしろ",
      "name_kana": "ノウジクミアイホウジンエシロ",
      "business_type": "⑳ 精穀・製粉業",
      "address": "宮崎県東臼杵郡諸塚村家代3910番地",
      "lat": 32.517873,
      "lng": 131.351086,
      "geocoding_level": null,
      "phone": "",
      "license_no": "",
      "license_date": null,
      "expire_date": null
    },
    {
      "name": "農事組合法人えしろ",
      "name_kana": "ノウジクミアイホウジンエシロ",
      "business_type": "㉑ 製茶業",
      "address": "宮崎県東臼杵郡諸塚村家代3910番地",
      "lat": 32.517873,
      "lng": 131.351086,
      "geocoding_level": null,
      "phone": "",
      "license_no": "",
      "license_date": null,
      "expire_date": null
    },
    {
      "name": "iihi STORE",
      "name_kana": "イイヒ　ストア",
      "business_type": "⑯ コーヒー製造・加工業（飲料の製造を除く。）",
      "address": "宮崎県東臼杵郡諸塚村大字家代3278番地1",
      "lat": 32.519992,
      "lng": 131.341222,
      "geocoding_level": null,
      "phone": "0982-96-9989",
      "license_no": "",
      "license_date": null,
      "expire_date": null
    },
    {
      "name": "iihi STORE",
      "name_kana": "イイヒ　ストア",
      "business_type": "㉑ 製茶業",
      "address": "宮崎県東臼杵郡諸塚村大字家代3278番地1",
      "lat": 32.519992,
      "lng": 131.341222,
      "geocoding_level": null,
      "phone": "0982-96-9989",
      "license_no": "",
      "license_date": null,
      "expire_date": null
    },
    {
      "name": "iihi COFFEE",
      "name_kana": "イイヒコーヒー",
      "business_type": "① 飲食店営業",
      "address": "宮崎県東臼杵郡諸塚村大字家代3278-1 （県内一円）",
      "lat": 32.519992,
      "lng": 131.341222,
      "geocoding_level": null,
      "phone": "0982-96-9989",
      "license_no": "２４０４６－１－４６",
      "license_date": "2025-05-20",
      "expire_date": "2030-05-31"
    },
    {
      "name": "釜ノ前茶工場",
      "name_kana": "カマノマエチャコウバ",
      "business_type": "⑬ その他の食料・飲料販売業",
      "address": "宮崎県東臼杵郡諸塚村大字家代2306-1及び2",
      "lat": 32.519656,
      "lng": 131.320803,
      "geocoding_level": null,
      "phone": "",
      "license_no": "",
      "license_date": null,
      "expire_date": null
    },
    {
      "name": "釜ノ前茶工場",
      "name_kana": "カマノマエチャコウバ",
      "business_type": "㉑ 製茶業",
      "address": "宮崎県東臼杵郡諸塚村大字家代2306-1及び2",
      "lat": 32.519656,
      "lng": 131.320803,
      "geocoding_level": null,
      "phone": "",
      "license_no": "",
      "license_date": null,
      "expire_date": null
    },
    {
      "name": "釜ノ前茶工場",
      "name_kana": "カマノマエチャコウバ",
      "business_type": "㉔ その他の食料品製造・加工業",
      "address": "宮崎県東臼杵郡諸塚村大字家代2306-1及び2",
      "lat": 32.519656,
      "lng": 131.320803,
      "geocoding_level": null,
      "phone": "",
      "license_no": "",
      "license_date": null,
      "expire_date": null
    },
    {
      "name": "釜の前真空パック",
      "name_kana": "チャノマエシンクウパック",
      "business_type": "㉑ 製茶業",
      "address": "宮崎県東臼杵郡諸塚村大字家代2307番地",
      "lat": 32.519608,
      "lng": 131.320509,
      "geocoding_level": null,
      "phone": "0982-65-0201",
      "license_no": "",
      "license_date": null,
      "expire_date": null
    },
    {
      "name": "山本商店",
      "name_kana": "ヤマモトショウテン",
      "business_type": "① 魚介類販売業（包装済みの魚介類のみの販売）",
      "address": "宮崎県東臼杵郡諸塚村大字家代4978-1",
      "lat": 32.498912,
      "lng": 131.367394,
      "geocoding_level": null,
      "phone": "0982-65-0801",
      "license_no": "",
      "license_date": null,
      "expire_date": null
    },
    {
      "name": "山本商店",
      "name_kana": "ヤマモトショウテン",
      "business_type": "② 食肉販売業（包装済みの食肉のみの販売）",
      "address": "宮崎県東臼杵郡諸塚村大字家代4978-1",
      "lat": 32.498912,
      "lng": 131.367394,
      "geocoding_level": null,
      "phone": "0982-65-0801",
      "license_no": "",
      "license_date": null,
      "expire_date": null
    },
    {
      "name": "山本商店",
      "name_kana": "ヤマモトショウテン",
      "business_type": "③ 乳類販売業",
      "address": "宮崎県東臼杵郡諸塚村大字家代4978-1",
      "lat": 32.498912,
      "lng": 131.367394,
      "geocoding_level": null,
      "phone": "0982-65-0801",
      "license_no": "",
      "license_date": null,
      "expire_date": null
    },
    {
      "name": "山本商店",
      "name_kana": "ヤマモトショウテン",
      "business_type": "㉕ 行商",
      "address": "宮崎県東臼杵郡諸塚村大字家代4978-1",
      "lat": 32.498912,
      "lng": 131.367394,
      "geocoding_level": null,
      "phone": "0982-65-0801",
      "license_no": "",
      "license_date": null,
      "expire_date": null
    },
    {
      "name": "山本商店",
      "name_kana": "ヤマモトショウテン",
      "business_type": "⑬ その他の食料・飲料販売業",
      "address": "宮崎県東臼杵郡諸塚村大字家代4978-1",
      "lat": 32.498912,
      "lng": 131.367394,
      "geocoding_level": null,
      "phone": "0982-65-0801",
      "license_no": "",
      "license_date": null,
      "expire_date": null
    },
    {
      "name": "森の民宿　樹の里",
      "name_kana": "モリノミンシュクキノサト",
      "business_type": "㉕ 行商",
      "address": "宮崎県東臼杵郡諸塚村大字家代3296 (県内一円)",
      "lat": 32.521812,
      "lng": 131.34056,
      "geocoding_level": null,
      "phone": "0982-65-0694",
      "license_no": "",
      "license_date": null,
      "expire_date": null
    },
    {
      "name": "諸塚解体所",
      "name_kana": "モロツカカイタイショ",
      "business_type": "⑨ 食肉処理業",
      "address": "宮崎県東臼杵郡諸塚村大字家代4458",
      "lat": 32.51107,
      "lng": 131.341813,
      "geocoding_level": null,
      "phone": "",
      "license_no": "４０４６－２１－８",
      "license_date": "2023-03-01",
      "expire_date": "2029-02-28"
    },
    {
      "name": "きのさと",
      "name_kana": "キノサト",
      "business_type": "① 飲食店営業",
      "address": "宮崎県東臼杵郡諸塚村家代3296",
      "lat": 32.521812,
      "lng": 131.34056,
      "geocoding_level": null,
      "phone": "0982-65-0694",
      "license_no": "２４０４６－４－５",
      "license_date": "2026-05-25",
      "expire_date": "2032-05-31"
    },
    {
      "name": "松永農園",
      "name_kana": "マツナガノウエン",
      "business_type": "⑬ その他の食料・飲料販売業",
      "address": "宮崎県東臼杵郡諸塚村大字家代5272",
      "lat": 32.5201,
      "lng": 131.375498,
      "geocoding_level": null,
      "phone": "0982-65-0828",
      "license_no": "",
      "license_date": null,
      "expire_date": null
    },
    {
      "name": "甲斐　郁子",
      "name_kana": "カイフミコ",
      "business_type": "㉔ その他の食料品製造・加工業",
      "address": "宮崎県東臼杵郡諸塚村七ツ山3440番地",
      "lat": 32.57188,
      "lng": 131.267996,
      "geocoding_level": null,
      "phone": "090-3663-1203",
      "license_no": "",
      "license_date": null,
      "expire_date": null
    }
  ]
}
