{
  "meta": {
    "updated": 1783568789,
    "sources": [
      {
        "source": "厚生労働省 食品衛生申請等システム（オープンデータ）",
        "license": "公共データ利用規約（第1.0版, PDL1.0）"
      }
    ]
  },
  "data": [
    {
      "name": "ダイソー　イオン江北店",
      "name_kana": "ダイソー　イオンコウホクテン",
      "business_type": "⑬ その他の食料・飲料販売業",
      "address": "佐賀県杵島郡江北町大字山口字三本松二１２２３ イオン江北店１階",
      "lat": 33.238679,
      "lng": 130.150392,
      "geocoding_level": null,
      "phone": "",
      "license_no": "",
      "license_date": null,
      "expire_date": null
    },
    {
      "name": "ダイナム江北店",
      "name_kana": "ダイナムコウホクテン",
      "business_type": "⑤ コップ式自動販売機（自動洗浄・屋内設置）",
      "address": "佐賀県杵島郡江北町佐留志1996番地",
      "lat": 33.216405,
      "lng": 130.164396,
      "geocoding_level": null,
      "phone": "070-1455-9039",
      "license_no": "",
      "license_date": null,
      "expire_date": null
    },
    {
      "name": "ザ・ビッグ江北店",
      "name_kana": "ザ・ビッグコウホクテン",
      "business_type": "③ 乳類販売業",
      "address": "佐賀県杵島郡江北町山口三本松二1223",
      "lat": 33.238679,
      "lng": 130.150392,
      "geocoding_level": null,
      "phone": "0952-74-6011",
      "license_no": "",
      "license_date": null,
      "expire_date": null
    },
    {
      "name": "ザ・ビッグ江北店",
      "name_kana": "ザ・ビッグコウホクテン",
      "business_type": "⑪ 百貨店、総合スーパー",
      "address": "佐賀県杵島郡江北町山口三本松二1223",
      "lat": 33.238679,
      "lng": 130.150392,
      "geocoding_level": null,
      "phone": "0952-74-6011",
      "license_no": "",
      "license_date": null,
      "expire_date": null
    },
    {
      "name": "ザ・ビッグ江北店",
      "name_kana": "ザ・ビッグコウホクテン",
      "business_type": "⑫ 自動販売機による販売業（コップ式自動販売機（自動洗浄・屋内設置）及び営業許可の対象となる自動販売機を除く）",
      "address": "佐賀県杵島郡江北町山口三本松二1223",
      "lat": 33.238679,
      "lng": 130.150392,
      "geocoding_level": null,
      "phone": "0952-74-6011",
      "license_no": "",
      "license_date": null,
      "expire_date": null
    },
    {
      "name": "にこにこ青果江北店",
      "name_kana": "ニコニコセイカコウホクテン",
      "business_type": "⑦ 野菜果物販売業",
      "address": "佐賀県杵島郡江北町佐留志2070",
      "lat": 33.218654,
      "lng": 130.168185,
      "geocoding_level": null,
      "phone": "0952377146",
      "license_no": "",
      "license_date": null,
      "expire_date": null
    },
    {
      "name": "ドラッグコスモス江北店",
      "name_kana": "ドラッグコスモスコウホクテン",
      "business_type": "⑪ 百貨店、総合スーパー",
      "address": "佐賀県杵島郡江北町佐留志1942-1",
      "lat": 33.215566,
      "lng": 130.165042,
      "geocoding_level": null,
      "phone": "0952-71-6368",
      "license_no": "",
      "license_date": null,
      "expire_date": null
    },
    {
      "name": "武富",
      "name_kana": "タケドミ",
      "business_type": "㉔ その他の食料品製造・加工業",
      "address": "佐賀県杵島郡江北町下小田1252-2",
      "lat": 33.208431,
      "lng": 130.149252,
      "geocoding_level": null,
      "phone": "0952-86-4547",
      "license_no": "",
      "license_date": null,
      "expire_date": null
    },
    {
      "name": "江北町学校給食センター",
      "name_kana": "コウホクチョウガッコウキュウショクセンター",
      "business_type": "① 飲食店営業",
      "address": "佐賀県杵島郡江北町大字山口1184番地",
      "lat": 33.216019,
      "lng": 130.160012,
      "geocoding_level": null,
      "phone": "0952-71-6350",
      "license_no": "佐賀県指令6杵保福第496号",
      "license_date": "2025-03-19",
      "expire_date": "2031-08-31"
    },
    {
      "name": "江北町幼児教育センター",
      "name_kana": "コウホクチョウヨウジキョウイクセンター",
      "business_type": "① 飲食店営業",
      "address": "佐賀県杵島郡江北町大字山口1184番地",
      "lat": 33.216019,
      "lng": 130.160012,
      "geocoding_level": null,
      "phone": "0952-86-4350",
      "license_no": "佐賀県指令6杵保福第497号",
      "license_date": "2025-03-19",
      "expire_date": "2031-08-31"
    },
    {
      "name": "小田・手づくりみそ工房",
      "name_kana": "オダテズクリミソコウボウ",
      "business_type": "⑳ みそ又はしょうゆ製造業",
      "address": "佐賀県杵島郡江北町上小田１４００－１",
      "lat": 33.223455,
      "lng": 130.140773,
      "geocoding_level": null,
      "phone": "080-5251-4680",
      "license_no": "佐賀県指令４杵保福第４２号",
      "license_date": "2022-05-17",
      "expire_date": "2028-08-31"
    },
    {
      "name": "呼子かべしま直売所",
      "name_kana": "ヨブコカベシマチョクバイショ",
      "business_type": "⑯ 水産製品製造業",
      "address": "佐賀県杵島郡江北町大字山口２２番 さくせすＰＯＩＮＴ１０２",
      "lat": 33.210781,
      "lng": 130.152198,
      "geocoding_level": null,
      "phone": "",
      "license_no": "佐賀県指令４杵保福第１７７号",
      "license_date": "2022-06-10",
      "expire_date": "2028-08-31"
    },
    {
      "name": "呼子かべしま直売所",
      "name_kana": "ヨブコカベシマチョクバイショ",
      "business_type": "㉗ 冷凍食品製造業",
      "address": "佐賀県杵島郡江北町大字山口２２番 さくせすＰＯＩＮＴ１０２",
      "lat": 33.210781,
      "lng": 130.152198,
      "geocoding_level": null,
      "phone": "",
      "license_no": "佐賀県指令４杵保福第１７８号",
      "license_date": "2022-06-10",
      "expire_date": "2028-08-31"
    },
    {
      "name": "ひまわり",
      "name_kana": "ヒマワリ",
      "business_type": "① 魚介類販売業（包装済みの魚介類のみの販売）",
      "address": "佐賀県杵島郡江北町山口1625番2",
      "lat": 33.220156,
      "lng": 130.155211,
      "geocoding_level": null,
      "phone": "0952770803",
      "license_no": "",
      "license_date": null,
      "expire_date": null
    },
    {
      "name": "ひまわり",
      "name_kana": "ヒマワリ",
      "business_type": "② 食肉販売業（包装済みの食肉のみの販売）",
      "address": "佐賀県杵島郡江北町山口1625番2",
      "lat": 33.220156,
      "lng": 130.155211,
      "geocoding_level": null,
      "phone": "0952770803",
      "license_no": "",
      "license_date": null,
      "expire_date": null
    },
    {
      "name": "ひまわり",
      "name_kana": "ヒマワリ",
      "business_type": "㉔ その他の食料品製造・加工業",
      "address": "佐賀県杵島郡江北町山口1625番2",
      "lat": 33.220156,
      "lng": 130.155211,
      "geocoding_level": null,
      "phone": "0952770803",
      "license_no": "",
      "license_date": null,
      "expire_date": null
    },
    {
      "name": "有限会社　江北商会",
      "name_kana": "ユウゲンカイシャ　コウホクショウカイ",
      "business_type": "⑧ 米穀類販売業",
      "address": "佐賀県杵島郡江北町大字佐留志乾２１６６番地3",
      "lat": 33.210545,
      "lng": 130.168305,
      "geocoding_level": null,
      "phone": "0952862704",
      "license_no": "",
      "license_date": null,
      "expire_date": null
    },
    {
      "name": "特別養護老人ホームるんびに園",
      "name_kana": "トクベツヨウゴロウジンホームルンビニエン",
      "business_type": "㉖ 集団給食施設",
      "address": "佐賀県杵島郡江北町惣領分4153番地",
      "lat": 33.227522,
      "lng": 130.17666,
      "geocoding_level": null,
      "phone": "",
      "license_no": "",
      "license_date": null,
      "expire_date": null
    },
    {
      "name": "むげん",
      "name_kana": "ムゲン",
      "business_type": "① 飲食店営業",
      "address": "佐賀県杵島郡江北町大字惣領分３５６２－１",
      "lat": 33.215766,
      "lng": 130.181808,
      "geocoding_level": null,
      "phone": "0952-86-4400",
      "license_no": "佐賀県指令４杵保福第５１０号",
      "license_date": "2023-01-06",
      "expire_date": "2029-08-31"
    },
    {
      "name": "高野漬物店",
      "name_kana": "コウノツケモノテン",
      "business_type": "㉙ 漬物製造業",
      "address": "佐賀県杵島郡江北町山口３６１４",
      "lat": 33.224711,
      "lng": 130.156513,
      "geocoding_level": null,
      "phone": "0952-86-2157",
      "license_no": "佐賀県指令４杵保福第５１９号",
      "license_date": "2023-01-26",
      "expire_date": "2029-08-31"
    },
    {
      "name": "ほるもん酒場まるみ",
      "name_kana": "ホルモンサカバマルミ",
      "business_type": "① 飲食店営業",
      "address": "佐賀県杵島郡江北町大字山口1461-6",
      "lat": 33.219644,
      "lng": 130.160339,
      "geocoding_level": null,
      "phone": "",
      "license_no": "佐賀県指令５杵保福第１１号",
      "license_date": "2023-04-13",
      "expire_date": "2029-08-31"
    },
    {
      "name": "魚正",
      "name_kana": "ウオマサ",
      "business_type": "① 飲食店営業",
      "address": "佐賀県杵島郡江北町山口1447-10",
      "lat": 33.219784,
      "lng": 130.158943,
      "geocoding_level": null,
      "phone": "",
      "license_no": "佐賀県指令５杵保福第２１１号",
      "license_date": "2023-08-08",
      "expire_date": "2029-08-31"
    },
    {
      "name": "焼人義",
      "name_kana": "ヤキビトヨシ",
      "business_type": "① 飲食店営業",
      "address": "佐賀県杵島郡江北町山口1016-1",
      "lat": 33.214448,
      "lng": 130.156594,
      "geocoding_level": null,
      "phone": "0952-65-1298",
      "license_no": "佐賀県指令５杵保福第277号",
      "license_date": "2023-08-31",
      "expire_date": "2029-08-31"
    },
    {
      "name": "のり弁専門店のりぞう",
      "name_kana": "ノリベンセンモンテンノリゾウ",
      "business_type": "㉕ そうざい製造業",
      "address": "佐賀県杵島郡江北町山口1016-1",
      "lat": 33.214448,
      "lng": 130.156594,
      "geocoding_level": null,
      "phone": "0952-65-1298",
      "license_no": "佐賀県指令５杵保福第278号",
      "license_date": "2023-08-31",
      "expire_date": "2029-08-31"
    },
    {
      "name": "のり弁専門店のりぞう",
      "name_kana": "ノリベンセンモンテンノリゾウ",
      "business_type": "① 魚介類販売業（包装済みの魚介類のみの販売）",
      "address": "佐賀県杵島郡江北町山口1016-1",
      "lat": 33.214448,
      "lng": 130.156594,
      "geocoding_level": null,
      "phone": "0952-65-1298",
      "license_no": "",
      "license_date": null,
      "expire_date": null
    },
    {
      "name": "焼人義",
      "name_kana": "ヤキビトヨシ",
      "business_type": "② 食肉販売業（包装済みの食肉のみの販売）",
      "address": "佐賀県杵島郡江北町山口1016-1",
      "lat": 33.214448,
      "lng": 130.156594,
      "geocoding_level": null,
      "phone": "0952-65-1298",
      "license_no": "",
      "license_date": null,
      "expire_date": null
    },
    {
      "name": "焼人義",
      "name_kana": "ヤキビトヨシ",
      "business_type": "⑦ 野菜果物販売業",
      "address": "佐賀県杵島郡江北町山口1016-1",
      "lat": 33.214448,
      "lng": 130.156594,
      "geocoding_level": null,
      "phone": "0952-65-1298",
      "license_no": "",
      "license_date": null,
      "expire_date": null
    },
    {
      "name": "肉のかわの",
      "name_kana": "ニクノカワノ",
      "business_type": "③ 食肉販売業",
      "address": "佐賀県杵島郡江北町大字山口22番 さくせすPOINT107",
      "lat": 33.210781,
      "lng": 130.152198,
      "geocoding_level": null,
      "phone": "0952-86-3053",
      "license_no": "佐賀県指令５杵保福第321号",
      "license_date": "2023-10-20",
      "expire_date": "2030-08-31"
    },
    {
      "name": "セブンイレブン佐賀江北上小田店",
      "name_kana": "セブンイレブンサガコウホクカミオダテン",
      "business_type": "① 飲食店営業",
      "address": "佐賀県杵島郡江北町大字上小田字四本松689番1",
      "lat": 33.227133,
      "lng": 130.137594,
      "geocoding_level": null,
      "phone": "",
      "license_no": "佐賀県指令5杵保福第362号",
      "license_date": "2023-11-27",
      "expire_date": "2030-08-31"
    },
    {
      "name": "セブンイレブン佐賀江北上小田店",
      "name_kana": "セブンイレブンサガコウホクカミオダテン",
      "business_type": "⑩ コンビニエンスストア",
      "address": "佐賀県杵島郡江北町大字上小田字四本松689番地1",
      "lat": 33.227133,
      "lng": 130.137594,
      "geocoding_level": null,
      "phone": "",
      "license_no": "",
      "license_date": null,
      "expire_date": null
    },
    {
      "name": "医療法人　武岡病院",
      "name_kana": "タケオカビョウイン",
      "business_type": "㉖ 集団給食施設",
      "address": "佐賀県杵島郡江北町大字山口1282",
      "lat": 33.21685,
      "lng": 130.159567,
      "geocoding_level": null,
      "phone": "0952-86-3013",
      "license_no": "",
      "license_date": null,
      "expire_date": null
    },
    {
      "name": "ダイレックス江北店",
      "name_kana": "ダイレックスコウホクテン",
      "business_type": "⑪ 百貨店、総合スーパー",
      "address": "佐賀県杵島郡江北町佐留志2070",
      "lat": 33.218581,
      "lng": 130.168215,
      "geocoding_level": null,
      "phone": "0952-71-6188",
      "license_no": "",
      "license_date": null,
      "expire_date": null
    },
    {
      "name": "ふるさと工房　まごころ　農産物加工所",
      "name_kana": "フルサトコウボウ　マゴコロ　ノウサンブツカコウショ",
      "business_type": "㉙ 漬物製造業",
      "address": "佐賀県杵島郡江北町山口2018-1",
      "lat": 33.216463,
      "lng": 130.149576,
      "geocoding_level": null,
      "phone": "",
      "license_no": "佐賀県指令５杵保福第557号",
      "license_date": "2024-03-28",
      "expire_date": "2030-05-31"
    },
    {
      "name": "うどん料理の郷　山忠",
      "name_kana": "ヤマチュウ",
      "business_type": "① 飲食店営業",
      "address": "佐賀県杵島郡江北町山口1357-3",
      "lat": 33.217699,
      "lng": 130.162008,
      "geocoding_level": null,
      "phone": "",
      "license_no": "佐賀県指令6杵保福第259号",
      "license_date": "2024-08-31",
      "expire_date": "2030-08-31"
    },
    {
      "name": "Ｋ’ｓ　Ｃａｆｅ",
      "name_kana": "ケーズカフェ",
      "business_type": "① 飲食店営業",
      "address": "佐賀県杵島郡江北町大字山口2889",
      "lat": 33.221933,
      "lng": 130.151712,
      "geocoding_level": null,
      "phone": "",
      "license_no": "佐賀県指令6杵保福第268号",
      "license_date": "2024-08-31",
      "expire_date": "2030-08-31"
    }
  ]
}
