{
  "meta": {
    "updated": 1783568789,
    "sources": [
      {
        "source": "厚生労働省 食品衛生申請等システム（オープンデータ）",
        "license": "公共データ利用規約（第1.0版, PDL1.0）"
      }
    ]
  },
  "data": [
    {
      "name": "Ｖ・drug　御殿山駅前店",
      "name_kana": "ブイ・ドラッグ　ゴテンヤマエキマエテン",
      "business_type": "⑪ 百貨店、総合スーパー",
      "address": "大阪府枚方市渚西一丁目18番25号",
      "lat": 34.828831,
      "lng": 135.653139,
      "geocoding_level": null,
      "phone": "072-894-7125",
      "license_no": "",
      "license_date": null,
      "expire_date": null
    },
    {
      "name": "株式会社ナカキン",
      "name_kana": "カブシキガイシャ　ナカキン",
      "business_type": "㉗ 器具、容器包装の製造・加工業（合成樹脂が使用された器具又は容器包装の製造、加工に限る。）",
      "address": "大阪府枚方市春日北町2-30-5 株式会社ナカキン春日西工場",
      "lat": 34.807323,
      "lng": 135.683785,
      "geocoding_level": null,
      "phone": "0728591771",
      "license_no": "",
      "license_date": null,
      "expire_date": null
    },
    {
      "name": "株式会社九州屋　京阪百貨店くずは店",
      "name_kana": "カブシキガイシャキュウシュウヤ　ケイハンヒャッカテンクズハミセ",
      "business_type": "⑦ 野菜果物販売業",
      "address": "大阪府枚方市楠葉花園町15-1 くずはモール本館ミドリノモール１F　京阪百貨店くずは店　食品売場内",
      "lat": 34.861126,
      "lng": 135.677822,
      "geocoding_level": null,
      "phone": "072-894-7270",
      "license_no": "",
      "license_date": null,
      "expire_date": null
    },
    {
      "name": "コナミ香里ケ丘",
      "name_kana": "コナミコウリガオカ",
      "business_type": "⑤ コップ式自動販売機（自動洗浄・屋内設置）",
      "address": "大阪府枚方市香里ケ丘３－３－１",
      "lat": 34.790955,
      "lng": 135.658346,
      "geocoding_level": null,
      "phone": "072-860-0573",
      "license_no": "",
      "license_date": null,
      "expire_date": null
    },
    {
      "name": "エニタイム枚方招堤",
      "name_kana": "エニタイムヒラカタショウダイ",
      "business_type": "⑤ コップ式自動販売機（自動洗浄・屋内設置）",
      "address": "大阪府枚方市西招提町2235-1 1F",
      "lat": 34.847524,
      "lng": 135.68327,
      "geocoding_level": null,
      "phone": "072-845-4503",
      "license_no": "",
      "license_date": null,
      "expire_date": null
    },
    {
      "name": "ドン・キホーテ枚方",
      "name_kana": "ドン・キホーテヒラカタ",
      "business_type": "⑤ コップ式自動販売機（自動洗浄・屋内設置）",
      "address": "大阪府枚方市田口4丁目50-22",
      "lat": 34.826435,
      "lng": 135.682678,
      "geocoding_level": null,
      "phone": "0570-018-711",
      "license_no": "",
      "license_date": null,
      "expire_date": null
    },
    {
      "name": "グランフィットネス枚方津田山手",
      "name_kana": "グランフィットネスヒラカタツダヤマテ",
      "business_type": "⑫ 自動販売機による販売業（コップ式自動販売機（自動洗浄・屋内設置）及び営業許可の対象となる自動販売機を除く）",
      "address": "大阪府枚方市津田山手1丁目43−20 津田山手モール",
      "lat": 34.806995,
      "lng": 135.707881,
      "geocoding_level": null,
      "phone": "",
      "license_no": "",
      "license_date": null,
      "expire_date": null
    },
    {
      "name": "グランフィットネス枚方津田山手",
      "name_kana": "グランフィットネスヒラカタツダヤマテ",
      "business_type": "⑤ コップ式自動販売機（自動洗浄・屋内設置）",
      "address": "大阪府枚方市津田山手1丁目43−20 津田山手モール",
      "lat": 34.806995,
      "lng": 135.707881,
      "geocoding_level": null,
      "phone": "",
      "license_no": "",
      "license_date": null,
      "expire_date": null
    },
    {
      "name": "URBANHIT　枚方招堤",
      "name_kana": "アーバンフィットヒラカタショウダイ",
      "business_type": "⑤ コップ式自動販売機（自動洗浄・屋内設置）",
      "address": "大阪府枚方市招提元町2丁目2191-1",
      "lat": 34.84312,
      "lng": 135.684032,
      "geocoding_level": null,
      "phone": "072-300-2797",
      "license_no": "",
      "license_date": null,
      "expire_date": null
    },
    {
      "name": "アンジェス枚方",
      "name_kana": "アンジェスヒラカタ",
      "business_type": "㉖ 集団給食施設",
      "address": "大阪府枚方市招提元町二丁目23番11号",
      "lat": 34.844087,
      "lng": 135.683513,
      "geocoding_level": null,
      "phone": "072-800-7737",
      "license_no": "",
      "license_date": null,
      "expire_date": null
    },
    {
      "name": "カルディコーヒーファーム　くずはモール店",
      "name_kana": "カルディコーヒーファーム　クズハモールテン",
      "business_type": "⑬ その他の食料・飲料販売業",
      "address": "大阪府枚方市楠葉花園町15番1号 KUZUHA MALL　1Ｆ",
      "lat": 34.861126,
      "lng": 135.677822,
      "geocoding_level": null,
      "phone": "072-868-5101",
      "license_no": "",
      "license_date": null,
      "expire_date": null
    },
    {
      "name": "カルディコーヒーファーム　枚方モール店",
      "name_kana": "カルディコーヒーファーム　ヒラカタモールテン",
      "business_type": "⑬ その他の食料・飲料販売業",
      "address": "大阪府枚方市岡東町19－1 枚方モール　1階",
      "lat": 34.81752,
      "lng": 135.650451,
      "geocoding_level": null,
      "phone": "072-807-6466",
      "license_no": "",
      "license_date": null,
      "expire_date": null
    },
    {
      "name": "ライフパートナー星丘",
      "name_kana": "ライフパートナーホシガオカ",
      "business_type": "㉖ 集団給食施設",
      "address": "大阪府枚方市星丘2-22-34",
      "lat": 34.808597,
      "lng": 135.663838,
      "geocoding_level": null,
      "phone": "",
      "license_no": "",
      "license_date": null,
      "expire_date": null
    },
    {
      "name": "ライフパートナー星丘",
      "name_kana": "ライフパートナーホシガオカ",
      "business_type": "㉖ 集団給食施設",
      "address": "大阪府枚方市星丘2-22-34",
      "lat": 34.808597,
      "lng": 135.663838,
      "geocoding_level": null,
      "phone": "",
      "license_no": "",
      "license_date": null,
      "expire_date": null
    },
    {
      "name": "まりも保育園",
      "name_kana": "マリモホイクエン",
      "business_type": "㉖ 集団給食施設",
      "address": "大阪府枚方市春日北町4-1-7",
      "lat": 34.804631,
      "lng": 135.686312,
      "geocoding_level": null,
      "phone": "0728585255",
      "license_no": "",
      "license_date": null,
      "expire_date": null
    },
    {
      "name": "ダイソー　アルプラザ枚方店",
      "name_kana": "ダイソー　アルプラザヒラカタテン",
      "business_type": "⑬ その他の食料・飲料販売業",
      "address": "大阪府枚方市津田元町１－４－１ アルプラザ枚方３階",
      "lat": 34.808063,
      "lng": 135.701927,
      "geocoding_level": null,
      "phone": "",
      "license_no": "",
      "license_date": null,
      "expire_date": null
    },
    {
      "name": "ダイソー　枚方くずは店",
      "name_kana": "ダイソー　ヒラカタクズハテン",
      "business_type": "⑬ その他の食料・飲料販売業",
      "address": "大阪府枚方市楠葉並木１丁目３８－５",
      "lat": 34.857445,
      "lng": 135.682997,
      "geocoding_level": null,
      "phone": "",
      "license_no": "",
      "license_date": null,
      "expire_date": null
    },
    {
      "name": "ダイソー　枚方出屋敷店",
      "name_kana": "ダイソー　ヒラカタデヤシキテン",
      "business_type": "⑬ その他の食料・飲料販売業",
      "address": "大阪府枚方市出屋敷元町１丁目１９",
      "lat": 34.82511,
      "lng": 135.684476,
      "geocoding_level": null,
      "phone": "",
      "license_no": "",
      "license_date": null,
      "expire_date": null
    },
    {
      "name": "ダイソー　ニトリモール枚方店",
      "name_kana": "ダイソー　ニトリモールヒラカタテン",
      "business_type": "⑬ その他の食料・飲料販売業",
      "address": "大阪府枚方市北山１丁目２－１ ニトリモール枚方店１階",
      "lat": 34.837197,
      "lng": 135.696855,
      "geocoding_level": null,
      "phone": "",
      "license_no": "",
      "license_date": null,
      "expire_date": null
    },
    {
      "name": "ダイソー　枚方３０７店",
      "name_kana": "ダイソー　ヒラカタサンマルナナテン",
      "business_type": "⑬ その他の食料・飲料販売業",
      "address": "大阪府枚方市池之宮１丁目２－５０ブックオフ枚方店３階",
      "lat": 34.814099,
      "lng": 135.672754,
      "geocoding_level": null,
      "phone": "",
      "license_no": "",
      "license_date": null,
      "expire_date": null
    },
    {
      "name": "ダイソー　くずはモール店",
      "name_kana": "ダイソー　クズハモールテン",
      "business_type": "⑬ その他の食料・飲料販売業",
      "address": "大阪府枚方市楠葉花園町１５－１ヒカリノモール２階",
      "lat": 34.861126,
      "lng": 135.677822,
      "geocoding_level": null,
      "phone": "",
      "license_no": "",
      "license_date": null,
      "expire_date": null
    },
    {
      "name": "コーナン枚方野村店",
      "name_kana": "コーナンヒラカタノムラテン",
      "business_type": "⑪ 百貨店、総合スーパー",
      "address": "大阪府枚方市野村北町11番1号",
      "lat": 34.811534,
      "lng": 135.694301,
      "geocoding_level": null,
      "phone": "072-897-5557",
      "license_no": "",
      "license_date": null,
      "expire_date": null
    },
    {
      "name": "コーナン御殿山店",
      "name_kana": "コーナンゴテンヤマテン",
      "business_type": "⑪ 百貨店、総合スーパー",
      "address": "大阪府枚方市渚内野1丁目1番1号",
      "lat": 34.834187,
      "lng": 135.654059,
      "geocoding_level": null,
      "phone": "0728905701",
      "license_no": "",
      "license_date": null,
      "expire_date": null
    },
    {
      "name": "コーナン茄子作南店",
      "name_kana": "コーナンナスヅクリミナミテン",
      "business_type": "⑪ 百貨店、総合スーパー",
      "address": "大阪府枚方市茄子作南町260-1",
      "lat": 34.780873,
      "lng": 135.670769,
      "geocoding_level": null,
      "phone": "072-860-2357",
      "license_no": "",
      "license_date": null,
      "expire_date": null
    },
    {
      "name": "コーナンニトリモール枚方店",
      "name_kana": "コーナンニトリモールヒラカタテン",
      "business_type": "⑪ 百貨店、総合スーパー",
      "address": "大阪府枚方市北山一丁目2番1号",
      "lat": 34.837197,
      "lng": 135.696855,
      "geocoding_level": null,
      "phone": "072-864-0881",
      "license_no": "",
      "license_date": null,
      "expire_date": null
    },
    {
      "name": "コーナンプロ枚方大峰店",
      "name_kana": "コーナンプロヒラカタオオミネテン",
      "business_type": "⑪ 百貨店、総合スーパー",
      "address": "大阪府枚方市大峰南町８番1号",
      "lat": 34.812532,
      "lng": 135.685891,
      "geocoding_level": null,
      "phone": "",
      "license_no": "",
      "license_date": null,
      "expire_date": null
    },
    {
      "name": "コーナン枚方大橋店",
      "name_kana": "コーナンヒラカタオオハシテン",
      "business_type": "⑪ 百貨店、総合スーパー",
      "address": "大阪府枚方市伊加賀緑町3番1号",
      "lat": 34.806591,
      "lng": 135.633581,
      "geocoding_level": null,
      "phone": "072-804-5761",
      "license_no": "",
      "license_date": null,
      "expire_date": null
    },
    {
      "name": "ミツカン大阪工場",
      "name_kana": "ミツカンオオサカコウジョウ",
      "business_type": "⑱ 調味料製造・加工業",
      "address": "大阪府枚方市春日北町5-1-1",
      "lat": 34.806298,
      "lng": 135.688039,
      "geocoding_level": null,
      "phone": "0728580331",
      "license_no": "",
      "license_date": null,
      "expire_date": null
    },
    {
      "name": "アクトスWill_G枚方北山",
      "name_kana": "アクトスヒラカタキタヤマ",
      "business_type": "⑫ 自動販売機による販売業（コップ式自動販売機（自動洗浄・屋内設置）及び営業許可の対象となる自動販売機を除く）",
      "address": "大阪府枚方市北山1-23-1",
      "lat": 34.841089,
      "lng": 135.70317,
      "geocoding_level": null,
      "phone": "",
      "license_no": "",
      "license_date": null,
      "expire_date": null
    },
    {
      "name": "TBP24",
      "name_kana": "ティービーピーニジュウヨン",
      "business_type": "⑫ 自動販売機による販売業（コップ式自動販売機（自動洗浄・屋内設置）及び営業許可の対象となる自動販売機を除く）",
      "address": "大阪府枚方市南楠葉1-6-8 プレザントハウス樟葉2階",
      "lat": 34.860353,
      "lng": 135.683216,
      "geocoding_level": null,
      "phone": "",
      "license_no": "",
      "license_date": null,
      "expire_date": null
    },
    {
      "name": "牧野スポーツクラブ",
      "name_kana": "マキノスポーツクラブ",
      "business_type": "⑫ 自動販売機による販売業（コップ式自動販売機（自動洗浄・屋内設置）及び営業許可の対象となる自動販売機を除く）",
      "address": "大阪府枚方市養父丘1-2-54-3F",
      "lat": 34.840737,
      "lng": 135.678294,
      "geocoding_level": null,
      "phone": "",
      "license_no": "",
      "license_date": null,
      "expire_date": null
    },
    {
      "name": "Be-fit light24 東香里",
      "name_kana": "ビィフィットニジュウヨンヒガシコウリ",
      "business_type": "⑫ 自動販売機による販売業（コップ式自動販売機（自動洗浄・屋内設置）及び営業許可の対象となる自動販売機を除く）",
      "address": "大阪府枚方市高田1丁目22-10",
      "lat": 34.776007,
      "lng": 135.656868,
      "geocoding_level": null,
      "phone": "",
      "license_no": "",
      "license_date": null,
      "expire_date": null
    },
    {
      "name": "ビバスポーツアカデミー枚方",
      "name_kana": "ビバスポーツアカデミーヒラカタ",
      "business_type": "⑫ 自動販売機による販売業（コップ式自動販売機（自動洗浄・屋内設置）及び営業許可の対象となる自動販売機を除く）",
      "address": "大阪府枚方市甲斐田町2-15",
      "lat": 34.823482,
      "lng": 135.670281,
      "geocoding_level": null,
      "phone": "",
      "license_no": "",
      "license_date": null,
      "expire_date": null
    },
    {
      "name": "枚方フィットネス",
      "name_kana": "ヒラカタフィットネス",
      "business_type": "⑫ 自動販売機による販売業（コップ式自動販売機（自動洗浄・屋内設置）及び営業許可の対象となる自動販売機を除く）",
      "address": "大阪府枚方市朝日丘町2-19 木幸スポーツ企画株式会社",
      "lat": 34.810178,
      "lng": 135.651098,
      "geocoding_level": null,
      "phone": "",
      "license_no": "",
      "license_date": null,
      "expire_date": null
    },
    {
      "name": "やまやロイヤル枚方店",
      "name_kana": "ヤマヤロイヤルヒラカタテン",
      "business_type": "⑬ その他の食料・飲料販売業",
      "address": "大阪府枚方市春日西町2-2-1",
      "lat": 34.80481,
      "lng": 135.678642,
      "geocoding_level": null,
      "phone": "072-858-9400",
      "license_no": "",
      "license_date": null,
      "expire_date": null
    },
    {
      "name": "やまや東香里店",
      "name_kana": "ヤマヤヒガシコウリテン",
      "business_type": "⑬ その他の食料・飲料販売業",
      "address": "大阪府枚方市東香里南町52-41",
      "lat": 34.775079,
      "lng": 135.654358,
      "geocoding_level": null,
      "phone": "072-852-5600",
      "license_no": "",
      "license_date": null,
      "expire_date": null
    },
    {
      "name": "やまや枚方公園店",
      "name_kana": "ヤマヤヒラカタコウエンテン",
      "business_type": "⑬ その他の食料・飲料販売業",
      "address": "大阪府枚方市伊加賀南町9-13",
      "lat": 34.807296,
      "lng": 135.641301,
      "geocoding_level": null,
      "phone": "072-804-4800",
      "license_no": "",
      "license_date": null,
      "expire_date": null
    },
    {
      "name": "やまやくずは船橋店",
      "name_kana": "ヤマヤクズハフナハシテン",
      "business_type": "⑬ その他の食料・飲料販売業",
      "address": "大阪府枚方市東船橋1-2-2",
      "lat": 34.855201,
      "lng": 135.683626,
      "geocoding_level": null,
      "phone": "072-808-8862",
      "license_no": "",
      "license_date": null,
      "expire_date": null
    },
    {
      "name": "KOHYO香里ヶ丘店　清流物語",
      "name_kana": "コーヨーコウリガオカテン　セイリュウモノガタリ",
      "business_type": "⑫ 自動販売機による販売業（コップ式自動販売機（自動洗浄・屋内設置）及び営業許可の対象となる自動販売機を除く）",
      "address": "大阪府枚方市香里ケ丘4-2-1",
      "lat": 34.790401,
      "lng": 135.651356,
      "geocoding_level": null,
      "phone": "",
      "license_no": "",
      "license_date": null,
      "expire_date": null
    },
    {
      "name": "スターバックスコーヒーくずはモール店",
      "name_kana": "スターバックスコーヒークズハモールテン",
      "business_type": "⑬ その他の食料・飲料販売業",
      "address": "大阪府枚方市楠葉花園町15-1-112",
      "lat": 34.861126,
      "lng": 135.677822,
      "geocoding_level": null,
      "phone": "072-836-3165",
      "license_no": "",
      "license_date": null,
      "expire_date": null
    },
    {
      "name": "スターバックスコーヒーくずは美咲店",
      "name_kana": "スターバックスコーヒークズハミサキテン",
      "business_type": "⑬ その他の食料・飲料販売業",
      "address": "大阪府枚方市楠葉朝日2-20",
      "lat": 34.859705,
      "lng": 135.687822,
      "geocoding_level": null,
      "phone": "072-864-0037",
      "license_no": "",
      "license_date": null,
      "expire_date": null
    },
    {
      "name": "スターバックスコーヒー京阪枚方市駅店",
      "name_kana": "スターバックスコーヒーケイハンヒラカタシエキテン",
      "business_type": "⑬ その他の食料・飲料販売業",
      "address": "大阪府枚方市岡東町19-19",
      "lat": 34.815718,
      "lng": 135.648751,
      "geocoding_level": null,
      "phone": "072-804-3301",
      "license_no": "",
      "license_date": null,
      "expire_date": null
    },
    {
      "name": "スターバックスコーヒー東香里店",
      "name_kana": "スターバックスコーヒーヒガシコウリテン",
      "business_type": "⑬ その他の食料・飲料販売業",
      "address": "大阪府枚方市高田1-15-10",
      "lat": 34.777173,
      "lng": 135.659992,
      "geocoding_level": null,
      "phone": "072-860-0822",
      "license_no": "",
      "license_date": null,
      "expire_date": null
    },
    {
      "name": "スターバックスコーヒーくずはモール ハナノモール店",
      "name_kana": "スターバックスコーヒークズハモールハナノモールテン",
      "business_type": "⑬ その他の食料・飲料販売業",
      "address": "大阪府枚方市楠葉花園町15-1 くずはモール1階 ハナノモール",
      "lat": 34.861126,
      "lng": 135.677822,
      "geocoding_level": null,
      "phone": "072-894-7961",
      "license_no": "",
      "license_date": null,
      "expire_date": null
    },
    {
      "name": "乗馬クラブ クレイン学研枚方",
      "name_kana": "ジョウバクラブ クレインガッケンヒラカタ",
      "business_type": "⑬ その他の食料・飲料販売業",
      "address": "大阪府枚方市穂谷1丁目11-20",
      "lat": 34.797707,
      "lng": 135.730558,
      "geocoding_level": null,
      "phone": "072-897-5711",
      "license_no": "",
      "license_date": null,
      "expire_date": null
    },
    {
      "name": "クスリキリン堂　茄子作店",
      "name_kana": "クスリキリンドウ　ナスヅクリテン",
      "business_type": "⑬ その他の食料・飲料販売業",
      "address": "大阪府枚方市茄子作東町40-40",
      "lat": 34.784519,
      "lng": 135.66802,
      "geocoding_level": null,
      "phone": "072-860-1577",
      "license_no": "",
      "license_date": null,
      "expire_date": null
    },
    {
      "name": "クスリキリン堂　枚方宮之下店",
      "name_kana": "クスリキリンドウ　ヒラカタミヤノシタテン",
      "business_type": "⑪ 百貨店、総合スーパー",
      "address": "大阪府枚方市宮之下町7-8",
      "lat": 34.79513,
      "lng": 135.657868,
      "geocoding_level": null,
      "phone": "072-860-1350",
      "license_no": "",
      "license_date": null,
      "expire_date": null
    },
    {
      "name": "クスリキリン堂　枚方招堤店",
      "name_kana": "クスリキリンドウ　ヒラカタショウダイテン",
      "business_type": "⑬ その他の食料・飲料販売業",
      "address": "大阪府枚方市養父東町52-5",
      "lat": 34.845307,
      "lng": 135.676956,
      "geocoding_level": null,
      "phone": "072-864-0091",
      "license_no": "",
      "license_date": null,
      "expire_date": null
    },
    {
      "name": "クスリキリン堂　枚方山之上店",
      "name_kana": "クスリキリンドウ　ヒラカタヤマノウエテン",
      "business_type": "⑬ その他の食料・飲料販売業",
      "address": "大阪府枚方市山之上2-21-20",
      "lat": 34.799348,
      "lng": 135.656863,
      "geocoding_level": null,
      "phone": "072-841-8455",
      "license_no": "",
      "license_date": null,
      "expire_date": null
    },
    {
      "name": "クスリキリン堂　枚方大峰店",
      "name_kana": "クスリキリンドウ　ヒラカタオオミネテン",
      "business_type": "⑬ その他の食料・飲料販売業",
      "address": "大阪府枚方市大峰元町2-1-2",
      "lat": 34.812938,
      "lng": 135.687383,
      "geocoding_level": null,
      "phone": "072-858-5911",
      "license_no": "",
      "license_date": null,
      "expire_date": null
    },
    {
      "name": "クスリキリン堂　枚方宮之下店",
      "name_kana": "クスリキリンドウ　ヒラカタミヤノシタテン",
      "business_type": "⑬ その他の食料・飲料販売業",
      "address": "大阪府枚方市宮之下町7番8号",
      "lat": 34.79542,
      "lng": 135.658274,
      "geocoding_level": null,
      "phone": "072-860-1350",
      "license_no": "",
      "license_date": null,
      "expire_date": null
    },
    {
      "name": "クスリキリン堂　長尾店",
      "name_kana": "クスリキリンドウ　ナガオテン",
      "business_type": "⑬ その他の食料・飲料販売業",
      "address": "大阪府枚方市長尾元町2-19-1",
      "lat": 34.825345,
      "lng": 135.708635,
      "geocoding_level": null,
      "phone": "072-866-6620",
      "license_no": "",
      "license_date": null,
      "expire_date": null
    },
    {
      "name": "クスリキリン堂　都丘店",
      "name_kana": "クスリキリンドウ　ミヤコガオカテン",
      "business_type": "⑬ その他の食料・飲料販売業",
      "address": "大阪府枚方市都丘町1番23号",
      "lat": 34.822182,
      "lng": 135.668312,
      "geocoding_level": null,
      "phone": "072-848-3137",
      "license_no": "",
      "license_date": null,
      "expire_date": null
    },
    {
      "name": "クスリキリン堂　津田駅前店",
      "name_kana": "キリンドウ　ツダエキマエテン",
      "business_type": "⑬ その他の食料・飲料販売業",
      "address": "大阪府枚方市津田駅前1-28-5",
      "lat": 34.800171,
      "lng": 135.69707,
      "geocoding_level": null,
      "phone": "072-859-6011",
      "license_no": "",
      "license_date": null,
      "expire_date": null
    },
    {
      "name": "ANYTIME FITNESS枚方招提店",
      "name_kana": "エニタイムフィットネスヒラカタショウダイテン",
      "business_type": "⑫ 自動販売機による販売業（コップ式自動販売機（自動洗浄・屋内設置）及び営業許可の対象となる自動販売機を除く）",
      "address": "大阪府枚方市西招提町2235-1",
      "lat": 34.847526,
      "lng": 135.683256,
      "geocoding_level": null,
      "phone": "0728454503",
      "license_no": "",
      "license_date": null,
      "expire_date": null
    },
    {
      "name": "ANYTIME FITNESS枚方津田山手店",
      "name_kana": "エニタイムフィットネスヒラカタツダヤマテテン",
      "business_type": "⑫ 自動販売機による販売業（コップ式自動販売機（自動洗浄・屋内設置）及び営業許可の対象となる自動販売機を除く）",
      "address": "大阪府枚方市津田山手1-43-20",
      "lat": 34.806995,
      "lng": 135.707881,
      "geocoding_level": null,
      "phone": "0728454023",
      "license_no": "",
      "license_date": null,
      "expire_date": null
    },
    {
      "name": "ANYTIME FITNESS枚方長尾店",
      "name_kana": "エニタイムフィットネスヒラカタナガオテン",
      "business_type": "⑫ 自動販売機による販売業（コップ式自動販売機（自動洗浄・屋内設置）及び営業許可の対象となる自動販売機を除く）",
      "address": "大阪府枚方市田口山3-5-40",
      "lat": 34.825825,
      "lng": 135.696627,
      "geocoding_level": null,
      "phone": "",
      "license_no": "",
      "license_date": null,
      "expire_date": null
    },
    {
      "name": "カフェテリアKITAYAMA",
      "name_kana": "カフェテリアキタヤマ",
      "business_type": "① 飲食店営業",
      "address": "大阪府枚方市北山1丁目79-1",
      "lat": 34.841356,
      "lng": 135.705105,
      "geocoding_level": null,
      "phone": "",
      "license_no": "101-644",
      "license_date": "2022-03-30",
      "expire_date": "2028-03-31"
    },
    {
      "name": "カフェテリアKITAYAMA（麺類コーナー）",
      "name_kana": "カフェテリアキタヤマメンルイコーナー",
      "business_type": "① 飲食店営業",
      "address": "大阪府枚方市北山1丁目79-1",
      "lat": 34.841356,
      "lng": 135.705105,
      "geocoding_level": null,
      "phone": "",
      "license_no": "101-645",
      "license_date": "2022-03-30",
      "expire_date": "2028-03-31"
    },
    {
      "name": "北山職員食堂",
      "name_kana": "キタヤマショクインショクドウ",
      "business_type": "① 飲食店営業",
      "address": "大阪府枚方市北山1丁目79-1",
      "lat": 34.841277,
      "lng": 135.705093,
      "geocoding_level": null,
      "phone": "",
      "license_no": "101-646",
      "license_date": "2022-03-30",
      "expire_date": "2028-03-31"
    },
    {
      "name": "レストラン枚方",
      "name_kana": "レストランヒラカタ",
      "business_type": "① 飲食店営業",
      "address": "大阪府枚方市長尾峠町45-1",
      "lat": 34.849878,
      "lng": 135.706695,
      "geocoding_level": null,
      "phone": "",
      "license_no": "101-642",
      "license_date": "2022-03-30",
      "expire_date": "2028-03-31"
    },
    {
      "name": "ジョルノ",
      "name_kana": "ジョルノ",
      "business_type": "① 飲食店営業",
      "address": "大阪府枚方市長尾峠町45-1",
      "lat": 34.849409,
      "lng": 135.706059,
      "geocoding_level": null,
      "phone": "",
      "license_no": "101-641",
      "license_date": "2022-03-30",
      "expire_date": "2028-03-31"
    },
    {
      "name": "枚方コンビニ",
      "name_kana": "ヒラカタコンビニ",
      "business_type": "① 飲食店営業",
      "address": "大阪府枚方市長尾峠町45-1",
      "lat": 34.849409,
      "lng": 135.706059,
      "geocoding_level": null,
      "phone": "",
      "license_no": "101-643",
      "license_date": "2022-03-30",
      "expire_date": "2028-03-31"
    },
    {
      "name": "北山総合サービスセンター",
      "name_kana": "キタヤマソウゴウサービスセンター",
      "business_type": "③ 乳類販売業",
      "address": "大阪府枚方市北山1丁目79-1",
      "lat": 34.841277,
      "lng": 135.705093,
      "geocoding_level": null,
      "phone": "",
      "license_no": "",
      "license_date": null,
      "expire_date": null
    },
    {
      "name": "常翔啓光学園中学高等学校食堂",
      "name_kana": "ジョウショウケイコウガクエンチュウガクコウトウガッコウショクドウ",
      "business_type": "① 飲食店営業",
      "address": "大阪府枚方市禁野町本町1丁目13番21号",
      "lat": 34.811723,
      "lng": 135.456047,
      "geocoding_level": null,
      "phone": "",
      "license_no": "101-647",
      "license_date": "2023-02-28",
      "expire_date": "2029-02-28"
    },
    {
      "name": "常翔啓光学園中学高等学校食堂",
      "name_kana": "ジョウショウケイコウガクエンチュウガクコウトウガッコウショクドウ",
      "business_type": "③ 乳類販売業",
      "address": "大阪府枚方市禁野本町1丁目13-21",
      "lat": 34.817685,
      "lng": 135.657025,
      "geocoding_level": null,
      "phone": "072-848-0600",
      "license_no": "",
      "license_date": null,
      "expire_date": null
    },
    {
      "name": "Restaurant YUI「結」",
      "name_kana": "レストランユイ",
      "business_type": "① 飲食店営業",
      "address": "大阪府枚方市長尾峠町45-1",
      "lat": 34.849397,
      "lng": 135.706075,
      "geocoding_level": null,
      "phone": "0728966072",
      "license_no": "101-575",
      "license_date": "2026-03-23",
      "expire_date": "2032-03-31"
    },
    {
      "name": "枚方コンビニ2号店",
      "name_kana": "ヒラカタコンビニニゴウテン",
      "business_type": "① 飲食店営業",
      "address": "大阪府枚方市長尾峠町45番1号",
      "lat": 34.849397,
      "lng": 135.706075,
      "geocoding_level": null,
      "phone": "",
      "license_no": "101-573",
      "license_date": "2026-03-23",
      "expire_date": "2032-03-31"
    },
    {
      "name": "枚方コンビニ2号店",
      "name_kana": "ヒラカタコンビニニゴウテン",
      "business_type": "③ 乳類販売業",
      "address": "大阪府枚方市長尾峠町45番1号",
      "lat": 34.849397,
      "lng": 135.706075,
      "geocoding_level": null,
      "phone": "",
      "license_no": "",
      "license_date": null,
      "expire_date": null
    },
    {
      "name": "果汁工房果琳　枚方モール店",
      "name_kana": "カジュウコウボウカリン　ヒラカタモールテン",
      "business_type": "① 飲食店営業",
      "address": "大阪府枚方市岡東町19-1 枚方モール　1階",
      "lat": 34.81752,
      "lng": 135.650451,
      "geocoding_level": null,
      "phone": "080-3730-4642",
      "license_no": "101-167",
      "license_date": "2024-08-23",
      "expire_date": "2030-08-31"
    },
    {
      "name": "サンドラッグくずは店",
      "name_kana": "サンドラッグクズハテン",
      "business_type": "⑪ 百貨店、総合スーパー",
      "address": "大阪府枚方市楠葉朝日２丁目１－８－１０１ 株式会社このみやス－パ－内",
      "lat": 34.858166,
      "lng": 135.683667,
      "geocoding_level": null,
      "phone": "072-864-0991",
      "license_no": "",
      "license_date": null,
      "expire_date": null
    },
    {
      "name": "サンディ宮之阪店",
      "name_kana": "サンディミヤノサカテン",
      "business_type": "⑪ 百貨店、総合スーパー",
      "address": "大阪府枚方市宮之阪３丁目８－１０",
      "lat": 34.812529,
      "lng": 135.657623,
      "geocoding_level": null,
      "phone": "072-890-0180",
      "license_no": "",
      "license_date": null,
      "expire_date": null
    },
    {
      "name": "サンディ長尾谷店",
      "name_kana": "サンディナガオダニテン",
      "business_type": "⑪ 百貨店、総合スーパー",
      "address": "大阪府枚方市長尾谷町２－５１１",
      "lat": 34.825661,
      "lng": 135.70003,
      "geocoding_level": null,
      "phone": "072-836-4693",
      "license_no": "",
      "license_date": null,
      "expire_date": null
    },
    {
      "name": "サンディ楠葉店",
      "name_kana": "サンディクズハテン",
      "business_type": "⑪ 百貨店、総合スーパー",
      "address": "大阪府枚方市町楠葉１丁目２１番７号",
      "lat": 34.864627,
      "lng": 135.679251,
      "geocoding_level": null,
      "phone": "072-809-7797",
      "license_no": "",
      "license_date": null,
      "expire_date": null
    },
    {
      "name": "サンディ枚方養父店",
      "name_kana": "サンディヒラカタヤブテン",
      "business_type": "⑪ 百貨店、総合スーパー",
      "address": "大阪府枚方市養父東町５２番７号",
      "lat": 34.845253,
      "lng": 135.677305,
      "geocoding_level": null,
      "phone": "072-866-6130",
      "license_no": "",
      "license_date": null,
      "expire_date": null
    },
    {
      "name": "サンディ枚方津田店",
      "name_kana": "サンディヒラカタツダテン",
      "business_type": "⑪ 百貨店、総合スーパー",
      "address": "大阪府枚方市津田北町１丁目１－１",
      "lat": 34.810909,
      "lng": 135.696205,
      "geocoding_level": null,
      "phone": "072-808-8810",
      "license_no": "",
      "license_date": null,
      "expire_date": null
    },
    {
      "name": "サンディ枚方招提店",
      "name_kana": "サンディヒラカタショウダイテン",
      "business_type": "⑪ 百貨店、総合スーパー",
      "address": "大阪府枚方市招提南町２丁目１４番１号",
      "lat": 34.833535,
      "lng": 135.68277,
      "geocoding_level": null,
      "phone": "072-807-3340",
      "license_no": "",
      "license_date": null,
      "expire_date": null
    },
    {
      "name": "ドラッグスギ  枚方甲斐田店",
      "name_kana": "ドラッグスギ  ヒラカタカイダテン",
      "business_type": "⑬ その他の食料・飲料販売業",
      "address": "大阪府枚方市甲斐田新町8番1号 エディオン枚方店1階",
      "lat": 34.821803,
      "lng": 135.677193,
      "geocoding_level": null,
      "phone": "072-805-5056",
      "license_no": "",
      "license_date": null,
      "expire_date": null
    },
    {
      "name": "スギドラッグ  枚方市駅前店",
      "name_kana": "スギドラッグ  ヒラカタシエキマエテン",
      "business_type": "⑬ その他の食料・飲料販売業",
      "address": "大阪府枚方市岡東町18番23号 枚方近畿ビル1階",
      "lat": 34.815298,
      "lng": 135.648803,
      "geocoding_level": null,
      "phone": "072-808-6172",
      "license_no": "",
      "license_date": null,
      "expire_date": null
    },
    {
      "name": "ドラッグジャパン  枚方長尾店",
      "name_kana": "ドラッグジャパン  ヒラカタナガオテン",
      "business_type": "⑬ その他の食料・飲料販売業",
      "address": "大阪府枚方市田口山３丁目2181-1",
      "lat": 34.825915,
      "lng": 135.69704,
      "geocoding_level": null,
      "phone": "072-866-4422",
      "license_no": "",
      "license_date": null,
      "expire_date": null
    },
    {
      "name": "ドラッグジャパン  牧野店",
      "name_kana": "ドラッグジャパン  マキノテン",
      "business_type": "⑪ 百貨店、総合スーパー",
      "address": "大阪府枚方市上島町13-15",
      "lat": 34.850268,
      "lng": 135.669185,
      "geocoding_level": null,
      "phone": "072-855-5552",
      "license_no": "",
      "license_date": null,
      "expire_date": null
    },
    {
      "name": "ドラッグジャパン  枚方田口店",
      "name_kana": "ドラッグジャパン  ヒラカタタグチテン",
      "business_type": "⑪ 百貨店、総合スーパー",
      "address": "大阪府枚方市田口四丁目31番15号",
      "lat": 34.825594,
      "lng": 135.679739,
      "geocoding_level": null,
      "phone": "072-807-6217",
      "license_no": "",
      "license_date": null,
      "expire_date": null
    },
    {
      "name": "スギドラッグ　枚方市駅北店",
      "name_kana": "スギドラッグ　ヒラカタシエキキタテン",
      "business_type": "⑪ 百貨店、総合スーパー",
      "address": "大阪府枚方市新町一丁目１番８号 Ｈｉｒａｋａｔａ　Ｗｏｖｅｎ１階",
      "lat": 34.817205,
      "lng": 135.649001,
      "geocoding_level": null,
      "phone": "072-896-7186",
      "license_no": "",
      "license_date": null,
      "expire_date": null
    },
    {
      "name": "株式会社クボタ枚方製作所総合棟新棟5F",
      "name_kana": "カブシキカイシャクボタヒラカタセイサクジョソウゴウトウシントウゴカイ",
      "business_type": "⑤ コップ式自動販売機（自動洗浄・屋内設置）",
      "address": "大阪府枚方市中宮大池1-1-1",
      "lat": 34.815305,
      "lng": 135.677158,
      "geocoding_level": null,
      "phone": "",
      "license_no": "",
      "license_date": null,
      "expire_date": null
    },
    {
      "name": "ジェイフィルム株式会社2F休憩所Gカフェ",
      "name_kana": "ジェイフィルムカブシキガイシャニカイキュウケイジョジーカフェ",
      "business_type": "⑤ コップ式自動販売機（自動洗浄・屋内設置）",
      "address": "大阪府枚方市招堤田近2-4",
      "lat": 34.814738,
      "lng": 135.651136,
      "geocoding_level": null,
      "phone": "",
      "license_no": "",
      "license_date": null,
      "expire_date": null
    },
    {
      "name": "日本郵便株式会社枚方郵便局食堂内自販機コーナー",
      "name_kana": "ニホンユウビンカブシキガイシャヒラカタユウビンキョクショクドウナイジハンキコーナー",
      "business_type": "⑤ コップ式自動販売機（自動洗浄・屋内設置）",
      "address": "大阪府枚方市大垣内町2-10-5",
      "lat": 34.81319,
      "lng": 135.651978,
      "geocoding_level": null,
      "phone": "",
      "license_no": "",
      "license_date": null,
      "expire_date": null
    },
    {
      "name": "枚方モール２階休憩室Gカフェ",
      "name_kana": "ヒラカタモールニカイキュウケイシツジーカフェ",
      "business_type": "⑤ コップ式自動販売機（自動洗浄・屋内設置）",
      "address": "大阪府枚方市岡東町19-1",
      "lat": 34.81752,
      "lng": 135.650451,
      "geocoding_level": null,
      "phone": "",
      "license_no": "",
      "license_date": null,
      "expire_date": null
    },
    {
      "name": "株式会社平和堂　アル・プラザ枚方",
      "name_kana": "カブシキガシャヘイワドウ　アルプラザヒラカタ",
      "business_type": "⑪ 菓子製造業",
      "address": "大阪府枚方市津田元町１丁目４－１",
      "lat": 34.808063,
      "lng": 135.701927,
      "geocoding_level": null,
      "phone": "072-896-1100",
      "license_no": "101-560",
      "license_date": "2022-02-24",
      "expire_date": "2028-02-29"
    },
    {
      "name": "株式会社平和堂　アル・プラザ枚方",
      "name_kana": "カブシキガシャヘイワドウ　アルプラザヒラカタ",
      "business_type": "⑪ 百貨店、総合スーパー",
      "address": "大阪府枚方市津田元町１丁目４－１",
      "lat": 34.808063,
      "lng": 135.701927,
      "geocoding_level": null,
      "phone": "072-896-1100",
      "license_no": "",
      "license_date": null,
      "expire_date": null
    },
    {
      "name": "株式会社平和堂　アル・プラザ枚方（３階）",
      "name_kana": "カブシキガイシャヘイワドウ　アルプラザヒラカタサンカイ",
      "business_type": "① 飲食店営業",
      "address": "大阪府枚方市津田元町１丁目４－１",
      "lat": 34.808063,
      "lng": 135.701927,
      "geocoding_level": null,
      "phone": "0728961100",
      "license_no": "101-559",
      "license_date": "2022-02-24",
      "expire_date": "2028-02-29"
    },
    {
      "name": "株式会社平和堂フレンドマートくずは店",
      "name_kana": "カブシキカイシャヘイワドウフレンドマートクズハテン",
      "business_type": "⑪ 百貨店、総合スーパー",
      "address": "大阪府枚方市楠葉朝日2丁目20番10号",
      "lat": 34.85959,
      "lng": 135.687063,
      "geocoding_level": null,
      "phone": "072-864-5790",
      "license_no": "",
      "license_date": null,
      "expire_date": null
    },
    {
      "name": "ドン・キホーテ枚方店",
      "name_kana": "ドン・キホーテヒラカタテン",
      "business_type": "⑪ 百貨店、総合スーパー",
      "address": "大阪府枚方市田口4丁目50番22号",
      "lat": 34.826435,
      "lng": 135.682678,
      "geocoding_level": null,
      "phone": "0570-018-711",
      "license_no": "",
      "license_date": null,
      "expire_date": null
    },
    {
      "name": "ドン・キホーテ枚方店",
      "name_kana": "ドン・キホーテヒラカタテン",
      "business_type": "⑫ 自動販売機による販売業（コップ式自動販売機（自動洗浄・屋内設置）及び営業許可の対象となる自動販売機を除く）",
      "address": "大阪府枚方市田口4丁目50番22号",
      "lat": 34.826435,
      "lng": 135.682678,
      "geocoding_level": null,
      "phone": "0570-018-711",
      "license_no": "",
      "license_date": null,
      "expire_date": null
    },
    {
      "name": "キャンパスドンキ関西外大店",
      "name_kana": "キャンパスドンキカンサイガイダイテン",
      "business_type": "⑪ 百貨店、総合スーパー",
      "address": "大阪府枚方市中宮東之町16-1",
      "lat": 34.822293,
      "lng": 135.663589,
      "geocoding_level": null,
      "phone": "0570-018-711",
      "license_no": "",
      "license_date": null,
      "expire_date": null
    },
    {
      "name": "テンショウ東香里",
      "name_kana": "テンショウヒガシコオリ",
      "business_type": "⑤ コップ式自動販売機（自動洗浄・屋内設置）",
      "address": "大阪府枚方市東香里南町52-36",
      "lat": 34.775258,
      "lng": 135.65498,
      "geocoding_level": null,
      "phone": "",
      "license_no": "",
      "license_date": null,
      "expire_date": null
    },
    {
      "name": "大阪府立精神医療センター明治 １F",
      "name_kana": "オオサカフリツセイシンイリョウセンターメイジ",
      "business_type": "⑫ 自動販売機による販売業（コップ式自動販売機（自動洗浄・屋内設置）及び営業許可の対象となる自動販売機を除く）",
      "address": "大阪府枚方市宮之阪3-16-21",
      "lat": 34.814274,
      "lng": 135.661498,
      "geocoding_level": null,
      "phone": "",
      "license_no": "",
      "license_date": null,
      "expire_date": null
    },
    {
      "name": "香里ヶ丘有恵会病院",
      "name_kana": "コオリガオカユウケイカイビョウイン",
      "business_type": "⑤ コップ式自動販売機（自動洗浄・屋内設置）",
      "address": "大阪府枚方市香里ケ丘5-8-1",
      "lat": 34.794701,
      "lng": 135.648379,
      "geocoding_level": null,
      "phone": "",
      "license_no": "",
      "license_date": null,
      "expire_date": null
    },
    {
      "name": "ｴﾆﾀｲﾑﾌｨｯﾄﾈｽ枚方津田山手店 屋",
      "name_kana": "エニタイムフィットネスヒラカタツダヤマテテン　ヤ",
      "business_type": "⑫ 自動販売機による販売業（コップ式自動販売機（自動洗浄・屋内設置）及び営業許可の対象となる自動販売機を除く）",
      "address": "大阪府枚方市津田山手1-19-1",
      "lat": 34.80728,
      "lng": 135.708418,
      "geocoding_level": null,
      "phone": "",
      "license_no": "",
      "license_date": null,
      "expire_date": null
    },
    {
      "name": "トーホー工業　大阪工場",
      "name_kana": "トーホーコウギョウ　オオサカコウジョウ",
      "business_type": "㉗ 器具、容器包装の製造・加工業（合成樹脂が使用された器具又は容器包装の製造、加工に限る。）",
      "address": "大阪府枚方市招提田近2-13",
      "lat": 34.843217,
      "lng": 135.692544,
      "geocoding_level": null,
      "phone": "072-856-3821",
      "license_no": "",
      "license_date": null,
      "expire_date": null
    },
    {
      "name": "コノミヤ牧野店",
      "name_kana": "コノミヤマキノテン",
      "business_type": "⑪ 百貨店、総合スーパー",
      "address": "大阪府枚方市養父丘1-3-41",
      "lat": 34.841008,
      "lng": 135.676637,
      "geocoding_level": null,
      "phone": "",
      "license_no": "",
      "license_date": null,
      "expire_date": null
    },
    {
      "name": "コノミヤ枚方店",
      "name_kana": "コノミヤヒラカタテン",
      "business_type": "⑪ 百貨店、総合スーパー",
      "address": "大阪府枚方市伊加賀緑町1-15",
      "lat": 34.808619,
      "lng": 135.633101,
      "geocoding_level": null,
      "phone": "",
      "license_no": "",
      "license_date": null,
      "expire_date": null
    },
    {
      "name": "コノミヤくずは店",
      "name_kana": "コノミヤクズハテン",
      "business_type": "⑪ 百貨店、総合スーパー",
      "address": "大阪府枚方市楠葉朝日2-1-8-100",
      "lat": 34.858166,
      "lng": 135.683667,
      "geocoding_level": null,
      "phone": "",
      "license_no": "",
      "license_date": null,
      "expire_date": null
    },
    {
      "name": "株式会社ベリーパック",
      "name_kana": "カブシキガイシャベリーパック",
      "business_type": "㉗ 器具、容器包装の製造・加工業（合成樹脂が使用された器具又は容器包装の製造、加工に限る。）",
      "address": "大阪府枚方市春日西町1丁目26-2",
      "lat": 34.807983,
      "lng": 135.68114,
      "geocoding_level": null,
      "phone": "072-859-7701",
      "license_no": "",
      "license_date": null,
      "expire_date": null
    },
    {
      "name": "株式会社平和堂フレンドマートニトリモール枚方店",
      "name_kana": "カブシキガイシャヘイワドウニトリモールヒラカタテン",
      "business_type": "⑪ 百貨店、総合スーパー",
      "address": "大阪府枚方市北山1丁目２－１",
      "lat": 34.837197,
      "lng": 135.696855,
      "geocoding_level": null,
      "phone": "0728661320",
      "license_no": "",
      "license_date": null,
      "expire_date": null
    },
    {
      "name": "ごはんどき枚方店",
      "name_kana": "ゴハンドキヒラカタテン",
      "business_type": "① 飲食店営業",
      "address": "大阪府枚方市磯島南町１４番１号",
      "lat": 34.822497,
      "lng": 135.648228,
      "geocoding_level": null,
      "phone": "072-847-3111",
      "license_no": "101-474",
      "license_date": "2026-02-06",
      "expire_date": "2032-02-29"
    },
    {
      "name": "㈱正木牧場 MASAKI FARMのお菓子な仲間たち",
      "name_kana": "マサキボクジョウ",
      "business_type": "㉕ 行商",
      "address": "大阪府枚方市市内一円",
      "lat": 34.814738,
      "lng": 135.651136,
      "geocoding_level": null,
      "phone": "",
      "license_no": "",
      "license_date": null,
      "expire_date": null
    },
    {
      "name": "森下仁丹株式会社　大阪テクノセンター",
      "name_kana": "モリシタジンタンカブシキガイシャ　オオサカテクノセンター",
      "business_type": "⑭ 添加物製造・加工業（法第13 条第１項の規定により規格が定められた添加物の製造を除く。）",
      "address": "大阪府枚方市津田山手二丁目１１番１号",
      "lat": 34.801604,
      "lng": 135.712756,
      "geocoding_level": null,
      "phone": "072-800-1040",
      "license_no": "",
      "license_date": null,
      "expire_date": null
    },
    {
      "name": "森下仁丹株式会社　大阪テクノセンター",
      "name_kana": "モリシタジンタンカブシキガイシャ　オオサカテクノセンター",
      "business_type": "⑮ いわゆる健康食品の製造・加工業",
      "address": "大阪府枚方市津田山手二丁目１１番１号",
      "lat": 34.801604,
      "lng": 135.712756,
      "geocoding_level": null,
      "phone": "072-800-1040",
      "license_no": "",
      "license_date": null,
      "expire_date": null
    },
    {
      "name": "鎌倉パスタ　くずはモール店",
      "name_kana": "カマクラパスタ　クズハモールテン",
      "business_type": "① 飲食店営業",
      "address": "大阪府枚方市楠葉花園町10番85号 くずはモール南館1F",
      "lat": 34.859826,
      "lng": 135.67686,
      "geocoding_level": null,
      "phone": "072-809-2309",
      "license_no": "101-480",
      "license_date": "2026-02-10",
      "expire_date": "2032-02-29"
    },
    {
      "name": "ガスト 樟葉駅前店",
      "name_kana": "ガストクズハエキマエテン",
      "business_type": "① 飲食店営業",
      "address": "大阪府枚方市楠葉花園町１２－５ アクアくずはビル２階",
      "lat": 34.860684,
      "lng": 135.675718,
      "geocoding_level": null,
      "phone": "072-836-0220",
      "license_no": "１０１－６８７",
      "license_date": "2024-03-28",
      "expire_date": "2030-03-31"
    },
    {
      "name": "ガスト 樟葉駅前店",
      "name_kana": "ガストクズハエキマエテン",
      "business_type": "⑬ その他の食料・飲料販売業",
      "address": "大阪府枚方市楠葉花園町１２－５ アクアくずはビル２階",
      "lat": 34.860684,
      "lng": 135.675718,
      "geocoding_level": null,
      "phone": "072-836-0220",
      "license_no": "",
      "license_date": null,
      "expire_date": null
    },
    {
      "name": "から好し　枚方堂山店",
      "name_kana": "カラヨシヒラカタドウヤマテン",
      "business_type": "① 飲食店営業",
      "address": "大阪府枚方市堂山２丁目３６－２０",
      "lat": 34.817916,
      "lng": 135.673535,
      "geocoding_level": null,
      "phone": "072-805-3066",
      "license_no": "101-446",
      "license_date": "2025-01-06",
      "expire_date": "2031-01-31"
    },
    {
      "name": "から好し　枚方堂山店",
      "name_kana": "カラヨシヒラカタドウヤマテン",
      "business_type": "⑬ その他の食料・飲料販売業",
      "address": "大阪府枚方市堂山２丁目３６－２０",
      "lat": 34.817916,
      "lng": 135.673535,
      "geocoding_level": null,
      "phone": "072-805-3066",
      "license_no": "",
      "license_date": null,
      "expire_date": null
    },
    {
      "name": "ガスト 枚方養父店",
      "name_kana": "ガストヒラカタヤブテン",
      "business_type": "① 飲食店営業",
      "address": "大阪府枚方市養父東町１７－１０",
      "lat": 34.845909,
      "lng": 135.676233,
      "geocoding_level": null,
      "phone": "072-864-3430",
      "license_no": "１０１－６５０",
      "license_date": "2024-03-15",
      "expire_date": "2030-03-31"
    },
    {
      "name": "ガスト 枚方養父店",
      "name_kana": "ガストヒラカタヤブテン",
      "business_type": "⑬ その他の食料・飲料販売業",
      "address": "大阪府枚方市養父東町１７－１０",
      "lat": 34.845909,
      "lng": 135.676233,
      "geocoding_level": null,
      "phone": "072-864-3430",
      "license_no": "",
      "license_date": null,
      "expire_date": null
    },
    {
      "name": "ガスト ビオルネ枚方店",
      "name_kana": "ガストビオルネヒラカタテン",
      "business_type": "① 飲食店営業",
      "address": "大阪府枚方市岡本町７番１号 枚方ビオルネ北館２階",
      "lat": 34.815683,
      "lng": 135.646555,
      "geocoding_level": null,
      "phone": "072-804-3666",
      "license_no": "101-379",
      "license_date": "2024-11-13",
      "expire_date": "2030-11-30"
    },
    {
      "name": "ガスト ビオルネ枚方店",
      "name_kana": "ガストビオルネヒラカタテン",
      "business_type": "⑬ その他の食料・飲料販売業",
      "address": "大阪府枚方市岡本町７番１号 枚方ビオルネ北館２階",
      "lat": 34.815683,
      "lng": 135.646555,
      "geocoding_level": null,
      "phone": "072-804-3666",
      "license_no": "",
      "license_date": null,
      "expire_date": null
    },
    {
      "name": "ガスト 枚方田口店",
      "name_kana": "ガストヒラカタタグチテン",
      "business_type": "⑬ その他の食料・飲料販売業",
      "address": "大阪府枚方市田口１丁目４８－５",
      "lat": 34.825183,
      "lng": 135.676727,
      "geocoding_level": null,
      "phone": "072-890-2908",
      "license_no": "",
      "license_date": null,
      "expire_date": null
    },
    {
      "name": "しゃぶ葉 枚方Ｔ−ＳＩＴＥ店",
      "name_kana": "シャブヨウヒラカタティーサイトテン",
      "business_type": "① 飲食店営業",
      "address": "大阪府枚方市岡東町１２－２",
      "lat": 34.815901,
      "lng": 135.648392,
      "geocoding_level": null,
      "phone": "072-896-8485",
      "license_no": "101-63",
      "license_date": "2026-05-25",
      "expire_date": "2032-05-31"
    },
    {
      "name": "しゃぶ葉 枚方Ｔ−ＳＩＴＥ店",
      "name_kana": "シャブヨウヒラカタティーサイトテン",
      "business_type": "⑬ その他の食料・飲料販売業",
      "address": "大阪府枚方市岡東町１２－２",
      "lat": 34.815901,
      "lng": 135.648392,
      "geocoding_level": null,
      "phone": "072-896-8485",
      "license_no": "",
      "license_date": null,
      "expire_date": null
    },
    {
      "name": "薬マツモトキヨシ　ひらら光善寺店",
      "name_kana": "クスリマツモトキヨシ　ヒララコウゼンジテン",
      "business_type": "③ 乳類販売業",
      "address": "大阪府枚方市北中振3丁目20-10 ひらら光善寺　２階",
      "lat": 34.798584,
      "lng": 135.629643,
      "geocoding_level": null,
      "phone": "072-800-8310",
      "license_no": "",
      "license_date": null,
      "expire_date": null
    },
    {
      "name": "薬マツモトキヨシ　枚方モール店",
      "name_kana": "クスリマツモトキヨシ　ヒラカタモールテン",
      "business_type": "③ 乳類販売業",
      "address": "大阪府枚方市岡東町19番1号 枚方モール1F",
      "lat": 34.81752,
      "lng": 135.650451,
      "geocoding_level": null,
      "phone": "072-803-6900",
      "license_no": "",
      "license_date": null,
      "expire_date": null
    },
    {
      "name": "薬マツモトキヨシ　牧野駅前店",
      "name_kana": "クスリマツモトキヨシ　マキノエキマエテン",
      "business_type": "③ 乳類販売業",
      "address": "大阪府枚方市牧野阪1丁目18-40",
      "lat": 34.844152,
      "lng": 135.665461,
      "geocoding_level": null,
      "phone": "072-800-1379",
      "license_no": "",
      "license_date": null,
      "expire_date": null
    },
    {
      "name": "クボタ枚方第1",
      "name_kana": "クボタヒラカタダイイチ",
      "business_type": "⑩ コンビニエンスストア",
      "address": "大阪府枚方市中宮大池1丁目1番1号 食堂棟",
      "lat": 34.815165,
      "lng": 135.677118,
      "geocoding_level": null,
      "phone": "080-8416-8773",
      "license_no": "",
      "license_date": null,
      "expire_date": null
    },
    {
      "name": "クボタ枚方第2",
      "name_kana": "クボタヒラカタダイニ",
      "business_type": "⑩ コンビニエンスストア",
      "address": "大阪府枚方市中宮大池1丁目1番1号 管理棟",
      "lat": 34.815165,
      "lng": 135.677118,
      "geocoding_level": null,
      "phone": "090-5396-4332",
      "license_no": "",
      "license_date": null,
      "expire_date": null
    },
    {
      "name": "SHINKOSTORE　クボタ枚方分工場",
      "name_kana": "シンコウストア　クボタヒラカタブンコウジョウ",
      "business_type": "⑩ コンビニエンスストア",
      "address": "大阪府枚方市中宮大池3-30-1 サンヨーホームズ 枚方事業所　厚生棟１Ｆ",
      "lat": 34.815516,
      "lng": 135.683507,
      "geocoding_level": null,
      "phone": "080-8348-5990",
      "license_no": "",
      "license_date": null,
      "expire_date": null
    },
    {
      "name": "SHINKOSTORE クボタ枚方分工場",
      "name_kana": "シンコウストアクボタヒラカタブンコウジョウ",
      "business_type": "⑩ コンビニエンスストア",
      "address": "大阪府枚方市中宮大池３－３０－１ 厚生棟１階",
      "lat": 34.815516,
      "lng": 135.683507,
      "geocoding_level": null,
      "phone": "080-8416-8773",
      "license_no": "",
      "license_date": null,
      "expire_date": null
    },
    {
      "name": "SHINKOSTORE アマゾン枚方ＤＳ",
      "name_kana": "シンコウストアアマゾンヒラカタディーエス",
      "business_type": "⑩ コンビニエンスストア",
      "address": "大阪府枚方市招提大谷２－１０－１ 枚方IIロジスティクスセンター内",
      "lat": 34.835799,
      "lng": 135.695067,
      "geocoding_level": null,
      "phone": "070-7821-5502",
      "license_no": "",
      "license_date": null,
      "expire_date": null
    },
    {
      "name": "業務スーパーTAKENOKO大峰店",
      "name_kana": "ギョウムスーパータケノコオオミネテン",
      "business_type": "③ 食肉販売業",
      "address": "大阪府枚方市大峰南町7-1",
      "lat": 34.812482,
      "lng": 135.685533,
      "geocoding_level": null,
      "phone": "0728977708",
      "license_no": "101-354",
      "license_date": "2021-11-30",
      "expire_date": "2027-11-30"
    },
    {
      "name": "業務スーパーTAKENOKO大峰店",
      "name_kana": "ギョウムスーパータケノコオオミネテン",
      "business_type": "④ 魚介類販売業",
      "address": "大阪府枚方市大峰南町7-1",
      "lat": 34.812482,
      "lng": 135.685533,
      "geocoding_level": null,
      "phone": "0728977708",
      "license_no": "101-355",
      "license_date": "2021-11-30",
      "expire_date": "2027-11-30"
    },
    {
      "name": "業務スーパーTAKENOKO大峰店",
      "name_kana": "ギョウムスーパータケノコオオミネテン",
      "business_type": "⑪ 百貨店、総合スーパー",
      "address": "大阪府枚方市大峰南町7-1",
      "lat": 34.812386,
      "lng": 135.685147,
      "geocoding_level": null,
      "phone": "0728977708",
      "license_no": "",
      "license_date": null,
      "expire_date": null
    },
    {
      "name": "業務スーパーTAKENOKO長尾店",
      "name_kana": "ギョウムスーパータケノコナガオテン",
      "business_type": "⑪ 百貨店、総合スーパー",
      "address": "大阪府枚方市藤阪中町11-25",
      "lat": 34.822141,
      "lng": 135.707952,
      "geocoding_level": null,
      "phone": "0728640345",
      "license_no": "",
      "license_date": null,
      "expire_date": null
    },
    {
      "name": "業務スーパーTAKENOKO西禁野店",
      "name_kana": "ギョウムスーパータケノコニシキンヤテン",
      "business_type": "⑪ 百貨店、総合スーパー",
      "address": "大阪府枚方市西禁野1-1-10",
      "lat": 34.819081,
      "lng": 135.651444,
      "geocoding_level": null,
      "phone": "0728055005",
      "license_no": "",
      "license_date": null,
      "expire_date": null
    },
    {
      "name": "業務スーパーTAKENOKO田口店",
      "name_kana": "ギョウムスーパータケノコタグチテン",
      "business_type": "① 飲食店営業",
      "address": "大阪府枚方市田口４丁目1番１号",
      "lat": 34.823705,
      "lng": 135.680175,
      "geocoding_level": null,
      "phone": "072-896-8088",
      "license_no": "101-241",
      "license_date": "2024-09-05",
      "expire_date": "2030-09-30"
    },
    {
      "name": "業務スーパーTAKENOKO田口店",
      "name_kana": "ギョウムスーパータケノコタグチテン",
      "business_type": "③ 食肉販売業",
      "address": "大阪府枚方市田口４丁目1番１号",
      "lat": 34.823705,
      "lng": 135.680175,
      "geocoding_level": null,
      "phone": "072-896-8088",
      "license_no": "101-242",
      "license_date": "2024-09-05",
      "expire_date": "2030-09-30"
    },
    {
      "name": "業務スーパーTAKENOKO田口店",
      "name_kana": "ギョウムスーパータケノコタグチテン",
      "business_type": "④ 魚介類販売業",
      "address": "大阪府枚方市田口４丁目1番１号",
      "lat": 34.823705,
      "lng": 135.680175,
      "geocoding_level": null,
      "phone": "072-896-8088",
      "license_no": "101-243",
      "license_date": "2024-09-05",
      "expire_date": "2030-09-30"
    },
    {
      "name": "業務スーパーTAKENOKO田口店",
      "name_kana": "ギョウムスーパータケノコタグチテン",
      "business_type": "⑪ 菓子製造業",
      "address": "大阪府枚方市田口４丁目1番１号",
      "lat": 34.823705,
      "lng": 135.680175,
      "geocoding_level": null,
      "phone": "072-896-8088",
      "license_no": "101-244",
      "license_date": "2024-09-05",
      "expire_date": "2030-09-30"
    },
    {
      "name": "業務スーパーTAKENOKO田口店",
      "name_kana": "ギョウムスーパータケノコタグチテン",
      "business_type": "⑪ 百貨店、総合スーパー",
      "address": "大阪府枚方市田口４丁目1番１号",
      "lat": 34.823705,
      "lng": 135.680175,
      "geocoding_level": null,
      "phone": "",
      "license_no": "",
      "license_date": null,
      "expire_date": null
    },
    {
      "name": "株式会社平和堂　フレンドマート枚方養父店",
      "name_kana": "カブシキガイシャヘイワドウ　フレンドマートヒラカタヤブテン",
      "business_type": "⑪ 百貨店、総合スーパー",
      "address": "大阪府枚方市養父東町58番10号",
      "lat": 34.845229,
      "lng": 135.678766,
      "geocoding_level": null,
      "phone": "072-864-5691",
      "license_no": "",
      "license_date": null,
      "expire_date": null
    },
    {
      "name": "おいしいプロテインあります",
      "name_kana": "オイシイプロテインアリマス",
      "business_type": "⑬ その他の食料・飲料販売業",
      "address": "大阪府枚方市新町1-2-10 テイクスリービル3F",
      "lat": 34.816809,
      "lng": 135.647811,
      "geocoding_level": null,
      "phone": "",
      "license_no": "",
      "license_date": null,
      "expire_date": null
    },
    {
      "name": "有限会社杉の里",
      "name_kana": "ユウゲンカイシャスギノサト",
      "business_type": "㉖ 集団給食施設",
      "address": "大阪府枚方市杉4607",
      "lat": 34.808478,
      "lng": 135.722233,
      "geocoding_level": null,
      "phone": "0728962212",
      "license_no": "",
      "license_date": null,
      "expire_date": null
    },
    {
      "name": "幸福米穀株式会社",
      "name_kana": "コウフクベイコクカブシキカイシャ",
      "business_type": "⑳ 精穀・製粉業",
      "address": "大阪府枚方市茄子作南町1312",
      "lat": 34.777549,
      "lng": 135.668017,
      "geocoding_level": null,
      "phone": "0728601515",
      "license_no": "",
      "license_date": null,
      "expire_date": null
    },
    {
      "name": "株式会社エイジケア　エイジ・ガーデン渚",
      "name_kana": "カブシキガイシャエイジケア　エイジ・ガーデンナギサ",
      "business_type": "㉖ 集団給食施設",
      "address": "大阪府枚方市渚西2-7-20",
      "lat": 34.831561,
      "lng": 135.652954,
      "geocoding_level": null,
      "phone": "072-888-5818",
      "license_no": "",
      "license_date": null,
      "expire_date": null
    },
    {
      "name": "焼肉きんぐ枚方店",
      "name_kana": "ヤキニクキングヒラカタテン",
      "business_type": "① 飲食店営業",
      "address": "大阪府枚方市田口山２丁目１番１号",
      "lat": 34.831207,
      "lng": 135.689774,
      "geocoding_level": null,
      "phone": "072-896-7190",
      "license_no": "R06-101-221",
      "license_date": "2024-08-13",
      "expire_date": "2030-08-31"
    },
    {
      "name": "そうごうケアホーム香里ケ丘",
      "name_kana": "ソウゴウケアホームコウリガオカ",
      "business_type": "㉖ 集団給食施設",
      "address": "大阪府枚方市香里ケ丘6丁目8番地 そうごうケアホーム香里ケ丘",
      "lat": 34.797238,
      "lng": 135.647064,
      "geocoding_level": null,
      "phone": "0728535100",
      "license_no": "",
      "license_date": null,
      "expire_date": null
    },
    {
      "name": "神楽食堂　串家物語　くずはモール店",
      "name_kana": "カグラショクドウ　クシヤモノガタリ　クズハモールテン",
      "business_type": "⑬ その他の食料・飲料販売業",
      "address": "大阪府枚方市楠葉花園町15番1号 くずはモール　DINING　ST　2F",
      "lat": 34.861126,
      "lng": 135.677822,
      "geocoding_level": null,
      "phone": "",
      "license_no": "",
      "license_date": null,
      "expire_date": null
    },
    {
      "name": "くずはモール",
      "name_kana": "クズハモール",
      "business_type": "⑬ その他の食料・飲料販売業",
      "address": "大阪府枚方市楠葉花園町15-1",
      "lat": 34.860584,
      "lng": 135.677074,
      "geocoding_level": null,
      "phone": "",
      "license_no": "",
      "license_date": null,
      "expire_date": null
    },
    {
      "name": "京阪百貨店枚方店",
      "name_kana": "ケイハンヒャッカテンヒラカタテン",
      "business_type": "⑪ 百貨店、総合スーパー",
      "address": "大阪府枚方市岡東町19-19",
      "lat": 34.815718,
      "lng": 135.648751,
      "geocoding_level": null,
      "phone": "0728461313",
      "license_no": "",
      "license_date": null,
      "expire_date": null
    },
    {
      "name": "京阪百貨店くずはモール店",
      "name_kana": "ケイハンヒャッカテンキクズハモールテン",
      "business_type": "⑪ 百貨店、総合スーパー",
      "address": "大阪府枚方市楠葉花園町15-1",
      "lat": 34.861126,
      "lng": 135.677822,
      "geocoding_level": null,
      "phone": "0728361313",
      "license_no": "",
      "license_date": null,
      "expire_date": null
    },
    {
      "name": "神戸元町餃子枚方市駅前店",
      "name_kana": "コウベモトマチギョウザヒラカタシエキマエテン",
      "business_type": "⑬ その他の食料・飲料販売業",
      "address": "大阪府枚方市岡本町1-6",
      "lat": 34.815585,
      "lng": 135.647873,
      "geocoding_level": null,
      "phone": "",
      "license_no": "",
      "license_date": null,
      "expire_date": null
    },
    {
      "name": "餃子の王将 枚方店",
      "name_kana": "ギョウザノオウショウ　ヒラカタテン",
      "business_type": "⑬ その他の食料・飲料販売業",
      "address": "大阪府枚方市甲斐田新町3-1",
      "lat": 34.821257,
      "lng": 135.67708,
      "geocoding_level": null,
      "phone": "072-849-9803",
      "license_no": "",
      "license_date": null,
      "expire_date": null
    },
    {
      "name": "餃子の王将 枚方市駅前店",
      "name_kana": "ギョウザノオウショウ　ヒラカタシエキマエテン",
      "business_type": "⑬ その他の食料・飲料販売業",
      "address": "大阪府枚方市岡東町24-14",
      "lat": 34.816677,
      "lng": 135.650119,
      "geocoding_level": null,
      "phone": "072-844-4505",
      "license_no": "",
      "license_date": null,
      "expire_date": null
    },
    {
      "name": "餃子の王将 香里ヶ丘店",
      "name_kana": "ギョウザノオウショウ　コウリガオカテン",
      "business_type": "⑬ その他の食料・飲料販売業",
      "address": "大阪府枚方市香里ケ丘4-2-3-118",
      "lat": 34.790245,
      "lng": 135.651456,
      "geocoding_level": null,
      "phone": "072-853-4857",
      "license_no": "",
      "license_date": null,
      "expire_date": null
    },
    {
      "name": "フレスコ藤阪店",
      "name_kana": "フレスコフジサカテン",
      "business_type": "② 食肉販売業（包装済みの食肉のみの販売）",
      "address": "大阪府枚方市藤阪西町3-12",
      "lat": 34.82138,
      "lng": 135.698398,
      "geocoding_level": null,
      "phone": "072-851-9451",
      "license_no": "",
      "license_date": null,
      "expire_date": null
    },
    {
      "name": "フレスコ枚方公園駅前店",
      "name_kana": "フレスコヒラカタコウエンエキマエテン",
      "business_type": "⑪ 百貨店、総合スーパー",
      "address": "大阪府枚方市伊加賀北町３０番４",
      "lat": 34.811058,
      "lng": 135.640052,
      "geocoding_level": null,
      "phone": "072-804-3181",
      "license_no": "",
      "license_date": null,
      "expire_date": null
    },
    {
      "name": "ひらかたもより市　market",
      "name_kana": "ヒラカタモヨリイチマーケット",
      "business_type": "⑪ 百貨店、総合スーパー",
      "address": "大阪府枚方市岡東町19番14号",
      "lat": 34.816236,
      "lng": 135.648706,
      "geocoding_level": null,
      "phone": "072-841-1811",
      "license_no": "",
      "license_date": null,
      "expire_date": null
    },
    {
      "name": "フレスコ東田宮店",
      "name_kana": "フレスコヒガシタミヤテン",
      "business_type": "⑪ 百貨店、総合スーパー",
      "address": "大阪府枚方市東田宮１丁目13-30",
      "lat": 34.807418,
      "lng": 135.652748,
      "geocoding_level": null,
      "phone": "072-844-8581",
      "license_no": "",
      "license_date": null,
      "expire_date": null
    },
    {
      "name": "フレスコ長尾店",
      "name_kana": "フレスコナガオテン",
      "business_type": "⑪ 百貨店、総合スーパー",
      "address": "大阪府枚方市長尾元町５丁目２２番５号",
      "lat": 34.826441,
      "lng": 135.712316,
      "geocoding_level": null,
      "phone": "072-864-0311",
      "license_no": "",
      "license_date": null,
      "expire_date": null
    },
    {
      "name": "ライフ出屋敷店",
      "name_kana": "ライフデヤシキテン",
      "business_type": "⑪ 百貨店、総合スーパー",
      "address": "大阪府枚方市甲斐田新町8-1",
      "lat": 34.821803,
      "lng": 135.677193,
      "geocoding_level": null,
      "phone": "072-847-0012",
      "license_no": "",
      "license_date": null,
      "expire_date": null
    },
    {
      "name": "ライフ御殿山店",
      "name_kana": "ライフゴテンヤマテン",
      "business_type": "⑪ 百貨店、総合スーパー",
      "address": "大阪府枚方市渚西2-27-20",
      "lat": 34.831614,
      "lng": 135.65455,
      "geocoding_level": null,
      "phone": "072-898-8211",
      "license_no": "",
      "license_date": null,
      "expire_date": null
    },
    {
      "name": "ライフ牧野店",
      "name_kana": "ライフマキノテン",
      "business_type": "⑪ 百貨店、総合スーパー",
      "address": "大阪府枚方市牧野阪1-18-1",
      "lat": 34.844542,
      "lng": 135.665196,
      "geocoding_level": null,
      "phone": "072-857-9631",
      "license_no": "",
      "license_date": null,
      "expire_date": null
    },
    {
      "name": "ライフ枚方Ｔ-ＳＩＴＥ店",
      "name_kana": "ライフヒラカタテイサイトテン",
      "business_type": "⑪ 百貨店、総合スーパー",
      "address": "大阪府枚方市岡東町12-2",
      "lat": 34.815369,
      "lng": 135.647641,
      "geocoding_level": null,
      "phone": "0728443701",
      "license_no": "",
      "license_date": null,
      "expire_date": null
    },
    {
      "name": "ライフ枚方大橋店",
      "name_kana": "ライフヒラカタオオハシテン",
      "business_type": "⑪ 百貨店、総合スーパー",
      "address": "大阪府枚方市伊加賀緑町3-1",
      "lat": 34.806591,
      "lng": 135.633581,
      "geocoding_level": null,
      "phone": "072-843-6311",
      "license_no": "",
      "license_date": null,
      "expire_date": null
    },
    {
      "name": "三幸化工株式会社",
      "name_kana": "サンコウカコウカブシキガイシャ",
      "business_type": "㉗ 器具、容器包装の製造・加工業（合成樹脂が使用された器具又は容器包装の製造、加工に限る。）",
      "address": "大阪府枚方市春日西町2-26-11",
      "lat": 34.802969,
      "lng": 135.677989,
      "geocoding_level": null,
      "phone": "0728591481",
      "license_no": "",
      "license_date": null,
      "expire_date": null
    },
    {
      "name": "産直市場よってって　枚方北山店",
      "name_kana": "サンチョクイチバ　ヨッテッテ　ヒラカタキタヤマテン",
      "business_type": "⑪ 百貨店、総合スーパー",
      "address": "大阪府枚方市北山1丁目23番2号",
      "lat": 34.840616,
      "lng": 135.702824,
      "geocoding_level": null,
      "phone": "072-850-4147",
      "license_no": "",
      "license_date": null,
      "expire_date": null
    },
    {
      "name": "なか卯宮之阪店",
      "name_kana": "ナカウミヤノサカテン",
      "business_type": "⑬ その他の食料・飲料販売業",
      "address": "大阪府枚方市宮之阪1丁目9番37号 宮之阪ｼｮｯﾋﾟﾝｸﾞﾃﾗｽ",
      "lat": 34.814698,
      "lng": 135.656137,
      "geocoding_level": null,
      "phone": "",
      "license_no": "",
      "license_date": null,
      "expire_date": null
    },
    {
      "name": "なか卯枚方養父店",
      "name_kana": "ナカウヒラカタヤブテン",
      "business_type": "⑬ その他の食料・飲料販売業",
      "address": "大阪府枚方市養父東町52-1",
      "lat": 34.845806,
      "lng": 135.676821,
      "geocoding_level": null,
      "phone": "",
      "license_no": "",
      "license_date": null,
      "expire_date": null
    },
    {
      "name": "ココカラファイン東香里店",
      "name_kana": "ココカラファインヒガシコウリテン",
      "business_type": "③ 乳類販売業",
      "address": "大阪府枚方市東香里３丁目６－１",
      "lat": 34.832308,
      "lng": 135.684254,
      "geocoding_level": null,
      "phone": "0728601400",
      "license_no": "",
      "license_date": null,
      "expire_date": null
    },
    {
      "name": "ココカラファイン東香里店",
      "name_kana": "ココカラファインヒガシコウリテン",
      "business_type": "⑬ その他の食料・飲料販売業",
      "address": "大阪府枚方市東香里３丁目６－１",
      "lat": 34.832308,
      "lng": 135.684254,
      "geocoding_level": null,
      "phone": "0728601400",
      "license_no": "",
      "license_date": null,
      "expire_date": null
    },
    {
      "name": "びっくりドンキー枚方店",
      "name_kana": "ビックリドンキーヒラカタテン",
      "business_type": "⑬ その他の食料・飲料販売業",
      "address": "大阪府枚方市須山町1161 サンシャインプラザ枚方内",
      "lat": 34.821563,
      "lng": 135.673387,
      "geocoding_level": null,
      "phone": "072-898-7039",
      "license_no": "",
      "license_date": null,
      "expire_date": null
    },
    {
      "name": "株式会社HALLE JAPON",
      "name_kana": "カブシキガイシャアルジャポン",
      "business_type": "㉕ 行商",
      "address": "大阪府枚方市出口周辺",
      "lat": 34.799671,
      "lng": 135.62197,
      "geocoding_level": null,
      "phone": "",
      "license_no": "",
      "license_date": null,
      "expire_date": null
    },
    {
      "name": "京阪ザ・ストア　フレスト長尾店",
      "name_kana": "ケイハンザストア　フレストナガオテン",
      "business_type": "⑪ 百貨店、総合スーパー",
      "address": "大阪府枚方市長尾元町2丁目22番5号",
      "lat": 34.825153,
      "lng": 135.709113,
      "geocoding_level": null,
      "phone": "072-800-1288",
      "license_no": "",
      "license_date": null,
      "expire_date": null
    },
    {
      "name": "もより市　樟葉駅",
      "name_kana": "モヨリイチクズハエキ",
      "business_type": "⑪ 百貨店、総合スーパー",
      "address": "大阪府枚方市楠葉花園町14-1",
      "lat": 34.862635,
      "lng": 135.675845,
      "geocoding_level": null,
      "phone": "072-851-2110",
      "license_no": "",
      "license_date": null,
      "expire_date": null
    },
    {
      "name": "ひらかたもより市　bakery",
      "name_kana": "ヒラカタモヨリイチベーカリー",
      "business_type": "⑬ その他の食料・飲料販売業",
      "address": "大阪府枚方市岡東町19番14号",
      "lat": 34.816236,
      "lng": 135.648706,
      "geocoding_level": null,
      "phone": "0728411822",
      "license_no": "",
      "license_date": null,
      "expire_date": null
    },
    {
      "name": "THE　STORE　枚方モール店",
      "name_kana": "ザストアヒラカタモールテン",
      "business_type": "⑪ 百貨店、総合スーパー",
      "address": "大阪府枚方市岡東町１９－１ 枚方ステーションヒル　1階",
      "lat": 34.817709,
      "lng": 135.650845,
      "geocoding_level": null,
      "phone": "072-896-9701",
      "license_no": "",
      "license_date": null,
      "expire_date": null
    },
    {
      "name": "フレスト移動スーパー2号",
      "name_kana": "フレストイドウスーパーニゴウ",
      "business_type": "㉕ 行商",
      "address": "大阪府枚方市長尾元町2-22-5 （フレスト長尾店）",
      "lat": 34.825153,
      "lng": 135.709113,
      "geocoding_level": null,
      "phone": "072-800-1288",
      "license_no": "",
      "license_date": null,
      "expire_date": null
    },
    {
      "name": "ミニストップ枚方村野高見台店",
      "name_kana": "ミニストップヒラカタムラノタカミダイテン",
      "business_type": "① 飲食店営業",
      "address": "大阪府枚方市村野高見台10-3",
      "lat": 34.807834,
      "lng": 135.674971,
      "geocoding_level": null,
      "phone": "",
      "license_no": "101‐283",
      "license_date": "2021-10-04",
      "expire_date": "2027-10-31"
    },
    {
      "name": "香の川製麺枚方招提店",
      "name_kana": "カノカワセイメンヒラカタショダイテン",
      "business_type": "⑬ その他の食料・飲料販売業",
      "address": "大阪府枚方市西招提町２１７４－１",
      "lat": 34.845512,
      "lng": 135.682333,
      "geocoding_level": null,
      "phone": "072-866-5211",
      "license_no": "",
      "license_date": null,
      "expire_date": null
    },
    {
      "name": "香の川製麺枚方津田店",
      "name_kana": "カノカワセイメンヒラカタツダテン",
      "business_type": "⑬ その他の食料・飲料販売業",
      "address": "大阪府枚方市津田北町１丁目３２－２２",
      "lat": 34.809264,
      "lng": 135.700183,
      "geocoding_level": null,
      "phone": "072-858-5106",
      "license_no": "",
      "license_date": null,
      "expire_date": null
    },
    {
      "name": "株式会社　万代　枚方高野道店",
      "name_kana": "カブシキガイシャ　マンダイ　ヒラカタコウヤミチテン",
      "business_type": "⑪ 百貨店、総合スーパー",
      "address": "大阪府枚方市高野道１－２３－１０",
      "lat": 34.845473,
      "lng": 135.699043,
      "geocoding_level": null,
      "phone": "072-864-1882",
      "license_no": "",
      "license_date": null,
      "expire_date": null
    },
    {
      "name": "株式会社　万代　長尾西店",
      "name_kana": "カブシキガイシャ　マンダイ　ナガオニシテン",
      "business_type": "⑪ 百貨店、総合スーパー",
      "address": "大阪府枚方市長尾西町２－５－１",
      "lat": 34.833999,
      "lng": 135.698594,
      "geocoding_level": null,
      "phone": "072-866-0702",
      "license_no": "",
      "license_date": null,
      "expire_date": null
    },
    {
      "name": "株式会社　万代　香里ヶ丘店",
      "name_kana": "カブシキガイシャ　マンダイ　コオリガオカテン",
      "business_type": "⑪ 百貨店、総合スーパー",
      "address": "大阪府枚方市香里ケ丘３－１２－３",
      "lat": 34.791565,
      "lng": 135.655207,
      "geocoding_level": null,
      "phone": "072-852-2700",
      "license_no": "",
      "license_date": null,
      "expire_date": null
    },
    {
      "name": "JR藤阪駅",
      "name_kana": "ジェイアールフジサカエキ",
      "business_type": "⑬ その他の食料・飲料販売業",
      "address": "大阪府枚方市藤阪南町２丁目１",
      "lat": 34.814485,
      "lng": 135.702741,
      "geocoding_level": null,
      "phone": "",
      "license_no": "",
      "license_date": null,
      "expire_date": null
    },
    {
      "name": "株式会社　万代　枚方店",
      "name_kana": "カブシキガイシャ　マンダイ　ヒラカタテン",
      "business_type": "⑪ 百貨店、総合スーパー",
      "address": "大阪府枚方市西禁野２－４６－３",
      "lat": 34.820429,
      "lng": 135.652548,
      "geocoding_level": null,
      "phone": "072-840-2121",
      "license_no": "",
      "license_date": null,
      "expire_date": null
    },
    {
      "name": "スシロー枚方星ヶ丘店",
      "name_kana": "スシローヒラカタホシガオカテン",
      "business_type": "① 飲食店営業",
      "address": "大阪府枚方市星丘二丁目37番7号",
      "lat": 34.811396,
      "lng": 135.664354,
      "geocoding_level": null,
      "phone": "072-890-1016",
      "license_no": "101-31",
      "license_date": "2026-05-13",
      "expire_date": "2032-05-31"
    },
    {
      "name": "ウエルシア枚方御殿山店",
      "name_kana": "ウエルシアヒラカタゴテンヤマテン",
      "business_type": "⑪ 百貨店、総合スーパー",
      "address": "大阪府枚方市御殿山南町３番中宮第三団地５３－１０１",
      "lat": 34.824581,
      "lng": 135.658055,
      "geocoding_level": null,
      "phone": "0728053088",
      "license_no": "",
      "license_date": null,
      "expire_date": null
    },
    {
      "name": "株式会社キユーソー流通システム　枚方営業所",
      "name_kana": "カブシキカイシャキユーソーリュウツウシステム　ヒラカタエイギョウショ",
      "business_type": "㉙ その他",
      "address": "大阪府枚方市春日北町2-9-12",
      "lat": 34.808257,
      "lng": 135.685361,
      "geocoding_level": null,
      "phone": "072-859-0787",
      "license_no": "",
      "license_date": null,
      "expire_date": null
    },
    {
      "name": "ルピシア くずはモール店",
      "name_kana": "ルピシア クズハモールテン",
      "business_type": "⑬ その他の食料・飲料販売業",
      "address": "大阪府枚方市楠葉花園町15-1 くずはモール本館 ミドリノモール1F",
      "lat": 34.861126,
      "lng": 135.677822,
      "geocoding_level": null,
      "phone": "072-809-5008",
      "license_no": "",
      "license_date": null,
      "expire_date": null
    },
    {
      "name": "ひらかたパークレストラン休憩所",
      "name_kana": "ヒラカタパークレストランキュウケイジョ",
      "business_type": "⑫ 自動販売機による販売業（コップ式自動販売機（自動洗浄・屋内設置）及び営業許可の対象となる自動販売機を除く）",
      "address": "大阪府枚方市枚方公園町１－１",
      "lat": 34.806161,
      "lng": 135.640208,
      "geocoding_level": null,
      "phone": "",
      "license_no": "",
      "license_date": null,
      "expire_date": null
    },
    {
      "name": "ＭＳロジテクサービス",
      "name_kana": "エムエスロジテクサービス",
      "business_type": "⑫ 自動販売機による販売業（コップ式自動販売機（自動洗浄・屋内設置）及び営業許可の対象となる自動販売機を除く）",
      "address": "大阪府枚方市南中振３－３－１",
      "lat": 34.792536,
      "lng": 135.624585,
      "geocoding_level": null,
      "phone": "",
      "license_no": "",
      "license_date": null,
      "expire_date": null
    },
    {
      "name": "ひらかたパーク②アンパンマンスカイ",
      "name_kana": "ヒラカタパークニ アンパンマンスカイ",
      "business_type": "⑫ 自動販売機による販売業（コップ式自動販売機（自動洗浄・屋内設置）及び営業許可の対象となる自動販売機を除く）",
      "address": "大阪府枚方市枚方公園町１－１",
      "lat": 34.806161,
      "lng": 135.640208,
      "geocoding_level": null,
      "phone": "",
      "license_no": "",
      "license_date": null,
      "expire_date": null
    },
    {
      "name": "ひらかたパーク　ウェーブスインガー",
      "name_kana": "ヒラカタパーク　ウェーブスインガー",
      "business_type": "⑫ 自動販売機による販売業（コップ式自動販売機（自動洗浄・屋内設置）及び営業許可の対象となる自動販売機を除く）",
      "address": "大阪府枚方市枚方公園町１-１",
      "lat": 34.806161,
      "lng": 135.640208,
      "geocoding_level": null,
      "phone": "",
      "license_no": "",
      "license_date": null,
      "expire_date": null
    },
    {
      "name": "香里スポーツクラブ枚方スイミングスクール香里",
      "name_kana": "カオリスポーツクラブヒラカタスイミングスクールカオリ",
      "business_type": "⑫ 自動販売機による販売業（コップ式自動販売機（自動洗浄・屋内設置）及び営業許可の対象となる自動販売機を除く）",
      "address": "大阪府枚方市東香里３－９－８",
      "lat": 34.78345,
      "lng": 135.649135,
      "geocoding_level": null,
      "phone": "",
      "license_no": "",
      "license_date": null,
      "expire_date": null
    },
    {
      "name": "パナソニックアリーナ",
      "name_kana": "パナソニックアリーナ",
      "business_type": "⑫ 自動販売機による販売業（コップ式自動販売機（自動洗浄・屋内設置）及び営業許可の対象となる自動販売機を除く）",
      "address": "大阪府枚方市菊丘南町２－１０",
      "lat": 34.800272,
      "lng": 135.644381,
      "geocoding_level": null,
      "phone": "072-844-7482",
      "license_no": "",
      "license_date": null,
      "expire_date": null
    },
    {
      "name": "株式会社マツモトくずは北店",
      "name_kana": "カブシキガイシャマツモトクズハキタテン",
      "business_type": "⑪ 百貨店、総合スーパー",
      "address": "大阪府枚方市楠葉中之芝2丁目22番1号",
      "lat": 34.878628,
      "lng": 135.681805,
      "geocoding_level": null,
      "phone": "072-867-2368",
      "license_no": "",
      "license_date": null,
      "expire_date": null
    },
    {
      "name": "株式会社荒木製作所",
      "name_kana": "カブシキガイシャアラキセイサクショ",
      "business_type": "㉗ 器具、容器包装の製造・加工業（合成樹脂が使用された器具又は容器包装の製造、加工に限る。）",
      "address": "大阪府枚方市招提田近2丁目2番3号",
      "lat": 34.84372,
      "lng": 135.693164,
      "geocoding_level": null,
      "phone": "",
      "license_no": "",
      "license_date": null,
      "expire_date": null
    },
    {
      "name": "CoBaSaiGon",
      "name_kana": "コバサイゴン",
      "business_type": "⑬ その他の食料・飲料販売業",
      "address": "大阪府枚方市楠葉野田1丁目19-11",
      "lat": 34.866161,
      "lng": 135.683281,
      "geocoding_level": null,
      "phone": "07055096455",
      "license_no": "",
      "license_date": null,
      "expire_date": null
    },
    {
      "name": "宗家 源 吉兆庵　京阪くずは店",
      "name_kana": "ソウケミナモトキッチョウアン　ケイハンクズハテン",
      "business_type": "⑬ その他の食料・飲料販売業",
      "address": "大阪府枚方市楠葉花園町15-1 京阪百貨店くずはモール店　1F",
      "lat": 34.862232,
      "lng": 135.677106,
      "geocoding_level": null,
      "phone": "072-850-9922",
      "license_no": "",
      "license_date": null,
      "expire_date": null
    },
    {
      "name": "宗家 源 吉兆庵　京阪ひらかた店",
      "name_kana": "ソウケミナモトキッチョウアン　ケイハンヒラカタテン",
      "business_type": "⑬ その他の食料・飲料販売業",
      "address": "大阪府枚方市岡東町19-19 京阪百貨店ひらかた店　1F",
      "lat": 34.815701,
      "lng": 135.648734,
      "geocoding_level": null,
      "phone": "072-807-3440",
      "license_no": "",
      "license_date": null,
      "expire_date": null
    },
    {
      "name": "牧野スポーツクラブ",
      "name_kana": "マキノスポーツクラブ",
      "business_type": "⑤ コップ式自動販売機（自動洗浄・屋内設置）",
      "address": "大阪府枚方市養父丘1-2-54",
      "lat": 34.840898,
      "lng": 135.67839,
      "geocoding_level": null,
      "phone": "",
      "license_no": "",
      "license_date": null,
      "expire_date": null
    },
    {
      "name": "無印良品くずはモール",
      "name_kana": "ムジルシリョウヒンクズハモール",
      "business_type": "⑬ その他の食料・飲料販売業",
      "address": "大阪府枚方市楠葉花園町15-1　くずはモール2階",
      "lat": 34.863012,
      "lng": 135.676493,
      "geocoding_level": null,
      "phone": "072-864-0511",
      "license_no": "",
      "license_date": null,
      "expire_date": null
    },
    {
      "name": "日進堂　京阪百貨店ひらかた店",
      "name_kana": "ニッシンドウ　ケイハンヒャッカテンヒラカタテン",
      "business_type": "⑬ その他の食料・飲料販売業",
      "address": "大阪府枚方市岡東町19番19号",
      "lat": 34.815701,
      "lng": 135.648734,
      "geocoding_level": null,
      "phone": "0438302600",
      "license_no": "",
      "license_date": null,
      "expire_date": null
    },
    {
      "name": "日進堂　くずはモール",
      "name_kana": "ニッシンドウ　クズハモール",
      "business_type": "⑬ その他の食料・飲料販売業",
      "address": "大阪府枚方市楠葉花園町15-1 くずはモール",
      "lat": 34.861126,
      "lng": 135.677822,
      "geocoding_level": null,
      "phone": "078-261-8091",
      "license_no": "",
      "license_date": null,
      "expire_date": null
    },
    {
      "name": "サイゼリヤ枚方市役所前店",
      "name_kana": "サイゼリヤヒラカタシヤクショマエテン",
      "business_type": "⑬ その他の食料・飲料販売業",
      "address": "大阪府枚方市岡東町8-6 現代枚方駅前ﾋﾞﾙ2F",
      "lat": 34.81545,
      "lng": 135.650294,
      "geocoding_level": null,
      "phone": "072-804-9061",
      "license_no": "",
      "license_date": null,
      "expire_date": null
    },
    {
      "name": "関西医科大学くずは病院　栄養部",
      "name_kana": "カンサイイカダイガク　クズハビョウイン　エイヨウブ",
      "business_type": "㉖ 集団給食施設",
      "address": "大阪府枚方市楠葉花園町４番１号",
      "lat": 34.857539,
      "lng": 135.676735,
      "geocoding_level": null,
      "phone": "0728092121",
      "license_no": "",
      "license_date": null,
      "expire_date": null
    },
    {
      "name": "愛媛県大阪事務所",
      "name_kana": "エヒメケンオオサカジムショ",
      "business_type": "㉕ 行商",
      "address": "大阪府枚方市市内一円",
      "lat": 34.814738,
      "lng": 135.651136,
      "geocoding_level": null,
      "phone": "06-6441-2839",
      "license_no": "",
      "license_date": null,
      "expire_date": null
    },
    {
      "name": "東京純豆腐　くずはモール店",
      "name_kana": "トウキョウスンドゥブ　クズハモールテン",
      "business_type": "① 飲食店営業",
      "address": "大阪府枚方市楠葉花園町10-85 くずはモール　南館　ヒカリノモール1F",
      "lat": 34.859679,
      "lng": 135.676787,
      "geocoding_level": null,
      "phone": "",
      "license_no": "101-283",
      "license_date": "2023-09-11",
      "expire_date": "2029-09-30"
    },
    {
      "name": "ケンタッキーフライドチキン　くずはモール店",
      "name_kana": "ケンタッキーフライドチキン　クズハモールテン",
      "business_type": "⑬ その他の食料・飲料販売業",
      "address": "大阪府枚方市楠葉花園町10番85号 くずはモール南館１F",
      "lat": 34.859822,
      "lng": 135.676805,
      "geocoding_level": null,
      "phone": "0728564699",
      "license_no": "",
      "license_date": null,
      "expire_date": null
    },
    {
      "name": "パームウォークカフェ",
      "name_kana": "パームウォークカフェ",
      "business_type": "⑬ その他の食料・飲料販売業",
      "address": "大阪府枚方市枚方公園町1番1号",
      "lat": 34.808003,
      "lng": 135.639842,
      "geocoding_level": null,
      "phone": "",
      "license_no": "",
      "license_date": null,
      "expire_date": null
    },
    {
      "name": "ピピンズハウス",
      "name_kana": "ピピンズハウス",
      "business_type": "⑬ その他の食料・飲料販売業",
      "address": "大阪府枚方市枚方公園町1番1号",
      "lat": 34.808003,
      "lng": 135.639842,
      "geocoding_level": null,
      "phone": "",
      "license_no": "",
      "license_date": null,
      "expire_date": null
    },
    {
      "name": "ファルコンカフェ",
      "name_kana": "ファルコンカフェ",
      "business_type": "⑬ その他の食料・飲料販売業",
      "address": "大阪府枚方市枚方公園町1番1号",
      "lat": 34.808003,
      "lng": 135.639842,
      "geocoding_level": null,
      "phone": "",
      "license_no": "",
      "license_date": null,
      "expire_date": null
    },
    {
      "name": "かやしま介護事業所",
      "name_kana": "カヤシマカイゴジギョウショ",
      "business_type": "⑬ その他の食料・飲料販売業",
      "address": "大阪府枚方市上島町38-8",
      "lat": 34.849964,
      "lng": 135.669839,
      "geocoding_level": null,
      "phone": "",
      "license_no": "",
      "license_date": null,
      "expire_date": null
    },
    {
      "name": "有料老人ホーム 美華",
      "name_kana": "ユウリョウロウジンホームミハナ",
      "business_type": "⑬ その他の食料・飲料販売業",
      "address": "大阪府枚方市招提北町2-34-1",
      "lat": 34.845386,
      "lng": 135.689134,
      "geocoding_level": null,
      "phone": "",
      "license_no": "",
      "license_date": null,
      "expire_date": null
    },
    {
      "name": "みずほ銀行 枚方支店",
      "name_kana": "ミズホギンコウヒラカタシテン",
      "business_type": "⑬ その他の食料・飲料販売業",
      "address": "大阪府枚方市岡本町2-20",
      "lat": 34.816105,
      "lng": 135.64787,
      "geocoding_level": null,
      "phone": "",
      "license_no": "",
      "license_date": null,
      "expire_date": null
    },
    {
      "name": "㈱大阪螺子製作所",
      "name_kana": "カブシキガイシャオオサカラシセイサクショ",
      "business_type": "⑬ その他の食料・飲料販売業",
      "address": "大阪府枚方市招提田近1-8-3",
      "lat": 34.83977,
      "lng": 135.69357,
      "geocoding_level": null,
      "phone": "",
      "license_no": "",
      "license_date": null,
      "expire_date": null
    },
    {
      "name": "㈱エム・ティ・ボディー",
      "name_kana": "カブシキカイシャエムティボディー",
      "business_type": "⑬ その他の食料・飲料販売業",
      "address": "大阪府枚方市長尾家具町2-9-1",
      "lat": 34.843424,
      "lng": 135.711306,
      "geocoding_level": null,
      "phone": "",
      "license_no": "",
      "license_date": null,
      "expire_date": null
    },
    {
      "name": "清水建設㈱大阪機械ｾﾝﾀｰ",
      "name_kana": "シミズケンセツカブシキカイシャオオサカキカイセンター",
      "business_type": "⑬ その他の食料・飲料販売業",
      "address": "大阪府枚方市大峰元町1-18-1",
      "lat": 34.814485,
      "lng": 135.684235,
      "geocoding_level": null,
      "phone": "",
      "license_no": "",
      "license_date": null,
      "expire_date": null
    },
    {
      "name": "老人保健施設美杉１号",
      "name_kana": "ロウジンホケンシセツミスギイチゴウ",
      "business_type": "⑬ その他の食料・飲料販売業",
      "address": "大阪府枚方市西招提町2166",
      "lat": 34.844433,
      "lng": 135.681894,
      "geocoding_level": null,
      "phone": "",
      "license_no": "",
      "license_date": null,
      "expire_date": null
    },
    {
      "name": "サンエス工業",
      "name_kana": "サンエスコウギョウ",
      "business_type": "⑬ その他の食料・飲料販売業",
      "address": "大阪府枚方市伊加賀緑町3-24",
      "lat": 34.807043,
      "lng": 135.634487,
      "geocoding_level": null,
      "phone": "",
      "license_no": "",
      "license_date": null,
      "expire_date": null
    },
    {
      "name": "北河内農業協同組合本店",
      "name_kana": "キタカワチノウギョウクミアイホンテン",
      "business_type": "⑬ その他の食料・飲料販売業",
      "address": "大阪府枚方市大垣内町2-1-11",
      "lat": 34.812539,
      "lng": 135.652119,
      "geocoding_level": null,
      "phone": "",
      "license_no": "",
      "license_date": null,
      "expire_date": null
    },
    {
      "name": "美樟苑",
      "name_kana": "ミショウエン",
      "business_type": "⑬ その他の食料・飲料販売業",
      "address": "大阪府枚方市養父東町18-30",
      "lat": 34.845852,
      "lng": 135.675667,
      "geocoding_level": null,
      "phone": "",
      "license_no": "",
      "license_date": null,
      "expire_date": null
    },
    {
      "name": "東海教育産業㈱",
      "name_kana": "トウカイキョウイクサンギョウカブシキカイシャ",
      "business_type": "⑬ その他の食料・飲料販売業",
      "address": "大阪府枚方市桜丘町60-1",
      "lat": 34.806008,
      "lng": 135.669534,
      "geocoding_level": null,
      "phone": "",
      "license_no": "",
      "license_date": null,
      "expire_date": null
    },
    {
      "name": "枚方市立特別養護老人ﾎｰﾑ",
      "name_kana": "ヒラカタシリツトクベツヨウゴロウジンホーム",
      "business_type": "⑬ その他の食料・飲料販売業",
      "address": "大阪府枚方市交北3-1-52",
      "lat": 34.834288,
      "lng": 135.677308,
      "geocoding_level": null,
      "phone": "",
      "license_no": "",
      "license_date": null,
      "expire_date": null
    },
    {
      "name": "ケーテー自動車",
      "name_kana": "ケーテージドウシャ",
      "business_type": "⑬ その他の食料・飲料販売業",
      "address": "大阪府枚方市出口1-2-83",
      "lat": 34.802974,
      "lng": 135.629535,
      "geocoding_level": null,
      "phone": "",
      "license_no": "",
      "license_date": null,
      "expire_date": null
    },
    {
      "name": "関西電力㈱枚方営業所",
      "name_kana": "カンサイデンリョクカブシキカイシャヒラカタエイギョウショ",
      "business_type": "⑬ その他の食料・飲料販売業",
      "address": "大阪府枚方市東田宮1-1-6",
      "lat": 34.810785,
      "lng": 135.651706,
      "geocoding_level": null,
      "phone": "",
      "license_no": "",
      "license_date": null,
      "expire_date": null
    },
    {
      "name": "関西医科大学 くずは病院",
      "name_kana": "カンサイイカダイガククズハビョウイン",
      "business_type": "⑬ その他の食料・飲料販売業",
      "address": "大阪府枚方市楠葉花園町4-1",
      "lat": 34.857539,
      "lng": 135.676735,
      "geocoding_level": null,
      "phone": "",
      "license_no": "",
      "license_date": null,
      "expire_date": null
    },
    {
      "name": "老人保健施設美杉２号",
      "name_kana": "ロウジンホケンシセツミスギニゴウ",
      "business_type": "⑬ その他の食料・飲料販売業",
      "address": "大阪府枚方市西招提町2166",
      "lat": 34.844433,
      "lng": 135.681894,
      "geocoding_level": null,
      "phone": "",
      "license_no": "",
      "license_date": null,
      "expire_date": null
    },
    {
      "name": "千成ヤクルト長尾センター",
      "name_kana": "センナリヤクルトナガオセンター",
      "business_type": "⑬ その他の食料・飲料販売業",
      "address": "大阪府枚方市藤阪元町3-1358-9",
      "lat": 34.818953,
      "lng": 135.704146,
      "geocoding_level": null,
      "phone": "",
      "license_no": "",
      "license_date": null,
      "expire_date": null
    },
    {
      "name": "ロイヤルレジデンス御殿山",
      "name_kana": "ロイヤルレジデンスゴテンヤマ",
      "business_type": "⑬ その他の食料・飲料販売業",
      "address": "大阪府枚方市御殿山町16-4",
      "lat": 34.828761,
      "lng": 135.657461,
      "geocoding_level": null,
      "phone": "",
      "license_no": "",
      "license_date": null,
      "expire_date": null
    },
    {
      "name": "特別養護老人ﾎｰﾑ美郷",
      "name_kana": "トクベツヨウゴロウジンホームミサト",
      "business_type": "⑬ その他の食料・飲料販売業",
      "address": "大阪府枚方市西招提町1253",
      "lat": 34.844444,
      "lng": 135.681164,
      "geocoding_level": null,
      "phone": "",
      "license_no": "",
      "license_date": null,
      "expire_date": null
    },
    {
      "name": "京阪園芸株式会社",
      "name_kana": "ケイハンエンゲイカブシキカイシャ",
      "business_type": "⑬ その他の食料・飲料販売業",
      "address": "大阪府枚方市伊加賀寿町1-5",
      "lat": 34.808541,
      "lng": 135.636998,
      "geocoding_level": null,
      "phone": "",
      "license_no": "",
      "license_date": null,
      "expire_date": null
    },
    {
      "name": "大興運輸株式会社",
      "name_kana": "タイコウンユカブシキカイシャ",
      "business_type": "⑬ その他の食料・飲料販売業",
      "address": "大阪府枚方市招提田近3-23",
      "lat": 34.843346,
      "lng": 135.695379,
      "geocoding_level": null,
      "phone": "",
      "license_no": "",
      "license_date": null,
      "expire_date": null
    },
    {
      "name": "星の天一",
      "name_kana": "ホシノテンイチ",
      "business_type": "⑬ その他の食料・飲料販売業",
      "address": "大阪府枚方市池之宮1-2-18",
      "lat": 34.814056,
      "lng": 135.670505,
      "geocoding_level": null,
      "phone": "",
      "license_no": "",
      "license_date": null,
      "expire_date": null
    },
    {
      "name": "久門紙器工業株式会社",
      "name_kana": "クモンシキコウギョウカブシキカイシャ",
      "business_type": "⑬ その他の食料・飲料販売業",
      "address": "大阪府枚方市春日西町2-25-5",
      "lat": 34.803835,
      "lng": 135.679051,
      "geocoding_level": null,
      "phone": "",
      "license_no": "",
      "license_date": null,
      "expire_date": null
    },
    {
      "name": "特養サール・ナート",
      "name_kana": "トクヨウサールナート",
      "business_type": "⑬ その他の食料・飲料販売業",
      "address": "大阪府枚方市高田2-40-1",
      "lat": 34.777003,
      "lng": 135.663412,
      "geocoding_level": null,
      "phone": "",
      "license_no": "",
      "license_date": null,
      "expire_date": null
    },
    {
      "name": "㈱河萬",
      "name_kana": "カブシキカイシャカワマン",
      "business_type": "⑬ その他の食料・飲料販売業",
      "address": "大阪府枚方市池之宮1-2-18",
      "lat": 34.814056,
      "lng": 135.670505,
      "geocoding_level": null,
      "phone": "",
      "license_no": "",
      "license_date": null,
      "expire_date": null
    },
    {
      "name": "ＭＳロジテクサービス㈱",
      "name_kana": "エムエスロジテクサービスカブシキカイシャ",
      "business_type": "⑬ その他の食料・飲料販売業",
      "address": "大阪府枚方市南中振3-3-1",
      "lat": 34.792526,
      "lng": 135.624583,
      "geocoding_level": null,
      "phone": "",
      "license_no": "",
      "license_date": null,
      "expire_date": null
    },
    {
      "name": "千成ヤクルト枚方新センター",
      "name_kana": "センナリヤクルトヒラカタシンセンター",
      "business_type": "⑬ その他の食料・飲料販売業",
      "address": "大阪府枚方市大垣内町3-13-10",
      "lat": 34.810976,
      "lng": 135.654635,
      "geocoding_level": null,
      "phone": "",
      "license_no": "",
      "license_date": null,
      "expire_date": null
    },
    {
      "name": "コマツ大阪工場",
      "name_kana": "コマツオオサカコウジョウ",
      "business_type": "⑬ その他の食料・飲料販売業",
      "address": "大阪府枚方市上野3-1-1",
      "lat": 34.829104,
      "lng": 135.667844,
      "geocoding_level": null,
      "phone": "",
      "license_no": "",
      "license_date": null,
      "expire_date": null
    },
    {
      "name": "エムケイ産業",
      "name_kana": "エムケイサンギョウ",
      "business_type": "⑬ その他の食料・飲料販売業",
      "address": "大阪府枚方市春日北町1-3-1",
      "lat": 34.811677,
      "lng": 135.683641,
      "geocoding_level": null,
      "phone": "",
      "license_no": "",
      "license_date": null,
      "expire_date": null
    },
    {
      "name": "向山病院",
      "name_kana": "ムカイヤマビョウイン",
      "business_type": "⑬ その他の食料・飲料販売業",
      "address": "大阪府枚方市招提元町1-36-6",
      "lat": 34.83926,
      "lng": 135.688567,
      "geocoding_level": null,
      "phone": "",
      "license_no": "",
      "license_date": null,
      "expire_date": null
    },
    {
      "name": "日本精線㈱食堂",
      "name_kana": "ニホンセイセンカブシキカイシャショクドウ",
      "business_type": "⑬ その他の食料・飲料販売業",
      "address": "大阪府枚方市池之宮4-17-1",
      "lat": 34.811046,
      "lng": 135.681204,
      "geocoding_level": null,
      "phone": "",
      "license_no": "",
      "license_date": null,
      "expire_date": null
    },
    {
      "name": "京阪くずはメディケアモール",
      "name_kana": "ケイハンクズハメディケアモール",
      "business_type": "⑬ その他の食料・飲料販売業",
      "address": "大阪府枚方市楠葉花園町11-3 ファインシティくずは1F",
      "lat": 34.859754,
      "lng": 135.674902,
      "geocoding_level": null,
      "phone": "",
      "license_no": "",
      "license_date": null,
      "expire_date": null
    },
    {
      "name": "(株)サエラ薬局　もみじ薬局",
      "name_kana": "カブシキカイシャサエラヤッキョクモミジヤッキョク",
      "business_type": "⑬ その他の食料・飲料販売業",
      "address": "大阪府枚方市養父東町64-1",
      "lat": 34.845288,
      "lng": 135.680114,
      "geocoding_level": null,
      "phone": "",
      "license_no": "",
      "license_date": null,
      "expire_date": null
    },
    {
      "name": "フィオーレ美杉1",
      "name_kana": "フィオーレミズギイチ",
      "business_type": "⑬ その他の食料・飲料販売業",
      "address": "大阪府枚方市西招提町1255",
      "lat": 34.844876,
      "lng": 135.681112,
      "geocoding_level": null,
      "phone": "",
      "license_no": "",
      "license_date": null,
      "expire_date": null
    },
    {
      "name": "フィオーレ美杉2",
      "name_kana": "フィオーレミスギニ",
      "business_type": "⑬ その他の食料・飲料販売業",
      "address": "大阪府枚方市西招提町1255",
      "lat": 34.844876,
      "lng": 135.681112,
      "geocoding_level": null,
      "phone": "",
      "license_no": "",
      "license_date": null,
      "expire_date": null
    },
    {
      "name": "くずは美郷",
      "name_kana": "クズハミサト",
      "business_type": "⑬ その他の食料・飲料販売業",
      "address": "大阪府枚方市南楠葉1-65-25",
      "lat": 34.864377,
      "lng": 135.680594,
      "geocoding_level": null,
      "phone": "",
      "license_no": "",
      "license_date": null,
      "expire_date": null
    },
    {
      "name": "㈱京阪工技社",
      "name_kana": "カブシキカイシャケイハンコウギシャ",
      "business_type": "⑬ その他の食料・飲料販売業",
      "address": "大阪府枚方市西禁野2-4-18",
      "lat": 34.818998,
      "lng": 135.652405,
      "geocoding_level": null,
      "phone": "",
      "license_no": "",
      "license_date": null,
      "expire_date": null
    },
    {
      "name": "㈱ぽぷら枚方公園",
      "name_kana": "カブシキカイシャポプラヒラカタコウエン",
      "business_type": "⑬ その他の食料・飲料販売業",
      "address": "大阪府枚方市伊加賀北町3-20",
      "lat": 34.810368,
      "lng": 135.641134,
      "geocoding_level": null,
      "phone": "",
      "license_no": "",
      "license_date": null,
      "expire_date": null
    },
    {
      "name": "モーターサイクル スリーエス",
      "name_kana": "モーターサイクル スリーエス",
      "business_type": "⑬ その他の食料・飲料販売業",
      "address": "大阪府枚方市出屋敷元町1-4-7",
      "lat": 34.826892,
      "lng": 135.684976,
      "geocoding_level": null,
      "phone": "",
      "license_no": "",
      "license_date": null,
      "expire_date": null
    },
    {
      "name": "北陸電気工業㈱",
      "name_kana": "ホクリクデンキコウギョウカブシキカイシャ",
      "business_type": "⑬ その他の食料・飲料販売業",
      "address": "大阪府枚方市出口3-1-21",
      "lat": 34.800444,
      "lng": 135.629436,
      "geocoding_level": null,
      "phone": "",
      "license_no": "",
      "license_date": null,
      "expire_date": null
    },
    {
      "name": "京阪園芸株式会社 １階",
      "name_kana": "ハンシンエンゲイカブシキカイシャイッカイ",
      "business_type": "⑬ その他の食料・飲料販売業",
      "address": "大阪府枚方市伊加賀寿町1-5",
      "lat": 34.808541,
      "lng": 135.636998,
      "geocoding_level": null,
      "phone": "",
      "license_no": "",
      "license_date": null,
      "expire_date": null
    },
    {
      "name": "大潤会特別養護老人ホーム 御殿山カーム４Ｆ",
      "name_kana": "オオジュンカイトクベツヨウゴロウジンホームゴテンヤマカームヨンカイ",
      "business_type": "⑬ その他の食料・飲料販売業",
      "address": "大阪府枚方市渚西2-7-30",
      "lat": 34.831674,
      "lng": 135.652675,
      "geocoding_level": null,
      "phone": "",
      "license_no": "",
      "license_date": null,
      "expire_date": null
    },
    {
      "name": "大潤会特別養護老人ホーム 御殿山カーム２Ｆ",
      "name_kana": "オオジュンカイトクベツヨウゴロウジンホームゴテンヤマカームニカイ",
      "business_type": "⑬ その他の食料・飲料販売業",
      "address": "大阪府枚方市渚西2-7-30",
      "lat": 34.831674,
      "lng": 135.652675,
      "geocoding_level": null,
      "phone": "",
      "license_no": "",
      "license_date": null,
      "expire_date": null
    },
    {
      "name": "Yell cafe",
      "name_kana": "エール カフェ",
      "business_type": "⑬ その他の食料・飲料販売業",
      "address": "大阪府枚方市枚方市内一円",
      "lat": 34.814738,
      "lng": 135.651136,
      "geocoding_level": null,
      "phone": "",
      "license_no": "",
      "license_date": null,
      "expire_date": null
    },
    {
      "name": "老人ホーム まきの美郷",
      "name_kana": "ロウジンホームマキノミサト",
      "business_type": "⑬ その他の食料・飲料販売業",
      "address": "大阪府枚方市牧野北町11-15",
      "lat": 34.849064,
      "lng": 135.662338,
      "geocoding_level": null,
      "phone": "",
      "license_no": "",
      "license_date": null,
      "expire_date": null
    },
    {
      "name": "大正精工株式会社 春日工場",
      "name_kana": "タイショウセイヤクカブシキカイシャカスガコウジョウ",
      "business_type": "⑬ その他の食料・飲料販売業",
      "address": "大阪府枚方市春日西町1-20-1",
      "lat": 34.807889,
      "lng": 135.680687,
      "geocoding_level": null,
      "phone": "",
      "license_no": "",
      "license_date": null,
      "expire_date": null
    },
    {
      "name": "(株)サエラ薬局　さくら薬局",
      "name_kana": "カブシキカイシャサエラヤッキョク　サクラヤッキョク",
      "business_type": "⑬ その他の食料・飲料販売業",
      "address": "大阪府枚方市養父西町24-25",
      "lat": 34.848031,
      "lng": 135.670966,
      "geocoding_level": null,
      "phone": "",
      "license_no": "",
      "license_date": null,
      "expire_date": null
    },
    {
      "name": "大商化成㈱",
      "name_kana": "ダイショウカセイカブシキカイシャ",
      "business_type": "⑬ その他の食料・飲料販売業",
      "address": "大阪府枚方市招提田近1-12-5",
      "lat": 34.840583,
      "lng": 135.6914,
      "geocoding_level": null,
      "phone": "",
      "license_no": "",
      "license_date": null,
      "expire_date": null
    },
    {
      "name": "トップワールド樟葉店 駐車場前",
      "name_kana": "トップワールドクズハテンチュウシャジョウマエ",
      "business_type": "⑬ その他の食料・飲料販売業",
      "address": "大阪府枚方市南楠葉1-15-20",
      "lat": 34.861399,
      "lng": 135.68144,
      "geocoding_level": null,
      "phone": "",
      "license_no": "",
      "license_date": null,
      "expire_date": null
    },
    {
      "name": "トップワールド香里が丘",
      "name_kana": "トップワールドトウリガオカ",
      "business_type": "⑬ その他の食料・飲料販売業",
      "address": "大阪府枚方市香里ケ丘2-1-6",
      "lat": 34.793545,
      "lng": 135.65897,
      "geocoding_level": null,
      "phone": "",
      "license_no": "",
      "license_date": null,
      "expire_date": null
    },
    {
      "name": "㈱たまゆら",
      "name_kana": "カブシキカイシャタマユラ",
      "business_type": "⑬ その他の食料・飲料販売業",
      "address": "大阪府枚方市南中振3-5-1",
      "lat": 34.79062,
      "lng": 135.624459,
      "geocoding_level": null,
      "phone": "",
      "license_no": "",
      "license_date": null,
      "expire_date": null
    },
    {
      "name": "京阪園芸㈱外機",
      "name_kana": "ハンシンエンゲイカブシキカイシャガイキ",
      "business_type": "⑬ その他の食料・飲料販売業",
      "address": "大阪府枚方市伊加賀寿町1-5",
      "lat": 34.808541,
      "lng": 135.636998,
      "geocoding_level": null,
      "phone": "",
      "license_no": "",
      "license_date": null,
      "expire_date": null
    },
    {
      "name": "ﾄｯﾌﾟﾜｰﾙﾄﾞ牧野",
      "name_kana": "トップワールドマキノ",
      "business_type": "⑬ その他の食料・飲料販売業",
      "address": "大阪府枚方市宇山町7-25",
      "lat": 34.843939,
      "lng": 135.66909,
      "geocoding_level": null,
      "phone": "",
      "license_no": "",
      "license_date": null,
      "expire_date": null
    },
    {
      "name": "総合ケア株式会社",
      "name_kana": "ソウゴウケアカブシキカイシャ",
      "business_type": "⑬ その他の食料・飲料販売業",
      "address": "大阪府枚方市香里ケ丘6-8",
      "lat": 34.797415,
      "lng": 135.647376,
      "geocoding_level": null,
      "phone": "",
      "license_no": "",
      "license_date": null,
      "expire_date": null
    },
    {
      "name": "田中ちま子様　駐車場",
      "name_kana": "タナカチマコサマチュウシャジョウ",
      "business_type": "⑬ その他の食料・飲料販売業",
      "address": "大阪府枚方市伊加賀南町8-3",
      "lat": 34.8077,
      "lng": 135.64119,
      "geocoding_level": null,
      "phone": "",
      "license_no": "",
      "license_date": null,
      "expire_date": null
    },
    {
      "name": "サービス付高齢者向け住宅フルール長尾",
      "name_kana": "サービスツキコウレイシャムケジュウタクフルールナガオ",
      "business_type": "⑬ その他の食料・飲料販売業",
      "address": "大阪府枚方市藤阪東町3-5-8",
      "lat": 34.819516,
      "lng": 135.714502,
      "geocoding_level": null,
      "phone": "",
      "license_no": "",
      "license_date": null,
      "expire_date": null
    },
    {
      "name": "佐藤病院 待合室",
      "name_kana": "サトウビョウインマツアイシツ",
      "business_type": "⑬ その他の食料・飲料販売業",
      "address": "大阪府枚方市養父東町65-1",
      "lat": 34.844353,
      "lng": 135.680246,
      "geocoding_level": null,
      "phone": "",
      "license_no": "",
      "license_date": null,
      "expire_date": null
    },
    {
      "name": "小規模特別養護老人ホームくずは西美郷",
      "name_kana": "ショウキボトクベツヨウゴロウジンホームクズハニシムサト",
      "business_type": "⑬ その他の食料・飲料販売業",
      "address": "大阪府枚方市西船橋2-58-3",
      "lat": 34.852124,
      "lng": 135.671756,
      "geocoding_level": null,
      "phone": "",
      "license_no": "",
      "license_date": null,
      "expire_date": null
    },
    {
      "name": "株式会社ミルックス",
      "name_kana": "カブシキカイシャルミックス",
      "business_type": "⑬ その他の食料・飲料販売業",
      "address": "大阪府枚方市大峰東町1-1",
      "lat": 34.813959,
      "lng": 135.689429,
      "geocoding_level": null,
      "phone": "",
      "license_no": "",
      "license_date": null,
      "expire_date": null
    },
    {
      "name": "日本生命 枚方ビル ５Ｆ",
      "name_kana": "ニホンセイメイヒラカタビルゴカイ",
      "business_type": "⑬ その他の食料・飲料販売業",
      "address": "大阪府枚方市岡東町5-32",
      "lat": 34.814386,
      "lng": 135.649756,
      "geocoding_level": null,
      "phone": "",
      "license_no": "",
      "license_date": null,
      "expire_date": null
    },
    {
      "name": "星光くずはビル",
      "name_kana": "セイコウクズハビル",
      "business_type": "⑬ その他の食料・飲料販売業",
      "address": "大阪府枚方市楠葉花園町12-1",
      "lat": 34.86087,
      "lng": 135.675254,
      "geocoding_level": null,
      "phone": "",
      "license_no": "",
      "license_date": null,
      "expire_date": null
    },
    {
      "name": "フルール東山",
      "name_kana": "フルールヒガシヤマ",
      "business_type": "⑬ その他の食料・飲料販売業",
      "address": "大阪府枚方市東山2-29",
      "lat": 34.849122,
      "lng": 135.692363,
      "geocoding_level": null,
      "phone": "",
      "license_no": "",
      "license_date": null,
      "expire_date": null
    },
    {
      "name": "吉泉食堂",
      "name_kana": "ヨシイズミショクドウ",
      "business_type": "⑬ その他の食料・飲料販売業",
      "address": "大阪府枚方市津田山手2-10-1",
      "lat": 34.802918,
      "lng": 135.711772,
      "geocoding_level": null,
      "phone": "",
      "license_no": "",
      "license_date": null,
      "expire_date": null
    },
    {
      "name": "株式会社キッド　鹿命舘",
      "name_kana": "カブシキカイシャキッドロクメイカン",
      "business_type": "⑬ その他の食料・飲料販売業",
      "address": "大阪府枚方市東船橋2-18",
      "lat": 34.852708,
      "lng": 135.68577,
      "geocoding_level": null,
      "phone": "",
      "license_no": "",
      "license_date": null,
      "expire_date": null
    },
    {
      "name": "株式会社ｷｯﾄﾞ　鹿命舘2",
      "name_kana": "カブシキカイシャキッドロクメイカンニ",
      "business_type": "⑬ その他の食料・飲料販売業",
      "address": "大阪府枚方市東船橋2-18",
      "lat": 34.852708,
      "lng": 135.68577,
      "geocoding_level": null,
      "phone": "",
      "license_no": "",
      "license_date": null,
      "expire_date": null
    },
    {
      "name": "京阪くずはﾒﾃﾞｨｹｱﾓｰﾙ2",
      "name_kana": "ケイハンクズハメディケアモールニ",
      "business_type": "⑬ その他の食料・飲料販売業",
      "address": "大阪府枚方市楠葉花園町11-3 ファインシティくずは",
      "lat": 34.859754,
      "lng": 135.674902,
      "geocoding_level": null,
      "phone": "",
      "license_no": "",
      "license_date": null,
      "expire_date": null
    },
    {
      "name": "春日丘自治会館",
      "name_kana": "カスガオカジチカイカン",
      "business_type": "⑬ その他の食料・飲料販売業",
      "address": "大阪府枚方市茄子作4-51-25",
      "lat": 34.782103,
      "lng": 135.667645,
      "geocoding_level": null,
      "phone": "",
      "license_no": "",
      "license_date": null,
      "expire_date": null
    },
    {
      "name": "西日本高速道路㈱関西支社",
      "name_kana": "ニシニホンコウソクドウロカブシキカイシャカンサイシシャ",
      "business_type": "⑬ その他の食料・飲料販売業",
      "address": "大阪府枚方市三栗2-5-1",
      "lat": 34.838343,
      "lng": 135.659322,
      "geocoding_level": null,
      "phone": "",
      "license_no": "",
      "license_date": null,
      "expire_date": null
    },
    {
      "name": "ｻｰﾋﾞｽ付き高齢者向け住宅　ﾌﾙｰﾙ長尾",
      "name_kana": "サービスツキコウレイシャムケジュウタクフルールナガオ",
      "business_type": "⑬ その他の食料・飲料販売業",
      "address": "大阪府枚方市藤阪東町3-5-8",
      "lat": 34.819516,
      "lng": 135.714502,
      "geocoding_level": null,
      "phone": "",
      "license_no": "",
      "license_date": null,
      "expire_date": null
    },
    {
      "name": "ﾄｯﾌﾟﾜｰﾙﾄﾞ枚方",
      "name_kana": "トップワールドヒラカタ",
      "business_type": "⑬ その他の食料・飲料販売業",
      "address": "大阪府枚方市甲斐田東町28-1",
      "lat": 34.825219,
      "lng": 135.672464,
      "geocoding_level": null,
      "phone": "",
      "license_no": "",
      "license_date": null,
      "expire_date": null
    },
    {
      "name": "ﾄｯﾌﾟﾜｰﾙﾄﾞ枚方1",
      "name_kana": "トップワールドヒラカタイチ",
      "business_type": "⑬ その他の食料・飲料販売業",
      "address": "大阪府枚方市甲斐田東町28-1",
      "lat": 34.825219,
      "lng": 135.672464,
      "geocoding_level": null,
      "phone": "",
      "license_no": "",
      "license_date": null,
      "expire_date": null
    },
    {
      "name": "株式会社エコフォレスト",
      "name_kana": "カブシキカイシャエコフォレスト",
      "business_type": "⑬ その他の食料・飲料販売業",
      "address": "大阪府枚方市招提大谷2-1-16",
      "lat": 34.834572,
      "lng": 135.693034,
      "geocoding_level": null,
      "phone": "",
      "license_no": "",
      "license_date": null,
      "expire_date": null
    },
    {
      "name": "㈱日本ﾃﾞﾘｶﾌﾚｯｼｭ",
      "name_kana": "カブシキカイシャニホンデリカフレッシュ",
      "business_type": "⑬ その他の食料・飲料販売業",
      "address": "大阪府枚方市招提田近2-2-1",
      "lat": 34.84392,
      "lng": 135.693541,
      "geocoding_level": null,
      "phone": "",
      "license_no": "",
      "license_date": null,
      "expire_date": null
    },
    {
      "name": "医療法人成育会なりもとﾚﾃﾞｨｰｽﾎｽﾋﾟﾀﾙ駐車場",
      "name_kana": "ナリモトレディースホスピタルチュウシャジョウ",
      "business_type": "⑬ その他の食料・飲料販売業",
      "address": "大阪府枚方市岡東町14-27",
      "lat": 34.813593,
      "lng": 135.648045,
      "geocoding_level": null,
      "phone": "",
      "license_no": "",
      "license_date": null,
      "expire_date": null
    },