{
  "meta": {
    "updated": 1783568789,
    "sources": [
      {
        "source": "厚生労働省 食品衛生申請等システム（オープンデータ）",
        "license": "公共データ利用規約（第1.0版, PDL1.0）"
      }
    ]
  },
  "data": [
    {
      "name": "フライスター株式会社　静岡工場",
      "name_kana": "フライスターカブシキガイシャ　シズオカコウジョウ",
      "business_type": "㉔ その他の食料品製造・加工業",
      "address": "静岡県菊川市赤土1902番地",
      "lat": 34.688711,
      "lng": 138.090858,
      "geocoding_level": null,
      "phone": "",
      "license_no": "",
      "license_date": null,
      "expire_date": null
    },
    {
      "name": "フライスター株式会社　東海工場",
      "name_kana": "フライスターカブシキガイシャ　トウカイコウジョウ",
      "business_type": "㉚ 密封包装食品製造業",
      "address": "静岡県菊川市三沢1500番地の２",
      "lat": 34.719336,
      "lng": 138.10637,
      "geocoding_level": null,
      "phone": "",
      "license_no": "S76202200109",
      "license_date": "2022-06-24",
      "expire_date": "2028-11-30"
    },
    {
      "name": "フライスター株式会社　東海工場",
      "name_kana": "フライスターカブシキガイシャ　トウカイコウジョウ",
      "business_type": "㉔ その他の食料品製造・加工業",
      "address": "静岡県菊川市三沢1500番地の２",
      "lat": 34.719364,
      "lng": 138.106329,
      "geocoding_level": null,
      "phone": "",
      "license_no": "",
      "license_date": null,
      "expire_date": null
    },
    {
      "name": "株式会社ホソヤ　菊川GPセンター",
      "name_kana": "カブシキカイシャホソヤ　キクガワジーピーセンター",
      "business_type": "㉓ 卵選別包装業",
      "address": "静岡県菊川市丹野575-5",
      "lat": 34.713064,
      "lng": 138.11907,
      "geocoding_level": null,
      "phone": "053773811",
      "license_no": "",
      "license_date": null,
      "expire_date": null
    },
    {
      "name": "ダイソー　菊川インター店",
      "name_kana": "ダイソー　キクカワインターテン",
      "business_type": "⑬ その他の食料・飲料販売業",
      "address": "静岡県菊川市加茂４５６８",
      "lat": 34.750852,
      "lng": 138.086916,
      "geocoding_level": null,
      "phone": "",
      "license_no": "",
      "license_date": null,
      "expire_date": null
    },
    {
      "name": "理研香料工業株式会社菊川工場",
      "name_kana": "リケンコウリヨウコウギヨウ",
      "business_type": "㉜ 添加物製造業",
      "address": "静岡県菊川市三沢１５５７",
      "lat": 34.716113,
      "lng": 138.106517,
      "geocoding_level": null,
      "phone": "0537-37-1711",
      "license_no": "S00054100052",
      "license_date": "2021-11-30",
      "expire_date": "2027-11-30"
    },
    {
      "name": "理研香料工業株式会社　菊川工場",
      "name_kana": "リケンコウリョウコウギョウカブシキガイシャキクガワコウジョウ",
      "business_type": "㉔ その他の食料品製造・加工業",
      "address": "静岡県菊川市三沢１５５７",
      "lat": 34.716113,
      "lng": 138.106517,
      "geocoding_level": null,
      "phone": "0537-37-1711",
      "license_no": "",
      "license_date": null,
      "expire_date": null
    },
    {
      "name": "スーパーラック菊川店　清流物語",
      "name_kana": "スーパーラックキクガワテン　セイリュウモノガタリ",
      "business_type": "⑫ 自動販売機による販売業（コップ式自動販売機（自動洗浄・屋内設置）及び営業許可の対象となる自動販売機を除く）",
      "address": "静岡県菊川市加茂574-2",
      "lat": 34.749261,
      "lng": 138.080021,
      "geocoding_level": null,
      "phone": "",
      "license_no": "",
      "license_date": null,
      "expire_date": null
    },
    {
      "name": "バロー菊川店",
      "name_kana": "バローキクガワテン",
      "business_type": "⑪ 百貨店、総合スーパー",
      "address": "静岡県菊川市本所字女渕1468",
      "lat": 36.406381,
      "lng": 139.210679,
      "geocoding_level": null,
      "phone": "0537-36-4110",
      "license_no": "",
      "license_date": null,
      "expire_date": null
    },
    {
      "name": "バロー　菊川店",
      "name_kana": "バロー　キクガワテン",
      "business_type": "④ 魚介類販売業",
      "address": "静岡県菊川市本所１４６８",
      "lat": 34.746924,
      "lng": 138.09772,
      "geocoding_level": null,
      "phone": "0537-36-4110",
      "license_no": "S69200600315",
      "license_date": "2023-11-09",
      "expire_date": "2028-11-30"
    },
    {
      "name": "バロー　菊川店",
      "name_kana": "バローキクガワテン",
      "business_type": "⑪ 菓子製造業",
      "address": "静岡県菊川市本所１４６８",
      "lat": 34.746924,
      "lng": 138.09772,
      "geocoding_level": null,
      "phone": "0537-36-4110",
      "license_no": "S69201700397",
      "license_date": "2023-11-09",
      "expire_date": "2028-11-30"
    },
    {
      "name": "バロー　菊川店",
      "name_kana": "バローキクガワテン",
      "business_type": "① 飲食店営業",
      "address": "静岡県菊川市本所１４６８",
      "lat": 34.746924,
      "lng": 138.09772,
      "geocoding_level": null,
      "phone": "0537-36-4110",
      "license_no": "S69201700398",
      "license_date": "2023-11-09",
      "expire_date": "2028-11-30"
    },
    {
      "name": "バロー　菊川店",
      "name_kana": "バローキクガワテン",
      "business_type": "③ 食肉販売業",
      "address": "静岡県菊川市本所１４６８",
      "lat": 34.746924,
      "lng": 138.09772,
      "geocoding_level": null,
      "phone": "0537-36-4110",
      "license_no": "S69201700399",
      "license_date": "2023-11-09",
      "expire_date": "2028-11-30"
    },
    {
      "name": "かっぱ寿司　菊川店",
      "name_kana": "カッパズシ　キクガワテン",
      "business_type": "⑪ 菓子製造業",
      "address": "静岡県菊川市加茂2737-1",
      "lat": 34.743575,
      "lng": 138.085355,
      "geocoding_level": null,
      "phone": "0537-37-2288",
      "license_no": "S76202200496",
      "license_date": "2023-03-13",
      "expire_date": "2029-11-30"
    },
    {
      "name": "かっぱ寿司　菊川店",
      "name_kana": "カッパズシ　キクガワテン",
      "business_type": "⑬ その他の食料・飲料販売業",
      "address": "静岡県菊川市加茂2737-1",
      "lat": 34.743575,
      "lng": 138.085355,
      "geocoding_level": null,
      "phone": "0537-37-2288",
      "license_no": "",
      "license_date": null,
      "expire_date": null
    },
    {
      "name": "かっぱ寿司　菊川店",
      "name_kana": "カッパズシ　キクガワテン",
      "business_type": "① 飲食店営業",
      "address": "静岡県菊川市加茂２７３７－１",
      "lat": 34.743575,
      "lng": 138.085355,
      "geocoding_level": null,
      "phone": "0537-37-2288",
      "license_no": "S69200600420",
      "license_date": "2023-11-17",
      "expire_date": "2028-11-30"
    },
    {
      "name": "堀公俊",
      "name_kana": "ホリマサトシ",
      "business_type": "⑪ 百貨店、総合スーパー",
      "address": "静岡県菊川市倉沢1435",
      "lat": 34.789283,
      "lng": 138.127158,
      "geocoding_level": null,
      "phone": "09080749768",
      "license_no": "",
      "license_date": null,
      "expire_date": null
    },
    {
      "name": "杏林堂スーパードラッグストア 菊川店",
      "name_kana": "キョウリンドウスーパードラッグストア キクガワテン",
      "business_type": "① 魚介類販売業（包装済みの魚介類のみの販売）",
      "address": "静岡県菊川市本所字万田1318-1",
      "lat": 37.745788,
      "lng": 140.437565,
      "geocoding_level": null,
      "phone": "0537-37-0011",
      "license_no": "",
      "license_date": null,
      "expire_date": null
    },
    {
      "name": "杏林堂スーパードラッグストア 菊川店",
      "name_kana": "キョウリンドウスーパードラッグストア キクガワテン",
      "business_type": "② 食肉販売業（包装済みの食肉のみの販売）",
      "address": "静岡県菊川市本所字万田1318-1",
      "lat": 37.745788,
      "lng": 140.437565,
      "geocoding_level": null,
      "phone": "0537-37-0011",
      "license_no": "",
      "license_date": null,
      "expire_date": null
    },
    {
      "name": "杏林堂スーパードラッグストア 菊川店",
      "name_kana": "キョウリンドウスーパードラッグストア キクガワテン",
      "business_type": "③ 乳類販売業",
      "address": "静岡県菊川市本所字万田1318-1",
      "lat": 37.745788,
      "lng": 140.437565,
      "geocoding_level": null,
      "phone": "0537-37-0011",
      "license_no": "",
      "license_date": null,
      "expire_date": null
    },
    {
      "name": "杏林堂スーパードラッグストア 小笠店",
      "name_kana": "キョウリンドウスーパードラッグストア オガサテン",
      "business_type": "① 魚介類販売業（包装済みの魚介類のみの販売）",
      "address": "静岡県菊川市下平川5210-1",
      "lat": 34.700822,
      "lng": 138.09433,
      "geocoding_level": null,
      "phone": "0537-73-8011",
      "license_no": "",
      "license_date": null,
      "expire_date": null
    },
    {
      "name": "杏林堂スーパードラッグストア 小笠店",
      "name_kana": "キョウリンドウスーパードラッグストア オガサテン",
      "business_type": "② 食肉販売業（包装済みの食肉のみの販売）",
      "address": "静岡県菊川市下平川5210-1",
      "lat": 34.700822,
      "lng": 138.09433,
      "geocoding_level": null,
      "phone": "0537-73-8011",
      "license_no": "",
      "license_date": null,
      "expire_date": null
    },
    {
      "name": "杏林堂スーパードラッグストア 小笠店",
      "name_kana": "キョウリンドウスーパードラッグストア オガサテン",
      "business_type": "③ 乳類販売業",
      "address": "静岡県菊川市下平川5210-1",
      "lat": 34.700822,
      "lng": 138.09433,
      "geocoding_level": null,
      "phone": "0537-73-8011",
      "license_no": "",
      "license_date": null,
      "expire_date": null
    },
    {
      "name": "杏林堂スーパードラッグストア 小笠店",
      "name_kana": "キョウリンドウスーパードラッグストア オガサテン",
      "business_type": "⑫ 自動販売機による販売業（コップ式自動販売機（自動洗浄・屋内設置）及び営業許可の対象となる自動販売機を除く）",
      "address": "静岡県菊川市下平川5210-1",
      "lat": 34.700822,
      "lng": 138.09433,
      "geocoding_level": null,
      "phone": "0537-73-8011",
      "license_no": "",
      "license_date": null,
      "expire_date": null
    },
    {
      "name": "株式会社テトス",
      "name_kana": "カブシキガイシャテトス",
      "business_type": "⑤ コップ式自動販売機（自動洗浄・屋内設置）",
      "address": "静岡県菊川市三沢１５００－６０",
      "lat": 34.714229,
      "lng": 138.107431,
      "geocoding_level": null,
      "phone": "0537-35-6027",
      "license_no": "",
      "license_date": null,
      "expire_date": null
    },
    {
      "name": "ル・コパン",
      "name_kana": "ル　コパン",
      "business_type": "⑬ その他の食料・飲料販売業",
      "address": "静岡県菊川市三沢１５００－６０",
      "lat": 34.714229,
      "lng": 138.107431,
      "geocoding_level": null,
      "phone": "0537-35-6027",
      "license_no": "",
      "license_date": null,
      "expire_date": null
    },
    {
      "name": "フジオーゼックス株式会社静岡工場社員食堂",
      "name_kana": "フジオーゼックスカブシキガイシャシズオカコウジョウシャインショクドウ",
      "business_type": "① 飲食店営業",
      "address": "静岡県菊川市三沢１５００番地の６０",
      "lat": 34.714229,
      "lng": 138.107431,
      "geocoding_level": null,
      "phone": "0537-35-6027",
      "license_no": "S66200200382",
      "license_date": "2021-11-30",
      "expire_date": "2027-11-30"
    },
    {
      "name": "フジオーゼックス　赤土ハイツ　厚生棟",
      "name_kana": "フジオーゼックス　アカツチハイツ　コウセイトウ",
      "business_type": "① 飲食店営業",
      "address": "静岡県菊川市赤土８１１－１",
      "lat": 34.693043,
      "lng": 138.097825,
      "geocoding_level": null,
      "phone": "0537-29-5357",
      "license_no": "S69201900428",
      "license_date": "2025-11-17",
      "expire_date": "2031-11-30"
    },
    {
      "name": "日東工業株式会社菊川工場　キャビネット生産課部品管理",
      "name_kana": "ニットウコウギョウカブシキカイシャキクガワコウジョウキャビネットセイサンカブヒンカンリ",
      "business_type": "⑤ コップ式自動販売機（自動洗浄・屋内設置）",
      "address": "静岡県菊川市西方３番地",
      "lat": 34.753055,
      "lng": 138.072664,
      "geocoding_level": null,
      "phone": "053-437-5533",
      "license_no": "",
      "license_date": null,
      "expire_date": null
    },
    {
      "name": "日東工業株式会社菊川工場　キャビネット生産課休憩所",
      "name_kana": "ニットウコウギョウカブシキカイシャキクガワコウジョウキャビネットセイサンカキュウケイジョ",
      "business_type": "⑤ コップ式自動販売機（自動洗浄・屋内設置）",
      "address": "静岡県菊川市西方３番地",
      "lat": 34.753055,
      "lng": 138.072664,
      "geocoding_level": null,
      "phone": "053-437-5533",
      "license_no": "",
      "license_date": null,
      "expire_date": null
    },
    {
      "name": "株式会社スズキ自販浜松　小笠店",
      "name_kana": "カブシキガイシャスズキジハンハママツオガサテン",
      "business_type": "⑤ コップ式自動販売機（自動洗浄・屋内設置）",
      "address": "静岡県菊川市赤土１４２６",
      "lat": 34.692759,
      "lng": 138.093403,
      "geocoding_level": null,
      "phone": "0537-73-4440",
      "license_no": "",
      "license_date": null,
      "expire_date": null
    },
    {
      "name": "日東工業㈱　菊川工場　南工場",
      "name_kana": "ニットウコウギョウカブキクガワコウジョウミナミコウジョウ",
      "business_type": "⑤ コップ式自動販売機（自動洗浄・屋内設置）",
      "address": "静岡県菊川市西方３番地",
      "lat": 34.753055,
      "lng": 138.072664,
      "geocoding_level": null,
      "phone": "0537-35-3211",
      "license_no": "",
      "license_date": null,
      "expire_date": null
    },
    {
      "name": "和興産業株式会社本社食堂",
      "name_kana": "ワコウサンギョウカブシキガイシャホンシャショクドウ",
      "business_type": "⑤ コップ式自動販売機（自動洗浄・屋内設置）",
      "address": "静岡県菊川市古谷５６３－１",
      "lat": 34.708164,
      "lng": 138.128095,
      "geocoding_level": null,
      "phone": "053-437-5533",
      "license_no": "",
      "license_date": null,
      "expire_date": null
    },
    {
      "name": "日東工業株式会社　菊川工場",
      "name_kana": "ニットウコウギョウカブシキガイシャキクガワコウジョウ",
      "business_type": "⑤ コップ式自動販売機（自動洗浄・屋内設置）",
      "address": "静岡県菊川市西方３番地",
      "lat": 34.753055,
      "lng": 138.072664,
      "geocoding_level": null,
      "phone": "053-437-5533",
      "license_no": "",
      "license_date": null,
      "expire_date": null
    },
    {
      "name": "菊川ヒルズゴルフガーデン",
      "name_kana": "キクガワヒルズゴルフガーデン",
      "business_type": "② 調理機能を有する自動販売機（要許可）",
      "address": "静岡県菊川市加茂４３５１－１",
      "lat": 34.741211,
      "lng": 138.075604,
      "geocoding_level": null,
      "phone": "053-421-4309",
      "license_no": "S69201300136",
      "license_date": "2023-11-21",
      "expire_date": "2029-11-30"
    },
    {
      "name": "フレッシュファームクロダ",
      "name_kana": "フレッシュファームクロダ",
      "business_type": "⑰ 農産保存食料品製造・加工業",
      "address": "静岡県菊川市下平川4090",
      "lat": 34.70912,
      "lng": 138.094638,
      "geocoding_level": null,
      "phone": "0537732290",
      "license_no": "",
      "license_date": null,
      "expire_date": null
    },
    {
      "name": "フガク工機株式会社",
      "name_kana": "フガクコウキ",
      "business_type": "⑤ コップ式自動販売機（自動洗浄・屋内設置）",
      "address": "静岡県菊川市下平川１２５６番地の１",
      "lat": 34.696592,
      "lng": 138.090082,
      "geocoding_level": null,
      "phone": "054-641-5779",
      "license_no": "",
      "license_date": null,
      "expire_date": null
    },
    {
      "name": "フガク工機株式会社守衛所前",
      "name_kana": "フガクコウキシユエイジヨ",
      "business_type": "⑤ コップ式自動販売機（自動洗浄・屋内設置）",
      "address": "静岡県菊川市下平川１２５６番地の１",
      "lat": 34.696826,
      "lng": 138.090044,
      "geocoding_level": null,
      "phone": "0546-41-5779",
      "license_no": "",
      "license_date": null,
      "expire_date": null
    },
    {
      "name": "東洋キャリヤ工業株式会社静岡事業所１Ｆ",
      "name_kana": "トウヨウキヤリア",
      "business_type": "⑤ コップ式自動販売機（自動洗浄・屋内設置）",
      "address": "静岡県菊川市加茂１３００ー３",
      "lat": 34.746,
      "lng": 138.067873,
      "geocoding_level": null,
      "phone": "054-641-5779",
      "license_no": "",
      "license_date": null,
      "expire_date": null
    },
    {
      "name": "富士工業㈱菊川工場",
      "name_kana": "フジコウギョウカブキクガワコウジョウ",
      "business_type": "⑤ コップ式自動販売機（自動洗浄・屋内設置）",
      "address": "静岡県菊川市加茂４５２１",
      "lat": 34.750331,
      "lng": 138.075404,
      "geocoding_level": null,
      "phone": "054-641-5779",
      "license_no": "",
      "license_date": null,
      "expire_date": null
    },
    {
      "name": "中部フーズ　バロー菊川店",
      "name_kana": "チュウブフーズ　バローキクガワテン",
      "business_type": "① 飲食店営業",
      "address": "静岡県菊川市本所女渕１４６８",
      "lat": 34.746924,
      "lng": 138.09772,
      "geocoding_level": null,
      "phone": "0537-36-4110",
      "license_no": "S69200700035",
      "license_date": "2025-11-13",
      "expire_date": "2031-11-30"
    },
    {
      "name": "内外化成株式会社　小笠工場",
      "name_kana": "ナイガイカセイカブシキカイシャ　オガサコウジョウ",
      "business_type": "㉗ 器具、容器包装の製造・加工業（合成樹脂が使用された器具又は容器包装の製造、加工に限る。）",
      "address": "静岡県菊川市嶺田1813-8",
      "lat": 34.68884,
      "lng": 138.086322,
      "geocoding_level": null,
      "phone": "",
      "license_no": "",
      "license_date": null,
      "expire_date": null
    },
    {
      "name": "株式会社　国太楼　静岡工場",
      "name_kana": "クニタロウ　シズオカコウジョウ",
      "business_type": "⑯ コーヒー製造・加工業（飲料の製造を除く。）",
      "address": "静岡県菊川市富田600",
      "lat": 34.77573,
      "lng": 138.111448,
      "geocoding_level": null,
      "phone": "0537364171",
      "license_no": "",
      "license_date": null,
      "expire_date": null
    },
    {
      "name": "株式会社　国太楼　静岡工場",
      "name_kana": "クニタロウ　シズオカコウジョウ",
      "business_type": "㉑ 製茶業",
      "address": "静岡県菊川市富田600",
      "lat": 34.77573,
      "lng": 138.111448,
      "geocoding_level": null,
      "phone": "0537364171",
      "license_no": "",
      "license_date": null,
      "expire_date": null
    },
    {
      "name": "山陽商事株式会社　静岡工場",
      "name_kana": "サンヨウショウジカブシキガイシャ　シズオカコウジョウ",
      "business_type": "㉙ その他",
      "address": "静岡県菊川市嶺田547-1",
      "lat": 34.697508,
      "lng": 138.076128,
      "geocoding_level": null,
      "phone": "0537730531",
      "license_no": "",
      "license_date": null,
      "expire_date": null
    },
    {
      "name": "菊川ヒルズゴルフガーデン",
      "name_kana": "キクガワヒルズゴルフガーデン",
      "business_type": "② 調理機能を有する自動販売機（要許可）",
      "address": "静岡県菊川市加茂４３５１－１",
      "lat": 34.741211,
      "lng": 138.075604,
      "geocoding_level": null,
      "phone": "053-421-4309",
      "license_no": "S69201300136",
      "license_date": "2023-11-21",
      "expire_date": "2029-11-30"
    },
    {
      "name": "日東工業菊川工場",
      "name_kana": "ニットウコウギョウキクガワコウジョウ",
      "business_type": "⑤ コップ式自動販売機（自動洗浄・屋内設置）",
      "address": "静岡県菊川市西方3",
      "lat": 34.753194,
      "lng": 138.072601,
      "geocoding_level": null,
      "phone": "0537-35-3211",
      "license_no": "",
      "license_date": null,
      "expire_date": null
    },
    {
      "name": "日東工業株式会社菊川工場",
      "name_kana": "ニットウコウギョウカブシキガイシャキクガワコウジョウ",
      "business_type": "⑤ コップ式自動販売機（自動洗浄・屋内設置）",
      "address": "静岡県菊川市西方３番地",
      "lat": 34.753194,
      "lng": 138.072601,
      "geocoding_level": null,
      "phone": "0800-919-0509",
      "license_no": "",
      "license_date": null,
      "expire_date": null
    },
    {
      "name": "遠鉄ストア　菊川店",
      "name_kana": "エンテツストアキクガワテン",
      "business_type": "⑤ コップ式自動販売機（自動洗浄・屋内設置）",
      "address": "静岡県菊川市堀之内５４６－１",
      "lat": 34.7632,
      "lng": 138.087408,
      "geocoding_level": null,
      "phone": "0800-919-0509",
      "license_no": "",
      "license_date": null,
      "expire_date": null
    },
    {
      "name": "ミクニ株式会社菊川工場　休憩室",
      "name_kana": "ミクニキュウケイシツ",
      "business_type": "② 調理機能を有する自動販売機（要許可）",
      "address": "静岡県菊川市半済２８２８番地",
      "lat": 34.75318,
      "lng": 138.100047,
      "geocoding_level": null,
      "phone": "0800-919-0509",
      "license_no": "S00583570057",
      "license_date": "2022-11-28",
      "expire_date": "2027-11-30"
    },
    {
      "name": "平成産業工業中央外",
      "name_kana": "ヘイセイサンギョウコウギョウチュウオウソト",
      "business_type": "② 調理機能を有する自動販売機（要許可）",
      "address": "静岡県菊川市赤土２０１４",
      "lat": 34.688456,
      "lng": 138.092191,
      "geocoding_level": null,
      "phone": "0800-919-0509",
      "license_no": "S69200600526",
      "license_date": "2022-11-28",
      "expire_date": "2027-11-30"
    },
    {
      "name": "株式会社たこ満",
      "name_kana": "カブシキガイシャタコマン",
      "business_type": "⑤ コップ式自動販売機（自動洗浄・屋内設置）",
      "address": "静岡県菊川市上平川565-1",
      "lat": 34.713506,
      "lng": 138.081515,
      "geocoding_level": null,
      "phone": "0537735289",
      "license_no": "",
      "license_date": null,
      "expire_date": null
    },
    {
      "name": "㈱ベルソニカ菊川工場",
      "name_kana": "カブベルソニカキクガワコウジョウ",
      "business_type": "② 調理機能を有する自動販売機（要許可）",
      "address": "静岡県菊川市加茂１３００－２４",
      "lat": 34.745899,
      "lng": 138.068666,
      "geocoding_level": null,
      "phone": "0537-37-3800",
      "license_no": "S76202300450",
      "license_date": "2024-01-04",
      "expire_date": "2029-11-30"
    },
    {
      "name": "MIRAfitness 　菊川加茂店",
      "name_kana": "ミラフィットネス　キクガワカモテン",
      "business_type": "⑤ コップ式自動販売機（自動洗浄・屋内設置）",
      "address": "静岡県菊川市加茂3275",
      "lat": 34.735833,
      "lng": 138.085283,
      "geocoding_level": null,
      "phone": "0537-26-9277",
      "license_no": "",
      "license_date": null,
      "expire_date": null
    },
    {
      "name": "ＲＡＩＣＥＳ",
      "name_kana": "ライセス",
      "business_type": "㉕ そうざい製造業",
      "address": "静岡県菊川市棚草５８７－２",
      "lat": 34.704424,
      "lng": 138.09745,
      "geocoding_level": null,
      "phone": "090-7600-6679",
      "license_no": "S76202100002",
      "license_date": "2021-06-10",
      "expire_date": "2027-11-30"
    },
    {
      "name": "neo Makkar ? Mokarry",
      "name_kana": "ネオマッカーモーカリー",
      "business_type": "① 飲食店営業",
      "address": "静岡県菊川市堀之内1248 レクセル菊川　２Ｆ",
      "lat": 34.761073,
      "lng": 138.086259,
      "geocoding_level": null,
      "phone": "080-4213-0109",
      "license_no": "S76202500302",
      "license_date": "2025-11-07",
      "expire_date": "2030-11-30"
    },
    {
      "name": "ガスト 静岡菊川町店",
      "name_kana": "ガストシズオカキクガワチョウテン",
      "business_type": "⑬ その他の食料・飲料販売業",
      "address": "静岡県菊川市半済１７４０",
      "lat": 34.756294,
      "lng": 138.087815,
      "geocoding_level": null,
      "phone": "0537-37-3502",
      "license_no": "",
      "license_date": null,
      "expire_date": null
    },
    {
      "name": "ガスト静岡菊川町店",
      "name_kana": "ガストシズオカキクガワチョウテン",
      "business_type": "① 飲食店営業",
      "address": "静岡県菊川市半済１７４０",
      "lat": 34.756294,
      "lng": 138.087815,
      "geocoding_level": null,
      "phone": "",
      "license_no": "S66200200109",
      "license_date": "2023-11-09",
      "expire_date": "2028-11-30"
    },
    {
      "name": "マルイ",
      "name_kana": "マルイ",
      "business_type": "⑪ 菓子製造業",
      "address": "静岡県菊川市牧之原2749－６",
      "lat": 34.750373,
      "lng": 138.132158,
      "geocoding_level": null,
      "phone": "0548-27-3324",
      "license_no": "S76202500375",
      "license_date": "2025-12-26",
      "expire_date": "2031-11-30"
    },
    {
      "name": "マル幸",
      "name_kana": "マルコウ",
      "business_type": "㉑ 製茶業",
      "address": "静岡県菊川市河東4266",
      "lat": 34.663102,
      "lng": 138.094945,
      "geocoding_level": null,
      "phone": "0537-73-2266",
      "license_no": "",
      "license_date": null,
      "expire_date": null
    },
    {
      "name": "雪印メグミルク小笠宅配センター",
      "name_kana": "ユキジルシメグミルクオガサタクハイセンター",
      "business_type": "③ 乳類販売業",
      "address": "静岡県菊川市下平川16004",
      "lat": 34.706228,
      "lng": 138.087795,
      "geocoding_level": null,
      "phone": "0537733281",
      "license_no": "",
      "license_date": null,
      "expire_date": null
    },
    {
      "name": "原田製茶工場",
      "name_kana": "ハラダセイチャコウジョウ",
      "business_type": "㉑ 製茶業",
      "address": "静岡県菊川市本所2191",
      "lat": 34.746597,
      "lng": 138.094948,
      "geocoding_level": null,
      "phone": "0537-35-2687",
      "license_no": "",
      "license_date": null,
      "expire_date": null
    },
    {
      "name": "Maxマートスター精密菊川工場店",
      "name_kana": "マックスマートスターセイミツキクガワコウジョウテン",
      "business_type": "⑪ 百貨店、総合スーパー",
      "address": "静岡県菊川市三沢1500-34",
      "lat": 34.717335,
      "lng": 138.1129,
      "geocoding_level": null,
      "phone": "",
      "license_no": "",
      "license_date": null,
      "expire_date": null
    },
    {
      "name": "Maxマートスター精密南工場店",
      "name_kana": "マックスマートスターセイミツミナミコウジョウテン",
      "business_type": "⑪ 百貨店、総合スーパー",
      "address": "静岡県菊川市三沢1500-34",
      "lat": 34.717335,
      "lng": 138.1129,
      "geocoding_level": null,
      "phone": "",
      "license_no": "",
      "license_date": null,
      "expire_date": null
    },
    {
      "name": "牛角　菊川店",
      "name_kana": "ギュウカクキクガワテン",
      "business_type": "① 飲食店営業",
      "address": "静岡県菊川市本所１５０１－１ １Ｆ",
      "lat": 34.749338,
      "lng": 138.089675,
      "geocoding_level": null,
      "phone": "0537-25-7529",
      "license_no": "S69201600609",
      "license_date": "2023-11-21",
      "expire_date": "2028-11-30"
    },
    {
      "name": "小規模多機能ホームようこそ",
      "name_kana": "ショウキボタキノウホームヨウコソ",
      "business_type": "㉖ 集団給食施設",
      "address": "静岡県菊川市潮海寺150-2",
      "lat": 34.765418,
      "lng": 138.093106,
      "geocoding_level": null,
      "phone": "",
      "license_no": "",
      "license_date": null,
      "expire_date": null
    },
    {
      "name": "遠鉄ストア　菊川店",
      "name_kana": "エンテツストア　キクガワテン",
      "business_type": "③ 乳類販売業",
      "address": "静岡県菊川市堀之内546-1",
      "lat": 34.7632,
      "lng": 138.087408,
      "geocoding_level": null,
      "phone": "0537-37-2000",
      "license_no": "",
      "license_date": null,
      "expire_date": null
    },
    {
      "name": "遠鉄ストア　菊川店",
      "name_kana": "エンテツストア　キクガワテン",
      "business_type": "⑬ その他の食料・飲料販売業",
      "address": "静岡県菊川市堀之内546-1",
      "lat": 34.7632,
      "lng": 138.087408,
      "geocoding_level": null,
      "phone": "0537-37-2000",
      "license_no": "",
      "license_date": null,
      "expire_date": null
    },
    {
      "name": "合資会社　牧農園",
      "name_kana": "ゴウシガイシャ　マキノウエン",
      "business_type": "㉑ 製茶業",
      "address": "静岡県菊川市倉沢1706-2-3",
      "lat": 34.786451,
      "lng": 138.140117,
      "geocoding_level": null,
      "phone": "0548-27-2012",
      "license_no": "",
      "license_date": null,
      "expire_date": null
    },
    {
      "name": "大成金属株式会社　静岡工場",
      "name_kana": "タイセイキンゾクカブシキガイシャ　シズオカコウジョウ",
      "business_type": "㉗ 器具、容器包装の製造・加工業（合成樹脂が使用された器具又は容器包装の製造、加工に限る。）",
      "address": "静岡県菊川市赤土１２７２－１",
      "lat": 34.689584,
      "lng": 138.093058,
      "geocoding_level": null,
      "phone": "",
      "license_no": "",
      "license_date": null,
      "expire_date": null
    },
    {
      "name": "井指産業株式会社",
      "name_kana": "イサシサンギョウカブシキカシャ",
      "business_type": "㉓ 卵選別包装業",
      "address": "静岡県菊川市吉沢407",
      "lat": 34.770965,
      "lng": 138.114706,
      "geocoding_level": null,
      "phone": "0537-36-3009",
      "license_no": "",
      "license_date": null,
      "expire_date": null
    },
    {
      "name": "沼津魚がし鮨　流れ鮨　菊川店",
      "name_kana": "ヌマヅウオガシズシ　ナガレズシ　キクガワテン",
      "business_type": "① 飲食店営業",
      "address": "静岡県菊川市加茂2194-2",
      "lat": 34.747231,
      "lng": 138.08954,
      "geocoding_level": null,
      "phone": "0537-37-2300",
      "license_no": "S69201300532",
      "license_date": "2024-11-05",
      "expire_date": "2029-11-30"
    },
    {
      "name": "菊川市立総合病院",
      "name_kana": "キクガワシリツソウゴウビョウイン",
      "business_type": "① 飲食店営業",
      "address": "静岡県菊川市東横地1632",
      "lat": 34.733387,
      "lng": 138.099529,
      "geocoding_level": null,
      "phone": "",
      "license_no": "S76202300562",
      "license_date": "2024-03-21",
      "expire_date": "2030-11-30"
    },
    {
      "name": "障害者支援施設　清松園",
      "name_kana": "ショウガイシャシエンシセツ　セイショウエン",
      "business_type": "① 飲食店営業",
      "address": "静岡県菊川市棚草1284",
      "lat": 34.703948,
      "lng": 138.104623,
      "geocoding_level": null,
      "phone": "",
      "license_no": "S76202400248",
      "license_date": "2024-08-23",
      "expire_date": "2030-11-30"
    },
    {
      "name": "特別養護老人ホーム松秀園内富士産業㈱",
      "name_kana": "トクベツヨウゴロウジンホームショウシュウエンナイフジサンギョウ",
      "business_type": "① 飲食店営業",
      "address": "静岡県菊川市高橋２７７４－１",
      "lat": 34.674274,
      "lng": 138.106475,
      "geocoding_level": null,
      "phone": "0537-73-7866",
      "license_no": "S69200600277",
      "license_date": "2024-11-25",
      "expire_date": "2030-11-30"
    },
    {
      "name": "ヤマサ電業",
      "name_kana": "ヤマサデンギョウ",
      "business_type": "㉗ 器具、容器包装の製造・加工業（合成樹脂が使用された器具又は容器包装の製造、加工に限る。）",
      "address": "静岡県菊川市古谷37-2",
      "lat": 34.707869,
      "lng": 138.12289,
      "geocoding_level": null,
      "phone": "0537737133",
      "license_no": "",
      "license_date": null,
      "expire_date": null
    },
    {
      "name": "菊川市立おおぞら認定こども園",
      "name_kana": "キクガワシリツオオゾラニンテイコドモエン",
      "business_type": "㉖ 集団給食施設",
      "address": "静岡県菊川市下内田832-1",
      "lat": 34.721405,
      "lng": 138.080592,
      "geocoding_level": null,
      "phone": "0537352323",
      "license_no": "",
      "license_date": null,
      "expire_date": null
    },
    {
      "name": "麺や　老虎",
      "name_kana": "メンヤロウコ",
      "business_type": "① 飲食店営業",
      "address": "静岡県菊川市加茂６１０６",
      "lat": 34.738468,
      "lng": 138.085788,
      "geocoding_level": null,
      "phone": "0537-36-0910",
      "license_no": "S69200700414",
      "license_date": "2023-11-08",
      "expire_date": "2028-11-30"
    },
    {
      "name": "株式会社KSオークラ　静岡工場",
      "name_kana": "カブシキガイシャケーエスオークラシズオカコウジョウ",
      "business_type": "㉗ 器具、容器包装の製造・加工業（合成樹脂が使用された器具又は容器包装の製造、加工に限る。）",
      "address": "静岡県菊川市加茂2158番地",
      "lat": 34.745424,
      "lng": 138.089016,
      "geocoding_level": null,
      "phone": "0537-35-2272",
      "license_no": "",
      "license_date": null,
      "expire_date": null
    },
    {
      "name": "お茶の美緑園",
      "name_kana": "オチャノミリョクエン",
      "business_type": "⑰ 農産保存食料品製造・加工業",
      "address": "静岡県菊川市牛渕2128-1",
      "lat": 34.756763,
      "lng": 138.132311,
      "geocoding_level": null,
      "phone": "0548-27-2807",
      "license_no": "",
      "license_date": null,
      "expire_date": null
    },
    {
      "name": "お茶の美緑園",
      "name_kana": "オチャノミリョクエン",
      "business_type": "㉑ 製茶業",
      "address": "静岡県菊川市牛渕2128-1",
      "lat": 34.756763,
      "lng": 138.132311,
      "geocoding_level": null,
      "phone": "0548-27-2807",
      "license_no": "",
      "license_date": null,
      "expire_date": null
    },
    {
      "name": "まるさん",
      "name_kana": "マルサン",
      "business_type": "㉑ 製茶業",
      "address": "静岡県菊川市三沢128-2",
      "lat": 34.720675,
      "lng": 138.092719,
      "geocoding_level": null,
      "phone": "0537-36-2308",
      "license_no": "",
      "license_date": null,
      "expire_date": null
    },
    {
      "name": "きらく旅館",
      "name_kana": "キラクリヨカン",
      "business_type": "① 飲食店営業",
      "address": "静岡県菊川市下平川１３３０番地",
      "lat": 34.696802,
      "lng": 138.09109,
      "geocoding_level": null,
      "phone": "0537-73-2322",
      "license_no": "S00584060391",
      "license_date": "2021-11-30",
      "expire_date": "2027-11-30"
    },
    {
      "name": "カインズ菊川店",
      "name_kana": "カインズキクガワテン",
      "business_type": "⑧ 米穀類販売業",
      "address": "静岡県菊川市堀之内507-1",
      "lat": 34.763851,
      "lng": 138.085818,
      "geocoding_level": null,
      "phone": "0537-37-0111",
      "license_no": "",
      "license_date": null,
      "expire_date": null
    },
    {
      "name": "菊川保育園",
      "name_kana": "キクガワホイクエン",
      "business_type": "㉖ 集団給食施設",
      "address": "静岡県菊川市潮海寺41－2",
      "lat": 34.76468,
      "lng": 138.096328,
      "geocoding_level": null,
      "phone": "0537-35-2562",
      "license_no": "",
      "license_date": null,
      "expire_date": null
    },
    {
      "name": "炭焼きレストランさわやか 菊川本店",
      "name_kana": "スミヤキレストランサワヤカ キクガワホンテン",
      "business_type": "① 飲食店営業",
      "address": "静岡県菊川市加茂6088",
      "lat": 34.738111,
      "lng": 138.085419,
      "geocoding_level": null,
      "phone": "0537361106",
      "license_no": "S76202300142",
      "license_date": "2023-06-22",
      "expire_date": "2029-11-30"
    },
    {
      "name": "菊川カントリークラブ食堂",
      "name_kana": "キクガワカントリークラブショクドウ",
      "business_type": "① 飲食店営業",
      "address": "静岡県菊川市富田230",
      "lat": 34.781147,
      "lng": 138.104739,
      "geocoding_level": null,
      "phone": "0537-36-1171",
      "license_no": "S69201200302",
      "license_date": "2022-11-10",
      "expire_date": "2027-11-30"
    },
    {
      "name": "菊川カントリークラブ売店",
      "name_kana": "キクガワカントリークラブバイテン",
      "business_type": "① 飲食店営業",
      "address": "静岡県菊川市富田２３０",
      "lat": 34.781147,
      "lng": 138.104739,
      "geocoding_level": null,
      "phone": "0537-36-1171",
      "license_no": "S69201200303",
      "license_date": "2022-11-10",
      "expire_date": "2027-11-30"
    },
    {
      "name": "ＮＯＫ株式会社　東海事業場",
      "name_kana": "エヌオーケイ　トウカイジギョウジョウ",
      "business_type": "① 飲食店営業",
      "address": "静岡県菊川市赤土２０００番地",
      "lat": 34.687585,
      "lng": 138.090197,
      "geocoding_level": null,
      "phone": "0537-73-5796",
      "license_no": "S69200600427",
      "license_date": "2024-10-28",
      "expire_date": "2030-11-30"
    },
    {
      "name": "コンコルド菊川",
      "name_kana": "コンコルドキクカワ",
      "business_type": "⑫ 自動販売機による販売業（コップ式自動販売機（自動洗浄・屋内設置）及び営業許可の対象となる自動販売機を除く）",
      "address": "静岡県菊川市加茂3111",
      "lat": 34.732157,
      "lng": 138.087873,
      "geocoding_level": null,
      "phone": "",
      "license_no": "",
      "license_date": null,
      "expire_date": null
    },
    {
      "name": "ファミリーマート菊川中内田店",
      "name_kana": "ファミリーマートキクガワナカウチダテン",
      "business_type": "① 魚介類販売業（包装済みの魚介類のみの販売）",
      "address": "静岡県菊川市中内田2463",
      "lat": 34.739226,
      "lng": 138.062969,
      "geocoding_level": null,
      "phone": "0537372551",
      "license_no": "",
      "license_date": null,
      "expire_date": null
    },
    {
      "name": "ファミリーマート菊川中内田店",
      "name_kana": "ファミリーマートキクガワナカウチダテン",
      "business_type": "② 食肉販売業（包装済みの食肉のみの販売）",
      "address": "静岡県菊川市中内田2463",
      "lat": 34.739226,
      "lng": 138.062969,
      "geocoding_level": null,
      "phone": "0537372551",
      "license_no": "",
      "license_date": null,
      "expire_date": null
    },
    {
      "name": "ファミリーマート菊川中内田店",
      "name_kana": "ファミリーマートキクガワナカウチダテン",
      "business_type": "③ 乳類販売業",
      "address": "静岡県菊川市中内田2463",
      "lat": 34.739226,
      "lng": 138.062969,
      "geocoding_level": null,
      "phone": "0537372551",
      "license_no": "",
      "license_date": null,
      "expire_date": null
    },
    {
      "name": "ファミリーマート菊川中内田店",
      "name_kana": "ファミリーマートキクガワナカウチダテン",
      "business_type": "⑩ コンビニエンスストア",
      "address": "静岡県菊川市中内田2463",
      "lat": 34.739226,
      "lng": 138.062969,
      "geocoding_level": null,
      "phone": "0537372551",
      "license_no": "",
      "license_date": null,
      "expire_date": null
    },
    {
      "name": "ファミリーマート菊川加茂店",
      "name_kana": "ファミリーマートキクガワカモテン",
      "business_type": "① 魚介類販売業（包装済みの魚介類のみの販売）",
      "address": "静岡県菊川市加茂字宮ノ西5991",
      "lat": 34.743575,
      "lng": 138.085355,
      "geocoding_level": null,
      "phone": "0537370777",
      "license_no": "",
      "license_date": null,
      "expire_date": null
    },
    {
      "name": "ファミリーマート菊川加茂店",
      "name_kana": "ファミリーマートキクガワカモテン",
      "business_type": "② 食肉販売業（包装済みの食肉のみの販売）",
      "address": "静岡県菊川市加茂字宮ノ西5991",
      "lat": 34.743575,
      "lng": 138.085355,
      "geocoding_level": null,
      "phone": "0537370777",
      "license_no": "",
      "license_date": null,
      "expire_date": null
    },
    {
      "name": "ファミリーマート菊川加茂店",
      "name_kana": "ファミリーマートキクガワカモテン",
      "business_type": "③ 乳類販売業",
      "address": "静岡県菊川市加茂字宮ノ西5991",
      "lat": 34.743575,
      "lng": 138.085355,
      "geocoding_level": null,
      "phone": "0537370777",
      "license_no": "",
      "license_date": null,
      "expire_date": null
    },
    {
      "name": "ファミリーマート菊川加茂店",
      "name_kana": "ファミリーマートキクガワカモテン",
      "business_type": "⑩ コンビニエンスストア",
      "address": "静岡県菊川市加茂字宮ノ西5991",
      "lat": 34.743575,
      "lng": 138.085355,
      "geocoding_level": null,
      "phone": "0537370777",
      "license_no": "",
      "license_date": null,
      "expire_date": null
    },
    {
      "name": "ファミリーマート　菊川中内田店",
      "name_kana": "ファミリーマートキクガワナカウチダテン",
      "business_type": "① 飲食店営業",
      "address": "静岡県菊川市中内田２４６３番地",
      "lat": 34.739226,
      "lng": 138.062969,
      "geocoding_level": null,
      "phone": "0537-37-2551",
      "license_no": "S69201900318",
      "license_date": "2024-11-08",
      "expire_date": "2029-11-30"
    },
    {
      "name": "幸せ空間アルモニー",
      "name_kana": "シアワセクウカンアルモニー",
      "business_type": "⑯ コーヒー製造・加工業（飲料の製造を除く。）",
      "address": "静岡県菊川市半済1183-8",
      "lat": 34.755116,
      "lng": 138.087107,
      "geocoding_level": null,
      "phone": "0537-36-2700",
      "license_no": "",
      "license_date": null,
      "expire_date": null
    },
    {
      "name": "フガク工機株式会社食堂",
      "name_kana": "フガクコウキシヨクドウ",
      "business_type": "① 飲食店営業",
      "address": "静岡県菊川市下平川１２５６",
      "lat": 34.696586,
      "lng": 138.090119,
      "geocoding_level": null,
      "phone": "0537-73-5151",
      "license_no": "S00584050303",
      "license_date": "2024-11-19",
      "expire_date": "2030-11-30"
    },
    {
      "name": "ブルーベリーの郷",
      "name_kana": "ブルーベリーノサト",
      "business_type": "① 飲食店営業",
      "address": "静岡県菊川市川上太田ノ谷１０９９",
      "lat": 34.700464,
      "lng": 138.117576,
      "geocoding_level": null,
      "phone": "0537-73-6636",
      "license_no": "S66200300019",
      "license_date": "2023-10-24",
      "expire_date": "2028-11-30"
    },
    {
      "name": "ブルーベリーＯＧＡＳＡ（ブルーベリーオガサ）",
      "name_kana": "ブルーベリーオガサ",
      "business_type": "㉚ 密封包装食品製造業",
      "address": "静岡県菊川市下平川667-２",
      "lat": 34.700952,
      "lng": 138.086361,
      "geocoding_level": null,
      "phone": "",
      "license_no": "S76202400032",
      "license_date": "2024-04-22",
      "expire_date": "2029-11-30"
    },
    {
      "name": "ブルーベリーの郷",
      "name_kana": "ブルーベリーノサト",
      "business_type": "① 飲食店営業",
      "address": "静岡県菊川市堀之内県保健所管内一円",
      "lat": 34.76515,
      "lng": 138.084074,
      "geocoding_level": null,
      "phone": "",
      "license_no": "S69201400503",
      "license_date": "2025-10-09",
      "expire_date": "2030-11-30"
    },
    {
      "name": "くすりセイジョー赤土店",
      "name_kana": "クスリノセイジョーアカツチテン",
      "business_type": "⑬ その他の食料・飲料販売業",
      "address": "静岡県菊川市赤土１２５６－１",
      "lat": 34.690658,
      "lng": 138.094812,
      "geocoding_level": null,
      "phone": "0537-73-1515",
      "license_no": "",
      "license_date": null,
      "expire_date": null
    },
    {
      "name": "どんどん菊川南店",
      "name_kana": "ドンドンキクガワミナミテ",
      "business_type": "① 飲食店営業",
      "address": "静岡県菊川市東横地１０１９－１",
      "lat": 34.724094,
      "lng": 138.086487,
      "geocoding_level": null,
      "phone": "0537-35-6520",
      "license_no": "S00584110341",
      "license_date": "2023-11-08",
      "expire_date": "2028-11-30"
    },
    {
      "name": "パティスリーmiel",
      "name_kana": "パティスリーミエル",
      "business_type": "① 飲食店営業",
      "address": "静岡県菊川市東横地565-1",
      "lat": 34.722966,
      "lng": 138.086447,
      "geocoding_level": null,
      "phone": "0537289333",
      "license_no": "S76202100111",
      "license_date": "2021-09-27",
      "expire_date": "2026-11-30"
    },
    {
      "name": "パティスリーmiel",
      "name_kana": "パティスリーミエル",
      "business_type": "⑪ 菓子製造業",
      "address": "静岡県菊川市東横地565-1",
      "lat": 34.722966,
      "lng": 138.086447,
      "geocoding_level": null,
      "phone": "0537289333",
      "license_no": "S76202100112",
      "license_date": "2021-09-27",
      "expire_date": "2026-11-30"
    },
    {
      "name": "パティスリーmiel",
      "name_kana": "パティスリーミエル",
      "business_type": "① 飲食店営業",
      "address": "静岡県菊川市東横地（県保健所管内一円）",
      "lat": 34.727386,
      "lng": 138.094804,
      "geocoding_level": null,
      "phone": "",
      "license_no": "S76202500135",
      "license_date": "2025-07-11",
      "expire_date": "2030-11-30"
    },
    {
      "name": "シ・イ・ソヒゾ・デ・クリアンサ",
      "name_kana": "シイソヒゾデクリアンサ",
      "business_type": "㉖ 集団給食施設",
      "address": "静岡県菊川市赤土４７７－１",
      "lat": 34.696481,
      "lng": 138.099525,
      "geocoding_level": null,
      "phone": "0537-73-6847",
      "license_no": "",
      "license_date": null,
      "expire_date": null
    },
    {
      "name": "バロー菊川店",
      "name_kana": "バローキクガワテン",
      "business_type": "⑤ コップ式自動販売機（自動洗浄・屋内設置）",
      "address": "静岡県菊川市本所字女渕1468",
      "lat": 34.750388,
      "lng": 138.089915,
      "geocoding_level": null,
      "phone": "0537-36-4110",
      "license_no": "",
      "license_date": null,
      "expire_date": null
    },
    {
      "name": "株式会社たこ満第二工場",
      "name_kana": "タコマンダイニコウジョウ",
      "business_type": "⑪ 菓子製造業",
      "address": "静岡県菊川市上平川５６７－２",
      "lat": 34.712853,
      "lng": 138.079112,
      "geocoding_level": null,
      "phone": "0537-73-5289",
      "license_no": "S00584040003",
      "license_date": "2023-11-08",
      "expire_date": "2029-11-30"
    },
    {
      "name": "遠州茶屋",
      "name_kana": "エンシュウチャヤ",
      "business_type": "① 飲食店営業",
      "address": "静岡県菊川市上平川５６５－１",
      "lat": 34.713537,
      "lng": 138.081727,
      "geocoding_level": null,
      "phone": "0537-73-7188",
      "license_no": "S66200200515",
      "license_date": "2024-11-05",
      "expire_date": "2029-11-30"
    },
    {
      "name": "株式会社たこ満第一工場",
      "name_kana": "カブシキガイシャタコマンダイイチコウジョウ",
      "business_type": "⑪ 菓子製造業",
      "address": "静岡県菊川市上平川５６５－１",
      "lat": 34.713537,
      "lng": 138.081727,
      "geocoding_level": null,
      "phone": "0537-73-5289",
      "license_no": "S00584040238",
      "license_date": "2025-10-27",
      "expire_date": "2031-11-30"
    },
    {
      "name": "スーパーラック菊川店",
      "name_kana": "スーパーラックキクガワテン",
      "business_type": "⑪ 百貨店、総合スーパー",
      "address": "静岡県菊川市加茂574-2",
      "lat": 34.749253,
      "lng": 138.080032,
      "geocoding_level": null,
      "phone": "0537-37-2661",
      "license_no": "",
      "license_date": null,
      "expire_date": null
    },
    {
      "name": "とくし丸　2号",
      "name_kana": "トクシマル　ニゴウ",
      "business_type": "⑬ その他の食料・飲料販売業",
      "address": "静岡県菊川市加茂574-2",
      "lat": 34.749253,
      "lng": 138.080032,
      "geocoding_level": null,
      "phone": "0537-37-2661",
      "license_no": "",
      "license_date": null,
      "expire_date": null
    },
    {
      "name": "スーパーラック菊川店",
      "name_kana": "スーパーラックキクガワテン",
      "business_type": "④ 魚介類販売業",
      "address": "静岡県菊川市加茂５７４－２",
      "lat": 34.749261,
      "lng": 138.080021,
      "geocoding_level": null,
      "phone": "0537-37-2661",
      "license_no": "S00584110304",
      "license_date": "2023-11-08",
      "expire_date": "2028-11-30"
    },
    {
      "name": "スーパーラック菊川店",
      "name_kana": "スーパーラックキクガワテン",
      "business_type": "③ 食肉販売業",
      "address": "静岡県菊川市加茂５７４－２",
      "lat": 34.749382,
      "lng": 138.079956,
      "geocoding_level": null,
      "phone": "0537-37-2661",
      "license_no": "S00584110305",
      "license_date": "2023-11-08",
      "expire_date": "2028-11-30"
    },
    {
      "name": "スーパーラック菊川店",
      "name_kana": "スーパーラックキクガワテン",
      "business_type": "① 飲食店営業",
      "address": "静岡県菊川市加茂５７４－２",
      "lat": 34.749261,
      "lng": 138.080021,
      "geocoding_level": null,
      "phone": "0537-37-2661",
      "license_no": "S00584110306",
      "license_date": "2023-11-08",
      "expire_date": "2028-11-30"
    },
    {
      "name": "スーパーラック菊川店",
      "name_kana": "スーパーラックキクガワテン",
      "business_type": "① 飲食店営業",
      "address": "静岡県菊川市加茂５７４－２",
      "lat": 34.749382,
      "lng": 138.079956,
      "geocoding_level": null,
      "phone": "0537-37-2661",
      "license_no": "S69201500457",
      "license_date": "2025-10-27",
      "expire_date": "2030-11-30"
    },
    {
      "name": "モスバーガー菊川店",
      "name_kana": "モスバーガーキクガワテン",
      "business_type": "① 飲食店営業",
      "address": "静岡県菊川市加茂２１９４－１",
      "lat": 34.747599,
      "lng": 138.08923,
      "geocoding_level": null,
      "phone": "0537-36-5515",
      "license_no": "S76202100193",
      "license_date": "2021-11-16",
      "expire_date": "2026-11-30"
    },
    {
      "name": "有限会社丸武商会",
      "name_kana": "ユウゲンガイシャマルタケショウカイ",
      "business_type": "㉗ 器具、容器包装の製造・加工業（合成樹脂が使用された器具又は容器包装の製造、加工に限る。）",
      "address": "静岡県菊川市加茂2158",
      "lat": 34.745424,
      "lng": 138.089016,
      "geocoding_level": null,
      "phone": "",
      "license_no": "",
      "license_date": null,
      "expire_date": null
    },
    {
      "name": "株式会社ＮＢＣメッシュテック菊川社員食堂",
      "name_kana": "カブシキガイシャエヌビーシーメッシュテックキクガワシャインショクドウ",
      "business_type": "① 飲食店営業",
      "address": "静岡県菊川市加茂１２００",
      "lat": 34.748171,
      "lng": 138.070025,
      "geocoding_level": null,
      "phone": "0537-28-8811",
      "license_no": "S69200800631",
      "license_date": "2022-11-15",
      "expire_date": "2028-11-30"
    },
    {
      "name": "ＪＡ農業研修会館",
      "name_kana": "ジェイエイノウギョウケンシュウカイカン",
      "business_type": "① 飲食店営業",
      "address": "静岡県菊川市吉沢６６４－５",
      "lat": 34.770476,
      "lng": 138.116257,
      "geocoding_level": null,
      "phone": "0537-36-6240",
      "license_no": "S69200800652",
      "license_date": "2021-11-30",
      "expire_date": "2027-11-30"
    },
    {
      "name": "デイサービスセンターさくら内厨房",
      "name_kana": "デイサービスセンターサクラナイチュウボウ",
      "business_type": "① 飲食店営業",
      "address": "静岡県菊川市土橋414-1",
      "lat": 34.725374,
      "lng": 138.087601,
      "geocoding_level": null,
      "phone": "0537-37-1000",
      "license_no": "S76202200321",
      "license_date": "2022-11-18",
      "expire_date": "2028-11-30"
    },
    {
      "name": "ちびたい本舗",
      "name_kana": "チビタイホンポ",
      "business_type": "① 飲食店営業",
      "address": "静岡県菊川市加茂３２６５－１",
      "lat": 34.736409,
      "lng": 138.084928,
      "geocoding_level": null,
      "phone": "090-3385-2425",
      "license_no": "S69201600031",
      "license_date": "2021-11-30",
      "expire_date": "2026-11-30"
    },
    {
      "name": "株式会社アイデア",
      "name_kana": "カブシキカイシャアイデア",
      "business_type": "㉘ 露店、仮設店舗等における飲食の提供のうち、営業とみなされないもの",
      "address": "静岡県菊川市潮海寺2769-1",
      "lat": 34.76867,
      "lng": 138.092318,
      "geocoding_level": null,
      "phone": "",
      "license_no": "",
      "license_date": null,
      "expire_date": null
    },
    {
      "name": "IDEA",
      "name_kana": "アイデア",
      "business_type": "① 飲食店営業",
      "address": "静岡県菊川市本所２５３２番地",
      "lat": 34.742831,
      "lng": 138.095398,
      "geocoding_level": null,
      "phone": "0537-29-6664",
      "license_no": "S76202500220",
      "license_date": "2025-09-17",
      "expire_date": "2030-11-30"
    },
    {
      "name": "ｉｄｅａ",
      "name_kana": "イデア",
      "business_type": "① 飲食店営業",
      "address": "静岡県菊川市潮海寺２７６９－１",
      "lat": 34.76867,
      "lng": 138.092318,
      "geocoding_level": null,
      "phone": "0537-29-6664",
      "license_no": "S69202000337",
      "license_date": "2025-10-07",
      "expire_date": "2030-11-30"
    },
    {
      "name": "おふくろ",
      "name_kana": "オフクロ",
      "business_type": "① 飲食店営業",
      "address": "静岡県菊川市下平川１５４４番地の２",
      "lat": 34.699666,
      "lng": 138.089288,
      "geocoding_level": null,
      "phone": "0537-73-5686",
      "license_no": "S00584080327",
      "license_date": "2021-11-30",
      "expire_date": "2026-11-30"
    },
    {
      "name": "そば処　石ヶ谷",
      "name_kana": "イシガヤ",
      "business_type": "① 飲食店営業",
      "address": "静岡県菊川市本所１７４１番地の３",
      "lat": 34.747461,
      "lng": 138.089792,
      "geocoding_level": null,
      "phone": "0537-36-5403",
      "license_no": "S00584030200",
      "license_date": "2021-11-30",
      "expire_date": "2026-11-30"
    },
    {
      "name": "合同会社WILL TO　菊川店",
      "name_kana": "ゴウドウカイシヤウイルトウ　キクガワテン",
      "business_type": "① 魚介類販売業（包装済みの魚介類のみの販売）",
      "address": "静岡県菊川市加茂2183-2",
      "lat": 34.747968,
      "lng": 138.088919,
      "geocoding_level": null,
      "phone": "08055571422",
      "license_no": "",
      "license_date": null,
      "expire_date": null
    },
    {
      "name": "合同会社WILL TO　菊川店",
      "name_kana": "ゴウドウカイシヤウイルトウ　キクガワテン",
      "business_type": "② 食肉販売業（包装済みの食肉のみの販売）",
      "address": "静岡県菊川市加茂2183-2",
      "lat": 34.747968,
      "lng": 138.088919,
      "geocoding_level": null,
      "phone": "08055571422",
      "license_no": "",
      "license_date": null,
      "expire_date": null
    },
    {
      "name": "合同会社WILL TO　菊川店",
      "name_kana": "ゴウドウカイシヤウイルトウ　キクガワテン",
      "business_type": "③ 乳類販売業",
      "address": "静岡県菊川市加茂2183-2",
      "lat": 34.747968,
      "lng": 138.088919,
      "geocoding_level": null,
      "phone": "08055571422",
      "license_no": "",
      "license_date": null,
      "expire_date": null
    },
    {
      "name": "株式会社　ジャトス",
      "name_kana": "カブシキガイシャ　ジャトス",
      "business_type": "⑦ 野菜果物販売業",
      "address": "静岡県菊川市三沢１５００－６０",
      "lat": 34.714229,
      "lng": 138.107431,
      "geocoding_level": null,
      "phone": "0537-35-1283",
      "license_no": "",
      "license_date": null,
      "expire_date": null
    },
    {
      "name": "株式会社　ジャトス",
      "name_kana": "カブシキガイシャ　ジャトス",
      "business_type": "⑧ 米穀類販売業",
      "address": "静岡県菊川市三沢１５００－６０",
      "lat": 34.714229,
      "lng": 138.107431,
      "geocoding_level": null,
      "phone": "0537-35-1283",
      "license_no": "",
      "license_date": null,
      "expire_date": null
    },
    {
      "name": "株式会社　ジャトス",
      "name_kana": "カブシキガイシャ　ジャトス",
      "business_type": "⑬ その他の食料・飲料販売業",
      "address": "静岡県菊川市三沢１５００－６０",
      "lat": 34.714229,
      "lng": 138.107431,
      "geocoding_level": null,
      "phone": "0537-35-1283",
      "license_no": "",
      "license_date": null,
      "expire_date": null
    },
    {
      "name": "株式会社　ジャトス",
      "name_kana": "カブシキガイシャ　ジャトス",
      "business_type": "⑰ 農産保存食料品製造・加工業",
      "address": "静岡県菊川市三沢１５００－６０",
      "lat": 34.714229,
      "lng": 138.107431,
      "geocoding_level": null,
      "phone": "0537-35-1283",
      "license_no": "",
      "license_date": null,
      "expire_date": null
    },
    {
      "name": "宝龍製造部",
      "name_kana": "ホウリュウセイゾウブ",
      "business_type": "㉕ そうざい製造業",
      "address": "静岡県菊川市下平川654-1",
      "lat": 34.702285,
      "lng": 138.085014,
      "geocoding_level": null,
      "phone": "0537-73-4982",
      "license_no": "S76202300472",
      "license_date": "2024-01-19",
      "expire_date": "2029-11-30"
    },
    {
      "name": "株式会社たわら屋",
      "name_kana": "カブシキガイシャタワラヤ",
      "business_type": "② 食肉販売業（包装済みの食肉のみの販売）",
      "address": "静岡県菊川市加茂2998-5",
      "lat": 34.734633,
      "lng": 138.0904,
      "geocoding_level": null,
      "phone": "",
      "license_no": "",
      "license_date": null,
      "expire_date": null
    },
    {
      "name": "株式会社たわら屋",
      "name_kana": "カブシキガイシャタワラヤ",
      "business_type": "㉔ その他の食料品製造・加工業",
      "address": "静岡県菊川市加茂2998-5",
      "lat": 34.734633,
      "lng": 138.0904,
      "geocoding_level": null,
      "phone": "",
      "license_no": "",
      "license_date": null,
      "expire_date": null
    },
    {
      "name": "株式会社　たわら屋",
      "name_kana": "カブシキカイシャタワラヤ",
      "business_type": "⑮ 食肉製品製造業",
      "address": "静岡県菊川市加茂２９９８－５",
      "lat": 34.734633,
      "lng": 138.0904,
      "geocoding_level": null,
      "phone": "0537-54-1129",
      "license_no": "S69201600096",
      "license_date": "2021-11-30",
      "expire_date": "2026-11-30"
    },
    {
      "name": "ｌａｕｔ（ラウ）",
      "name_kana": "ラウ",
      "business_type": "① 飲食店営業",
      "address": "静岡県菊川市本所１４４０－１",
      "lat": 34.752126,
      "lng": 138.08952,
      "geocoding_level": null,
      "phone": "",
      "license_no": "S69200500300",
      "license_date": "2021-11-30",
      "expire_date": "2026-11-30"
    },
    {
      "name": "馬鹿盛",
      "name_kana": "バカモリ",
      "business_type": "① 飲食店営業",
      "address": "静岡県菊川市本所1527",
      "lat": 34.748536,
      "lng": 138.090567,
      "geocoding_level": null,
      "phone": "0537-36-3588",
      "license_no": "S76202200242",
      "license_date": "2022-09-29",
      "expire_date": "2027-11-30"
    },
    {
      "name": "社会福祉法人愛育会認定こども園愛育保育園",
      "name_kana": "シャカイフクシホウジンアイイクカイニンテイコドモエンアイイクホイクエン",
      "business_type": "㉖ 集団給食施設",
      "address": "静岡県菊川市堀之内６９",
      "lat": 34.758509,
      "lng": 138.08277,
      "geocoding_level": null,
      "phone": "0537288311",
      "license_no": "",
      "license_date": null,
      "expire_date": null
    },
    {
      "name": "認定こども園　西方こども園",
      "name_kana": "ニンテイコドモエン　ニシカタコドモエン",
      "business_type": "㉖ 集団給食施設",
      "address": "静岡県菊川市西方１４７７－１",
      "lat": 34.762735,
      "lng": 138.076,
      "geocoding_level": null,
      "phone": "0537-36-4133",
      "license_no": "",
      "license_date": null,
      "expire_date": null
    },
    {
      "name": "カフェレストキッチントマト",
      "name_kana": "キツチントマト",
      "business_type": "① 飲食店営業",
      "address": "静岡県菊川市嶺田１０１４－３",
      "lat": 34.693481,
      "lng": 138.07669,
      "geocoding_level": null,
      "phone": "0537-73-7227",
      "license_no": "S00584050162",
      "license_date": "2021-11-30",
      "expire_date": "2026-11-30"
    },
    {
      "name": "ｓａｎ　ｇｒａｍｓ",
      "name_kana": "サングラム",
      "business_type": "① 飲食店営業",
      "address": "静岡県菊川市堀之内１の１",
      "lat": 34.760119,
      "lng": 138.083643,
      "geocoding_level": null,
      "phone": "0537-36-1201",
      "license_no": "S69201400697",
      "license_date": "2021-11-30",
      "expire_date": "2026-11-30"
    },
    {
      "name": "ロマンドーロール",
      "name_kana": "ロマンドーロール",
      "business_type": "① 飲食店営業",
      "address": "静岡県菊川市県保健所管内一円県保健所管内一円",
      "lat": 34.756141,
      "lng": 138.086104,
      "geocoding_level": null,
      "phone": "",
      "license_no": "S69201600384",
      "license_date": "2021-11-30",
      "expire_date": "2026-11-30"
    },
    {
      "name": "静岡県経済農業協同組合連合会",
      "name_kana": "シズオカケンケイザイノウギョウキョウドウクミアイレンゴウカイ",
      "business_type": "① 飲食店営業",
      "address": "静岡県菊川市県保健所管内一円県保健所管内一円",
      "lat": 34.756141,
      "lng": 138.086104,
      "geocoding_level": null,
      "phone": "0537-73-3511",
      "license_no": "S69201100379",
      "license_date": "2021-11-30",
      "expire_date": "2026-11-30"
    },
    {
      "name": "すき家　菊川加茂店",
      "name_kana": "スキヤ　キクカワカモテン",
      "business_type": "① 飲食店営業",
      "address": "静岡県菊川市加茂2659番地",
      "lat": 34.74039,
      "lng": 138.085337,
      "geocoding_level": null,
      "phone": "",
      "license_no": "S69200600572",
      "license_date": "2023-11-08",
      "expire_date": "2028-11-30"
    },
    {
      "name": "すき家　菊川加茂店",
      "name_kana": "スキヤ　キクカワカモテン",
      "business_type": "⑬ その他の食料・飲料販売業",
      "address": "静岡県菊川市加茂2659番地",
      "lat": 34.74039,
      "lng": 138.085337,
      "geocoding_level": null,
      "phone": "",
      "license_no": "",
      "license_date": null,
      "expire_date": null
    },
    {
      "name": "ファミリーマート菊川加茂北",
      "name_kana": "ファミリーマートキクガワカモキタテン",
      "business_type": "⑩ コンビニエンスストア",
      "address": "静岡県菊川市加茂579番地の1",
      "lat": 34.7498,
      "lng": 138.08069,
      "geocoding_level": null,
      "phone": "0537373011",
      "license_no": "",
      "license_date": null,
      "expire_date": null
    },
    {
      "name": "ローソン菊川下平川店",
      "name_kana": "ローソンキクガワシモヒラガワテン",
      "business_type": "① 飲食店営業",
      "address": "静岡県菊川市下平川４６２５",
      "lat": 34.707555,
      "lng": 138.08985,
      "geocoding_level": null,
      "phone": "0537-73-0500",
      "license_no": "S69202000277",
      "license_date": "2025-10-27",
      "expire_date": "2030-11-30"
    },
    {
      "name": "ウエルシア菊川土橋店",
      "name_kana": "キクガワツチハシテン",
      "business_type": "⑪ 百貨店、総合スーパー",
      "address": "静岡県菊川市土橋306",
      "lat": 34.729036,
      "lng": 138.090121,
      "geocoding_level": null,
      "phone": "0537372251",
      "license_no": "",
      "license_date": null,
      "expire_date": null
    },
    {
      "name": "ウエルシア菊川土橋店",
      "name_kana": "キクガワツチハシテン",
      "business_type": "⑫ 自動販売機による販売業（コップ式自動販売機（自動洗浄・屋内設置）及び営業許可の対象となる自動販売機を除く）",
      "address": "静岡県菊川市土橋306",
      "lat": 34.729036,
      "lng": 138.090121,
      "geocoding_level": null,
      "phone": "0537372251",
      "license_no": "",
      "license_date": null,
      "expire_date": null
    },
    {
      "name": "ささの恵",
      "name_kana": "ササノエ",
      "business_type": "① 飲食店営業",
      "address": "静岡県菊川市西方１４７１－１３",
      "lat": 34.761282,
      "lng": 138.074752,
      "geocoding_level": null,
      "phone": "0537-35-6761",
      "license_no": "S66200100255",
      "license_date": "2021-11-30",
      "expire_date": "2026-11-30"
    },
    {
      "name": "ファミリーマート　菊川東横地店",
      "name_kana": "ファミリーマート　キクガワヒガシヨコジテン",
      "business_type": "⑩ コンビニエンスストア",
      "address": "静岡県菊川市東横地１６０３番地１",
      "lat": 34.729939,
      "lng": 138.097416,
      "geocoding_level": null,
      "phone": "0537-37-1551",
      "license_no": "",
      "license_date": null,
      "expire_date": null
    },
    {
      "name": "ファミリーマート　菊川東横地店",
      "name_kana": "ファミリーマートキクガワヒガシヨコジテン",
      "business_type": "① 飲食店営業",
      "address": "静岡県菊川市東横地１６０３番地１",
      "lat": 34.729939,
      "lng": 138.097416,
      "geocoding_level": null,
      "phone": "0537-37-1551",
      "license_no": "S69201100010",
      "license_date": "2021-11-30",
      "expire_date": "2026-11-30"
    },
    {
      "name": "フードマーケットマム小笠店",
      "name_kana": "フードマーケットマムオガサテン",
      "business_type": "① 魚介類販売業（包装済みの魚介類のみの販売）",
      "address": "静岡県菊川市赤土1328",
      "lat": 34.691518,
      "lng": 138.094091,
      "geocoding_level": null,
      "phone": "0537-73-8711",
      "license_no": "",
      "license_date": null,
      "expire_date": null
    },
    {
      "name": "フードマーケットマム小笠店",
      "name_kana": "フードマーケットマムオガサテン",
      "business_type": "③ 乳類販売業",
      "address": "静岡県菊川市赤土1328",
      "lat": 34.691518,
      "lng": 138.094091,
      "geocoding_level": null,
      "phone": "0537-73-8711",
      "license_no": "",
      "license_date": null,
      "expire_date": null
    },
    {
      "name": "フードマーケットマム小笠店　アソ－ゲ",
      "name_kana": "フードマーケットマムオガサテンアソーゲ",
      "business_type": "③ 食肉販売業",
      "address": "静岡県菊川市赤土１３２８",
      "lat": 34.691518,
      "lng": 138.094091,
      "geocoding_level": null,
      "phone": "0537-73-8711",
      "license_no": "S69201700161",
      "license_date": "2022-11-10",
      "expire_date": "2027-11-30"
    },
    {
      "name": "フードマーケット　マム小笠店",
      "name_kana": "フードマーケット　マムオガサテン",
      "business_type": "③ 食肉販売業",
      "address": "静岡県菊川市赤土１３２８",
      "lat": 34.691518,
      "lng": 138.094091,
      "geocoding_level": null,
      "phone": "0537-73-8711",
      "license_no": "S66200100463",
      "license_date": "2023-10-27",
      "expire_date": "2028-11-30"
    },
    {
      "name": "フードマーケット　マム小笠店",
      "name_kana": "フードマーケット　マムオガサテン",
      "business_type": "① 魚介類販売業（包装済みの魚介類のみの販売）",
      "address": "静岡県菊川市赤土１３２８",
      "lat": 34.691518,
      "lng": 138.094091,
      "geocoding_level": null,
      "phone": "0537-73-8711",
      "license_no": "",
      "license_date": null,
      "expire_date": null
    },
    {
      "name": "フードマーケット　マム小笠店",
      "name_kana": "フードマーケット　マムオガサテン",
      "business_type": "⑪ 菓子製造業",
      "address": "静岡県菊川市赤土１３２８",
      "lat": 34.691518,
      "lng": 138.094091,
      "geocoding_level": null,
      "phone": "0537-73-8711",
      "license_no": "S66200100464",
      "license_date": "2023-10-27",
      "expire_date": "2028-11-30"
    },
    {
      "name": "フードマーケット　マム小笠店",
      "name_kana": "フードマーケット　マムオガサテン",
      "business_type": "① 飲食店営業",
      "address": "静岡県菊川市赤土１３２８",
      "lat": 34.691518,
      "lng": 138.094091,
      "geocoding_level": null,
      "phone": "0537-73-8711",
      "license_no": "S69200500602",
      "license_date": "2023-10-24",
      "expire_date": "2028-11-30"
    },
    {
      "name": "フードマーケットマム小笠店",
      "name_kana": "フードマーケットマムオガサテン",
      "business_type": "① 飲食店営業",
      "address": "静岡県菊川市赤土1328",
      "lat": 34.691518,
      "lng": 138.094091,
      "geocoding_level": null,
      "phone": "0537-73-8711",
      "license_no": "S76202500409",
      "license_date": "2026-02-18",
      "expire_date": "2031-11-30"
    },
    {
      "name": "フードマーケットマム小笠店",
      "name_kana": "フードマーケットマムオガサテン",
      "business_type": "④ 魚介類販売業",
      "address": "静岡県菊川市赤土1328",
      "lat": 34.691518,
      "lng": 138.094091,
      "geocoding_level": null,
      "phone": "0537-73-8711",
      "license_no": "S76202500410",
      "license_date": "2026-02-18",
      "expire_date": "2031-11-30"
    },
    {
      "name": "ウエルシア菊川赤土店",
      "name_kana": "ウエルシアキクガワアカツチテン",
      "business_type": "⑪ 百貨店、総合スーパー",
      "address": "静岡県菊川市赤土1088",
      "lat": 34.693614,
      "lng": 138.093611,
      "geocoding_level": null,
      "phone": "0537-63-1377",
      "license_no": "",
      "license_date": null,
      "expire_date": null
    },
    {
      "name": "えびら堂",
      "name_kana": "エビラドウ",
      "business_type": "⑪ 菓子製造業",
      "address": "静岡県菊川市嶺田９４９番地",
      "lat": 34.694186,
      "lng": 138.075566,
      "geocoding_level": null,
      "phone": "0537-73-2109",
      "license_no": "S00583540120",
      "license_date": "2021-11-30",
      "expire_date": "2027-11-30"
    },
    {
      "name": "ｐａｔｉｓｓｅｒｉｅ ｅｓ",
      "name_kana": "パティスリー　エス",
      "business_type": "⑪ 菓子製造業",
      "address": "静岡県菊川市富田１６－１",
      "lat": 34.773499,
      "lng": 138.109809,
      "geocoding_level": null,
      "phone": "090-5306-8206",
      "license_no": "S69201500557",
      "license_date": "2021-11-30",
      "expire_date": "2026-11-30"
    },
    {
      "name": "スナック　カサブランカ",
      "name_kana": "カサブランカ",
      "business_type": "① 飲食店営業",
      "address": "静岡県菊川市東横地５６６番地の１",
      "lat": 34.723196,
      "lng": 138.086535,
      "geocoding_level": null,
      "phone": "0537-35-8411",
      "license_no": "S00584090074",
      "license_date": "2021-11-30",
      "expire_date": "2026-11-30"
    },
    {
      "name": "ホテル　ルートイン菊川インター",
      "name_kana": "ホテル　ルートインキクガワインター",
      "business_type": "③ 乳類販売業",
      "address": "静岡県菊川市加茂5638-1",
      "lat": 34.743644,
      "lng": 138.086438,
      "geocoding_level": null,
      "phone": "",
      "license_no": "",
      "license_date": null,
      "expire_date": null
    },
    {
      "name": "松下産婦人科医院",
      "name_kana": "マツシタサンフジンカイイン",
      "business_type": "③ 乳類販売業",
      "address": "静岡県菊川市加茂1990",
      "lat": 34.747714,
      "lng": 138.088101,
      "geocoding_level": null,
      "phone": "0537-36-3221",
      "license_no": "",
      "license_date": null,
      "expire_date": null
    },
    {
      "name": "有限会社太田原牛乳",
      "name_kana": "ユウゲンガイシャオオタハラギュウニュウ",
      "business_type": "③ 乳類販売業",
      "address": "静岡県菊川市半済1500",
      "lat": 34.754113,
      "lng": 138.082557,
      "geocoding_level": null,
      "phone": "0537-35-2319",
      "license_no": "",
      "license_date": null,
      "expire_date": null
    },
    {
      "name": "篠原医院",
      "name_kana": "シノハライイン",
      "business_type": "③ 乳類販売業",
      "address": "静岡県菊川市下平川1508",
      "lat": 34.701724,
      "lng": 138.087002,
      "geocoding_level": null,
      "phone": "0537-73-2059",
      "license_no": "",
      "license_date": null,
      "expire_date": null
    },
    {
      "name": "日東工業株式会社　菊川",
      "name_kana": "ニットウコウギョウカブシキガイシャ　キクガワ",
      "business_type": "③ 乳類販売業",
      "address": "静岡県菊川市西方3",
      "lat": 34.753055,
      "lng": 138.072664,
      "geocoding_level": null,
      "phone": "",
      "license_no": "",
      "license_date": null,
      "expire_date": null
    },
    {
      "name": "ファミリーマート菊川上平川店",
      "name_kana": "ファミリーマートキクガワカミヒラカワテン",
      "business_type": "⑩ コンビニエンスストア",
      "address": "静岡県菊川市上平川564-1",
      "lat": 34.713052,
      "lng": 138.081709,
      "geocoding_level": null,
      "phone": "0537631391",
      "license_no": "",
      "license_date": null,
      "expire_date": null
    },
    {
      "name": "ファミリーマート　菊川上平川店",
      "name_kana": "ファミリーマートキクガワカミヒラカワテン",
      "business_type": "① 飲食店営業",
      "address": "静岡県菊川市上平川５６４番１",
      "lat": 34.713052,
      "lng": 138.081709,
      "geocoding_level": null,
      "phone": "0537-73-8177",
      "license_no": "S69201600306",
      "license_date": "2021-11-30",
      "expire_date": "2026-11-30"
    },
    {
      "name": "ファミリーマートJR菊川駅/S",
      "name_kana": "ファミリーマートジェーアールキクガワエキサテライト",
      "business_type": "① 飲食店営業",
      "address": "静岡県菊川市堀之内547-9",
      "lat": 34.761479,
      "lng": 138.085442,
      "geocoding_level": null,
      "phone": "0537-29-5351",
      "license_no": "S76202500449",
      "license_date": "2026-03-24",
      "expire_date": "2032-11-30"
    },
    {
      "name": "ファミリーマートJR菊川/S",
      "name_kana": "ファミリーマートジェーアールキクガワサテライト",
      "business_type": "⑩ コンビニエンスストア",
      "address": "静岡県菊川市堀之内547-9",
      "lat": 34.761479,
      "lng": 138.085442,
      "geocoding_level": null,
      "phone": "",
      "license_no": "",
      "license_date": null,
      "expire_date": null
    },
    {
      "name": "Ｂａｒｒａｃｕｄａ",
      "name_kana": "バラクーダ",
      "business_type": "① 飲食店営業",
      "address": "静岡県菊川市高橋４６７１",
      "lat": 34.688727,
      "lng": 138.096546,
      "geocoding_level": null,
      "phone": "0537-73-5510",
      "license_no": "S69201400523",
      "license_date": "2021-11-30",
      "expire_date": "2026-11-30"
    },
    {
      "name": "大昌",
      "name_kana": "オオマサ",
      "business_type": "① 飲食店営業",
      "address": "静岡県菊川市半済１８０９－１",
      "lat": 34.757032,
      "lng": 138.089006,
      "geocoding_level": null,
      "phone": "0537-36-5374",
      "license_no": "S76202100196",
      "license_date": "2021-11-25",
      "expire_date": "2026-11-30"
    },
    {
      "name": "森本酒造合資会社",
      "name_kana": "モリモトシュゾウゴウシガイシャ",
      "business_type": "㉑ 酒類製造業",
      "address": "静岡県菊川市堀之内１４７７",
      "lat": 34.759682,
      "lng": 138.084321,
      "geocoding_level": null,
      "phone": "0537-35-2067",
      "license_no": "S69200600187",
      "license_date": "2021-11-30",
      "expire_date": "2026-11-30"
    },
    {
      "name": "スズキマート",
      "name_kana": "スズキマート",
      "business_type": "⑪ 百貨店、総合スーパー",
      "address": "静岡県菊川市下平川１８７２番地の１",
      "lat": 34.703693,
      "lng": 138.087222,
      "geocoding_level": null,
      "phone": "0537-73-2409",
      "license_no": "",
      "license_date": null,
      "expire_date": null
    },
    {
      "name": "スズキマート",
      "name_kana": "スズキマート",
      "business_type": "① 飲食店営業",
      "address": "静岡県菊川市下平川１８７２番地の１",
      "lat": 34.703693,
      "lng": 138.087222,
      "geocoding_level": null,
      "phone": "0537-73-2049",
      "license_no": "S00584060353",
      "license_date": "2021-11-30",
      "expire_date": "2026-11-30"
    },
    {
      "name": "菊川市立総合病院",
      "name_kana": "キクガワシリツソウゴウビョウイン",
      "business_type": "⑤ コップ式自動販売機（自動洗浄・屋内設置）",
      "address": "静岡県菊川市東横地１６３２",
      "lat": 34.733387,
      "lng": 138.099529,
      "geocoding_level": null,
      "phone": "0537-35-2130",
      "license_no": "",
      "license_date": null,
      "expire_date": null
    },
    {
      "name": "Ｒｉｒｅｒａ",
      "name_kana": "リレラ",
      "business_type": "① 飲食店営業",
      "address": "静岡県菊川市県内一円県保健所管内一円",
      "lat": 34.756141,
      "lng": 138.086104,
      "geocoding_level": null,
      "phone": "",
      "license_no": "S69201500534",
      "license_date": "2021-11-30",
      "expire_date": "2026-11-30"
    },
    {
      "name": "日の出屋",
      "name_kana": "ヒノデヤ",
      "business_type": "① 飲食店営業",
      "address": "静岡県菊川市半済１９９６－５",
      "lat": 34.761941,
      "lng": 138.089288,
      "geocoding_level": null,
      "phone": "0537-36-1008",
      "license_no": "S69201600381",
      "license_date": "2021-11-30",
      "expire_date": "2026-11-30"
    },
    {
      "name": "エフクラス",
      "name_kana": "エフクラス",
      "business_type": "① 飲食店営業",
      "address": "静岡県菊川市加茂４６０－３",
      "lat": 34.751657,
      "lng": 138.080391,
      "geocoding_level": null,
      "phone": "0537-35-8555",
      "license_no": "S69201600054",
      "license_date": "2021-11-30",
      "expire_date": "2026-11-30"
    },
    {
      "name": "中国料理　得意齋",
      "name_kana": "チュウゴクリョウリ　トヲイーサイ",
      "business_type": "① 飲食店営業",
      "address": "静岡県菊川市加茂４７１１",
      "lat": 34.749369,
      "lng": 138.081572,
      "geocoding_level": null,
      "phone": "0537-35-5605",
      "license_no": "S66200200424",
      "license_date": "2021-11-30",
      "expire_date": "2026-11-30"
    },
    {
      "name": "セブン－イレブン菊川下平川店",
      "name_kana": "セブンイレブンキクガワシモヒラカワテン",
      "business_type": "⑩ コンビニエンスストア",
      "address": "静岡県菊川市下平川１９１２－１",
      "lat": 34.705463,
      "lng": 138.086347,
      "geocoding_level": null,
      "phone": "0537-73-5512",
      "license_no": "",
      "license_date": null,
      "expire_date": null
    },
    {
      "name": "株式会社　流通サービス",
      "name_kana": "カブシキカイシャ　リュウツウサービス",
      "business_type": "⑯ コーヒー製造・加工業（飲料の製造を除く。）",
      "address": "静岡県菊川市倉沢340",
      "lat": 34.779513,
      "lng": 138.124442,
      "geocoding_level": null,
      "phone": "0537355661",
      "license_no": "",
      "license_date": null,
      "expire_date": null
    },
    {
      "name": "株式会社　流通サービス",
      "name_kana": "カブシキカイシャ　リュウツウサービス",
      "business_type": "㉑ 製茶業",
      "address": "静岡県菊川市倉沢340",
      "lat": 34.779513,
      "lng": 138.124442,
      "geocoding_level": null,
      "phone": "0537355661",
      "license_no": "",
      "license_date": null,
      "expire_date": null
    },
    {
      "name": "海楽",
      "name_kana": "カイラク",
      "business_type": "① 飲食店営業",
      "address": "静岡県菊川市高橋２４９１番地の７",
      "lat": 34.678082,
      "lng": 138.10311,
      "geocoding_level": null,
      "phone": "0537-73-4285",
      "license_no": "S00583590034",
      "license_date": "2021-11-30",
      "expire_date": "2026-11-30"
    },
    {
      "name": "ヤスイフーズ",
      "name_kana": "ヤスイフーズ",
      "business_type": "③ 食肉販売業",
      "address": "静岡県菊川市嶺田2399",
      "lat": 34.68914,
      "lng": 138.076499,
      "geocoding_level": null,
      "phone": "08058161679",
      "license_no": "S76202100192",
      "license_date": "2021-11-16",
      "expire_date": "2026-11-30"
    },
    {
      "name": "ＳＨＡＮ　ＳＨＡＮ",
      "name_kana": "シャンシャン",
      "business_type": "① 飲食店営業",
      "address": "静岡県菊川市下平川１８８３－３",
      "lat": 34.70434,
      "lng": 138.087504,
      "geocoding_level": null,
      "phone": "080-9114-4201",
      "license_no": "S69201600221",
      "license_date": "2021-11-30",
      "expire_date": "2026-11-30"
    },
    {
      "name": "菊川青果物流通センター",
      "name_kana": "キクガワセイカブツリュウツウセンター",
      "business_type": "⑦ 野菜果物販売業",
      "address": "静岡県菊川市加茂5780",
      "lat": 34.742196,
      "lng": 138.086434,
      "geocoding_level": null,
      "phone": "",
      "license_no": "",
      "license_date": null,
      "expire_date": null
    },
    {
      "name": "夢咲青果物流通センター",
      "name_kana": "ユメサキセイカブツリュウツウセンター",
      "business_type": "⑦ 野菜果物販売業",
      "address": "静岡県菊川市嶺田3600-1",
      "lat": 34.684634,
      "lng": 138.083568,
      "geocoding_level": null,
      "phone": "",
      "license_no": "",
      "license_date": null,
      "expire_date": null
    },
    {
      "name": "菊川営農経済センター",
      "name_kana": "キクガワエイノウケイザイセンター",
      "business_type": "⑧ 米穀類販売業",
      "address": "静岡県菊川市加茂5780",
      "lat": 34.742196,
      "lng": 138.086434,
      "geocoding_level": null,
      "phone": "",
      "license_no": "",
      "license_date": null,
      "expire_date": null
    },
    {
      "name": "小笠営農経済センター",
      "name_kana": "オガサエイノウケイザイセンター",
      "business_type": "⑧ 米穀類販売業",
      "address": "静岡県菊川市下平川5291-1",
      "lat": 34.699503,
      "lng": 138.09268,
      "geocoding_level": null,
      "phone": "",
      "license_no": "",
      "license_date": null,
      "expire_date": null
    },
    {
      "name": "ミナクルふれあい菊川の里",
      "name_kana": "ミナクルフレアイキクガワノサト",
      "business_type": "⑪ 百貨店、総合スーパー",
      "address": "静岡県菊川市加茂5780",
      "lat": 34.742196,
      "lng": 138.086434,
      "geocoding_level": null,
      "phone": "",
      "license_no": "",
      "license_date": null,
      "expire_date": null
    },
    {
      "name": "ミナクルふれあい菊川の里",
      "name_kana": "ミナクルフレアイキクガワノサト",
      "business_type": "⑳ みそ又はしょうゆ製造業",
      "address": "静岡県菊川市加茂５７８０",
      "lat": 34.742196,
      "lng": 138.086434,
      "geocoding_level": null,
      "phone": "0537-35-3111",
      "license_no": "S69200600425",
      "license_date": "2022-11-10",
      "expire_date": "2027-11-30"
    },
    {
      "name": "遠州夢咲農業協同組合",
      "name_kana": "エンシュウユメサキノウギョウキョウドウクミアイ",
      "business_type": "② 食肉販売業（包装済みの食肉のみの販売）",
      "address": "静岡県菊川市下平川6265",
      "lat": 34.700515,
      "lng": 138.09237,
      "geocoding_level": null,
      "phone": "",
      "license_no": "",
      "license_date": null,
      "expire_date": null
    },
    {
      "name": "遠州夢咲農業協同組合",
      "name_kana": "エンシュウユメサキノウギョウキョウドウクミアイ",
      "business_type": "① 飲食店営業",
      "address": "静岡県菊川市加茂県保健所管内一円",
      "lat": 34.743575,
      "lng": 138.085355,
      "geocoding_level": null,
      "phone": "0537-35-3111",
      "license_no": "S69200800484",
      "license_date": "2023-10-20",
      "expire_date": "2028-11-30"
    },
    {
      "name": "遠州夢咲農業協同組合　露店１",
      "name_kana": "エンシュウユメサキノウギョウキョウドウクミアイ　ロテンイチ",
      "business_type": "① 飲食店営業",
      "address": "静岡県菊川市下平川県保健所管内一円",
      "lat": 34.702776,
      "lng": 138.087463,
      "geocoding_level": null,
      "phone": "0537-73-5111",
      "license_no": "S00584080203",
      "license_date": "2025-10-07",
      "expire_date": "2030-11-30"
    },
    {
      "name": "遠州夢咲農業協同組合　露店６",
      "name_kana": "エンシュウユメサキノウギョウキョウドウクミアイ　ロテンロク",
      "business_type": "① 飲食店営業",
      "address": "静岡県菊川市下平川（県保健所管内一円）",
      "lat": 34.702776,
      "lng": 138.087463,
      "geocoding_level": null,
      "phone": "0537-73-5111",
      "license_no": "S76202500284",
      "license_date": "2025-10-27",
      "expire_date": "2030-11-30"
    },
    {
      "name": "遠州夢咲農業協同組合　露店７",
      "name_kana": "エンシュウユメサキノウギョウキョウドウクミアイ　ロテンナナ",
      "business_type": "① 飲食店営業",
      "address": "静岡県菊川市下平川（県保健所管内一円）",
      "lat": 34.702776,
      "lng": 138.087463,
      "geocoding_level": null,
      "phone": "0537-73-5111",
      "license_no": "S76202500285",
      "license_date": "2025-10-27",
      "expire_date": "2030-11-30"
    },
    {
      "name": "遠州夢咲農業協同組合　露店８",
      "name_kana": "エンシュウユメサキノウギョウキョウドウクミアイ　ロテンハチ",
      "business_type": "① 飲食店営業",
      "address": "静岡県菊川市下平川（県保健所管内一円）",
      "lat": 34.702776,
      "lng": 138.087463,
      "geocoding_level": null,
      "phone": "0537-73-5111",
      "license_no": "S76202500286",
      "license_date": "2025-10-27",
      "expire_date": "2030-11-30"
    },
    {
      "name": "遠州夢咲農業協同組合　露店９",
      "name_kana": "エンシュウユメサキノウギョウキョウドウクミアイ　ロテンキュウ",
      "business_type": "① 飲食店営業",
      "address": "静岡県菊川市下平川（県保健所管内一円）",
      "lat": 34.702776,
      "lng": 138.087463,
      "geocoding_level": null,
      "phone": "0537-73-5111",
      "license_no": "S76202500287",
      "license_date": "2025-10-27",
      "expire_date": "2030-11-30"
    },
    {
      "name": "遠州夢咲農業協同組合　露店５",
      "name_kana": "エンシュウユメサキノウギョウキョウドウクミアイ　ロテンゴ",
      "business_type": "① 飲食店営業",
      "address": "静岡県菊川市下平川（県保健所管内一円）",
      "lat": 34.702776,
      "lng": 138.087463,
      "geocoding_level": null,
      "phone": "0537-73-5111",
      "license_no": "S76202500283",
      "license_date": "2025-10-27",
      "expire_date": "2030-11-30"
    },
    {
      "name": "遠州夢咲農業協同組合　露店２",
      "name_kana": "エンシュウユメサキノウギョウキョウドウクミアイ　ロテンニ",
      "business_type": "① 飲食店営業",
      "address": "静岡県菊川市下平川（県保健所管内一円）",
      "lat": 34.702776,
      "lng": 138.087463,
      "geocoding_level": null,
      "phone": "0537-73-5111",
      "license_no": "S00584080204",
      "license_date": "2025-10-07",
      "expire_date": "2030-11-30"
    },
    {
      "name": "遠州夢咲農業協同組合　露店３",
      "name_kana": "エンシュウユメサキノウギョウキョウドウクミアイ　ロテンサン",
      "business_type": "① 飲食店営業",
      "address": "静岡県菊川市下平川（県保健所管内一円）",
      "lat": 34.702776,
      "lng": 138.087463,
      "geocoding_level": null,
      "phone": "0537-73-5111",
      "license_no": "S00584080314",
      "license_date": "2025-10-07",
      "expire_date": "2030-11-30"
    },
    {
      "name": "ヨッちゃん　そば",
      "name_kana": "ヨッチャン　ソバ",
      "business_type": "㉔ 麺類製造業",
      "address": "静岡県菊川市土橋３６５",
      "lat": 34.727514,
      "lng": 138.089923,
      "geocoding_level": null,
      "phone": "0537-35-4043",
      "license_no": "S69201100281",
      "license_date": "2021-11-30",
      "expire_date": "2026-11-30"
    },
    {
      "name": "社会福祉法人　春日寮食堂",
      "name_kana": "カスガリョウ",
      "business_type": "① 飲食店営業",
      "address": "静岡県菊川市上平川７番地の１",
      "lat": 34.71891,
      "lng": 138.082407,
      "geocoding_level": null,
      "phone": "0537-73-4665",
      "license_no": "S00584090591",
      "license_date": "2021-11-30",
      "expire_date": "2026-11-30"
    },
    {
      "name": "トキワ製麺部製めん所",
      "name_kana": "トキワセイメンブセイメンセイメンショ",
      "business_type": "㉔ 麺類製造業",
      "address": "静岡県菊川市東横地１０２１番地",
      "lat": 34.724111,
      "lng": 138.08606,
      "geocoding_level": null,
      "phone": "0538-36-1807",
      "license_no": "S69201400054",
      "license_date": "2024-10-21",
      "expire_date": "2029-11-30"
    },
    {
      "name": "塚本商店",
      "name_kana": "ツカモトショウテン",
      "business_type": "④ 魚介類販売業",
      "address": "静岡県菊川市富田２２－４",
      "lat": 34.773628,
      "lng": 138.110772,
      "geocoding_level": null,
      "phone": "0537-35-2474",
      "license_no": "S66200300492",
      "license_date": "2021-11-30",
      "expire_date": "2026-11-30"
    },
    {
      "name": "塚本商店",
      "name_kana": "ツカモト",
      "business_type": "① 飲食店営業",
      "address": "静岡県菊川市富田２２番地の４",
      "lat": 34.773628,
      "lng": 138.110772,
      "geocoding_level": null,
      "phone": "0537-35-2474",
      "license_no": "S00583620115",
      "license_date": "2023-11-09",
      "expire_date": "2028-11-30"
    },
    {
      "name": "王将寿し",
      "name_kana": "オウショウズシ",
      "business_type": "① 飲食店営業",
      "address": "静岡県菊川市加茂３００－１",
      "lat": 34.749283,
      "lng": 138.088357,
      "geocoding_level": null,
      "phone": "0537-36-5551",
      "license_no": "S66200500133",
      "license_date": "2021-11-30",
      "expire_date": "2026-11-30"
    },
    {
      "name": "中華料理　福盛",
      "name_kana": "チュウカリョウリ　フクショウ",
      "business_type": "① 飲食店営業",
      "address": "静岡県菊川市加茂５５７３",
      "lat": 34.744743,
      "lng": 138.087524,
      "geocoding_level": null,
      "phone": "0537-28-8708",
      "license_no": "S69201100321",
      "license_date": "2021-11-30",
      "expire_date": "2026-11-30"
    },
    {
      "name": "和田",
      "name_kana": "ワダ",
      "business_type": "⑰ 農産保存食料品製造・加工業",
      "address": "静岡県菊川市牧之原２６６４－８－２",
      "lat": 34.732195,
      "lng": 138.1396,
      "geocoding_level": null,
      "phone": "0548-27-2729",
      "license_no": "",
      "license_date": null,
      "expire_date": null
    },
    {
      "name": "うでまくりDINING喜楽人",
      "name_kana": "ウデマクリダイニングキラクジン",
      "business_type": "㉕ そうざい製造業",
      "address": "静岡県菊川市西方4376-1",
      "lat": 34.764345,
      "lng": 138.068908,
      "geocoding_level": null,
      "phone": "0537889232",
      "license_no": "S76202100167",
      "license_date": "2021-11-02",
      "expire_date": "2026-11-30"
    },
    {
      "name": "うでまくりＤＩＮＩＮＧ喜楽人",
      "name_kana": "ウデマクリダイニングキラクジン",
      "business_type": "① 飲食店営業",
      "address": "静岡県菊川市本所県保健所管内一円",
      "lat": 34.746924,
      "lng": 138.09772,
      "geocoding_level": null,
      "phone": "",
      "license_no": "S76202300206",
      "license_date": "2023-07-31",
      "expire_date": "2028-11-30"
    },
    {
      "name": "うでまくりＤＩＮＩＮＧ　喜楽人",
      "name_kana": "ウデマクリダイニングキラクジン",
      "business_type": "① 飲食店営業",
      "address": "静岡県菊川市西方４３７６－１",
      "lat": 34.764345,
      "lng": 138.068908,
      "geocoding_level": null,
      "phone": "0537-88-9232",
      "license_no": "S69201800645",
      "license_date": "2024-10-08",
      "expire_date": "2029-11-30"
    },
    {
      "name": "たこ祥",
      "name_kana": "タコショウ",
      "business_type": "① 飲食店営業",
      "address": "静岡県菊川市県保健所管内一円",
      "lat": 34.756141,
      "lng": 138.086104,
      "geocoding_level": null,
      "phone": "",
      "license_no": "S69201100461",
      "license_date": "2022-11-10",
      "expire_date": "2027-11-30"
    },
    {
      "name": "男爵",
      "name_kana": "ダンシヤク",
      "business_type": "① 飲食店営業",
      "address": "静岡県菊川市高橋２４０４－１",
      "lat": 34.679724,
      "lng": 138.103323,
      "geocoding_level": null,
      "phone": "0537-73-6119",
      "license_no": "S00584100338",
      "license_date": "2021-11-30",
      "expire_date": "2027-11-30"
    },
    {
      "name": "和風中華まきのはら",
      "name_kana": "マキノハラ",
      "business_type": "① 飲食店営業",
      "address": "静岡県菊川市牛渕２１５７－１７",
      "lat": 34.75932,
      "lng": 138.13288,
      "geocoding_level": null,
      "phone": "0548-27-3520",
      "license_no": "S00583560076",
      "license_date": "2021-11-30",
      "expire_date": "2026-11-30"
    },
    {
      "name": "有限会社蒲瀧商店",
      "name_kana": "カマタキショウテン",
      "business_type": "① 飲食店営業",
      "address": "静岡県菊川市加茂５５２７",
      "lat": 34.744416,
      "lng": 138.085524,
      "geocoding_level": null,
      "phone": "0537-35-2009",
      "license_no": "S66200300534",
      "license_date": "2021-11-30",
      "expire_date": "2026-11-30"
    },
    {
      "name": "有限会社蒲瀧商店",
      "name_kana": "カマタキショウテン",
      "business_type": "④ 魚介類販売業",
      "address": "静岡県菊川市加茂５５２７",
      "lat": 34.744416,
      "lng": 138.085524,
      "geocoding_level": null,
      "phone": "0537-35-2009",
      "license_no": "S66200300535",
      "license_date": "2021-11-30",
      "expire_date": "2026-11-30"
    },
    {
      "name": "マルマツ食品有限会社",
      "name_kana": "マルマツショクヒンユウゲンガイシャ",
      "business_type": "② 食肉販売業（包装済みの食肉のみの販売）",
      "address": "静岡県菊川市高橋4236-1",
      "lat": 34.688143,
      "lng": 138.09677,
      "geocoding_level": null,
      "phone": "0537735062",
      "license_no": "",
      "license_date": null,
      "expire_date": null
    },
    {
      "name": "マルマツ食品有限会社（肉巻き）",
      "name_kana": "マルマツショクヒンユウゲンガイシャ　ニクマキ",
      "business_type": "⑨ 食肉処理業",
      "address": "静岡県菊川市高橋４２３６－１",
      "lat": 34.688156,
      "lng": 138.096887,
      "geocoding_level": null,
      "phone": "0537-73-5062",
      "license_no": "S66200500089",
      "license_date": "2023-10-24",
      "expire_date": "2028-11-30"
    },
    {
      "name": "マルマツ食品有限会社",
      "name_kana": "マルマツショクヒンユウゲンガイシャ",
      "business_type": "① 飲食店営業",
      "address": "静岡県菊川市県保健所管内一円",
      "lat": 34.756141,
      "lng": 138.086104,
      "geocoding_level": null,
      "phone": "",
      "license_no": "S69201400129",
      "license_date": "2024-10-07",
      "expire_date": "2029-11-30"
    },
    {
      "name": "マルマツ食品有限会社",
      "name_kana": "マルマツショクヒンユウゲンガイシャ",
      "business_type": "㉕ そうざい製造業",
      "address": "静岡県菊川市高橋４２３６番地の１",
      "lat": 34.688156,
      "lng": 138.096887,
      "geocoding_level": null,
      "phone": "0537-73-5062",
      "license_no": "S00054050066",
      "license_date": "2025-10-27",
      "expire_date": "2031-11-30"
    },
    {
      "name": "上倉沢茶農協",
      "name_kana": "カミクラサワチャノウキョウ",
      "business_type": "⑰ 農産保存食料品製造・加工業",
      "address": "静岡県菊川市倉沢９６０",
      "lat": 34.790415,
      "lng": 138.126033,
      "geocoding_level": null,
      "phone": "0537-36-3311",
      "license_no": "",
      "license_date": null,
      "expire_date": null
    },
    {
      "name": "ローソン菊川加茂店",
      "name_kana": "ローソンキクガワカモテン",
      "business_type": "⑩ コンビニエンスストア",
      "address": "静岡県菊川市加茂３０３６番１",
      "lat": 34.733276,
      "lng": 138.089559,
      "geocoding_level": null,
      "phone": "0537-37-3963",
      "license_no": "",
      "license_date": null,
      "expire_date": null
    },
    {
      "name": "ローソン菊川加茂店",
      "name_kana": "ローソンキクガワカモテン",
      "business_type": "① 飲食店営業",
      "address": "静岡県菊川市加茂３０３６番１",
      "lat": 34.733276,
      "lng": 138.089559,
      "geocoding_level": null,
      "phone": "0537-37-3963",
      "license_no": "S69201400629",
      "license_date": "2021-11-30",
      "expire_date": "2026-11-30"
    },
    {
      "name": "杉山茶屋",
      "name_kana": "スギヤマチャヤ",
      "business_type": "⑨ 通信販売・訪問販売による販売業",
      "address": "静岡県菊川市川上2594-3",
      "lat": 34.702588,
      "lng": 138.112582,
      "geocoding_level": null,
      "phone": "0537738811",
      "license_no": "",
      "license_date": null,
      "expire_date": null
    },
    {
      "name": "齊藤加工所",
      "name_kana": "サイトウカコウジョ",
      "business_type": "㉗ 器具、容器包装の製造・加工業（合成樹脂が使用された器具又は容器包装の製造、加工に限る。）",
      "address": "静岡県菊川市河東3245-2",
      "lat": 34.673474,
      "lng": 138.088861,
      "geocoding_level": null,
      "phone": "09050078579",
      "license_no": "",
      "license_date": null,
      "expire_date": null
    },
    {
      "name": "佐野安美",
      "name_kana": "サノヤスミ",
      "business_type": "⑰ 農産保存食料品製造・加工業",
      "address": "静岡県菊川市月岡６３－１",
      "lat": 34.728758,
      "lng": 138.080901,
      "geocoding_level": null,
      "phone": "0537-36-2426",
      "license_no": "",
      "license_date": null,
      "expire_date": null
    },
    {
      "name": "宮崎幸子",
      "name_kana": "ミヤザキユキコ",
      "business_type": "⑧ 米穀類販売業",
      "address": "静岡県菊川市半済1302",
      "lat": 34.753952,
      "lng": 138.084364,
      "geocoding_level": null,
      "phone": "",
      "license_no": "",
      "license_date": null,
      "expire_date": null
    },
    {
      "name": "下倉沢茶農業協同組合",
      "name_kana": "シモクラサワチャノウギョウキョウドウクミアイ",
      "business_type": "㉑ 製茶業",
      "address": "静岡県菊川市倉沢２４８",
      "lat": 34.788912,
      "lng": 138.132473,
      "geocoding_level": null,
      "phone": "0537-36-1014",
      "license_no": "",
      "license_date": null,
      "expire_date": null
    },
    {
      "name": "魚建",
      "name_kana": "ウオケン",
      "business_type": "④ 魚介類販売業",
      "address": "静岡県菊川市下平川1505-1",
      "lat": 34.702109,
      "lng": 138.08765,
      "geocoding_level": null,
      "phone": "0537-73-2071",
      "license_no": "S76202100206",
      "license_date": "2021-12-08",
      "expire_date": "2027-11-30"
    },
    {
      "name": "魚建",
      "name_kana": "ウオケン",
      "business_type": "④ 魚介類販売業",
      "address": "静岡県菊川市下平川1504-2",
      "lat": 34.702017,
      "lng": 138.087276,
      "geocoding_level": null,
      "phone": "0537-73-2071",
      "license_no": "S76202200064",
      "license_date": "2022-05-24",
      "expire_date": "2027-11-30"
    },
    {
      "name": "一心",
      "name_kana": "イッシン",
      "business_type": "① 飲食店営業",
      "address": "静岡県菊川市下平川1504-4",
      "lat": 34.702056,
      "lng": 138.087504,
      "geocoding_level": null,
      "phone": "0537-73-5685",
      "license_no": "S76202200189",
      "license_date": "2022-08-24",
      "expire_date": "2027-11-30"
    },
    {
      "name": "六郷茶農業協同組合",
      "name_kana": "ロクゴウチャノウギョウキョウドウクミアイ",
      "business_type": "㉑ 製茶業",
      "address": "静岡県菊川市牛渕４７８",
      "lat": 34.744876,
      "lng": 138.108716,
      "geocoding_level": null,
      "phone": "0537-36-3948",
      "license_no": "",
      "license_date": null,
      "expire_date": null
    },
    {
      "name": "横山利雄",
      "name_kana": "ヨコヤマトシオ",
      "business_type": "㉑ 製茶業",
      "address": "静岡県菊川市小沢１５８－４",
      "lat": 34.749017,
      "lng": 138.129796,
      "geocoding_level": null,
      "phone": "0548-27-2673",
      "license_no": "",
      "license_date": null,
      "expire_date": null
    },
    {
      "name": "なちゅふる",
      "name_kana": "ナチュフル",
      "business_type": "① 飲食店営業",
      "address": "静岡県菊川市本所県保健所管内一円",
      "lat": 34.746924,
      "lng": 138.09772,
      "geocoding_level": null,
      "phone": "090-6337-4180",
      "license_no": "S76202200268",
      "license_date": "2022-10-12",
      "expire_date": "2027-11-30"
    },
    {
      "name": "なちゅふる",
      "name_kana": "ナチュフル",
      "business_type": "⑪ 菓子製造業",
      "address": "静岡県菊川市本所１７０",
      "lat": 34.760692,
      "lng": 138.091575,
      "geocoding_level": null,
      "phone": "",
      "license_no": "S69202000104",
      "license_date": "2025-11-07",
      "expire_date": "2030-11-30"
    },
    {
      "name": "ウエルシア菊川加茂店",
      "name_kana": "ウエルシアキクガワカモテン",
      "business_type": "⑪ 百貨店、総合スーパー",
      "address": "静岡県菊川市加茂2555",
      "lat": 34.741507,
      "lng": 138.085221,
      "geocoding_level": null,
      "phone": "0537-36-3848",
      "license_no": "",
      "license_date": null,
      "expire_date": null
    },
    {
      "name": "しずてつストア　菊川店",
      "name_kana": "シズテツストア　キクガワテン",
      "business_type": "⑪ 百貨店、総合スーパー",
      "address": "静岡県菊川市半済1749番地",
      "lat": 34.755749,
      "lng": 138.088291,
      "geocoding_level": null,
      "phone": "0537-37-1771",
      "license_no": "",
      "license_date": null,
      "expire_date": null
    },
    {
      "name": "しずてつストア菊川南店",
      "name_kana": "シズテツストアキクガワミナミテン",
      "business_type": "⑪ 百貨店、総合スーパー",
      "address": "静岡県菊川市土橋342番地",
      "lat": 34.727552,
      "lng": 138.088922,
      "geocoding_level": null,
      "phone": "0537356621",
      "license_no": "",
      "license_date": null,
      "expire_date": null
    },
    {
      "name": "しずてつストア菊川南店",
      "name_kana": "シズテツストアキクガワミナミテン",
      "business_type": "① 飲食店営業",
      "address": "静岡県菊川市土橋３４２",
      "lat": 34.727552,
      "lng": 138.088922,
      "geocoding_level": null,
      "phone": "0537-35-6621",
      "license_no": "S00584100588",
      "license_date": "2022-11-10",
      "expire_date": "2028-11-30"
    },
    {
      "name": "しずてつストア菊川南店",
      "name_kana": "シズテツストアキクガワミナミテン",
      "business_type": "④ 魚介類販売業",
      "address": "静岡県菊川市土橋３４２",
      "lat": 34.727552,
      "lng": 138.088922,
      "geocoding_level": null,
      "phone": "0537-35-6621",
      "license_no": "S00584100590",
      "license_date": "2022-11-10",
      "expire_date": "2028-11-30"
    },
    {
      "name": "しずてつストア　菊川南店",
      "name_kana": "シズテツストア　キクガワミナミテン",
      "business_type": "⑪ 百貨店、総合スーパー",
      "address": "静岡県菊川市土橋342番地",
      "lat": 34.727552,
      "lng": 138.088922,
      "geocoding_level": null,
      "phone": "0537-35-6621",
      "license_no": "",
      "license_date": null,
      "expire_date": null
    },
    {
      "name": "しずてつストア　菊川南店",
      "name_kana": "シズテツストア　キクガワミナミテン",
      "business_type": "① 飲食店営業",
      "address": "静岡県菊川市土橋県保健所管内一円",
      "lat": 34.727085,
      "lng": 138.087175,
      "geocoding_level": null,
      "phone": "0537-35-6621",
      "license_no": "S76202300172",
      "license_date": "2023-07-10",
      "expire_date": "2028-11-30"
    },
    {
      "name": "しずてつストア　菊川店",
      "name_kana": "シズテツストア　キクガワテン",
      "business_type": "① 飲食店営業",
      "address": "静岡県菊川市半済県保健所管内一円",
      "lat": 34.741739,
      "lng": 138.098961,
      "geocoding_level": null,
      "phone": "0537-37-1771",
      "license_no": "S76202300173",
      "license_date": "2023-07-10",
      "expire_date": "2028-11-30"
    },
    {
      "name": "しずてつストア菊川南店　とくし丸",
      "name_kana": "シズテツストアキクガワミナミテン　トクシマル",
      "business_type": "㉕ 行商",
      "address": "静岡県菊川市土橋342番地",
      "lat": 34.727659,
      "lng": 138.088881,
      "geocoding_level": null,
      "phone": "0537-35-6621",
      "license_no": "",
      "license_date": null,
      "expire_date": null
    },
    {
      "name": "しずてつストア菊川店",
      "name_kana": "シズテツストアキクガワテン",
      "business_type": "① 飲食店営業",
      "address": "静岡県菊川市半済１７４９",
      "lat": 34.755749,
      "lng": 138.088291,
      "geocoding_level": null,
      "phone": "0537-37-1771",
      "license_no": "S00584110368",
      "license_date": "2024-10-08",
      "expire_date": "2030-11-30"
    },
    {
      "name": "しずてつストア菊川店",
      "name_kana": "シズテツストアキクガワテン",
      "business_type": "④ 魚介類販売業",
      "address": "静岡県菊川市半済１７４９",
      "lat": 34.755749,
      "lng": 138.088291,
      "geocoding_level": null,
      "phone": "0537-37-1771",
      "license_no": "S00584110370",
      "license_date": "2024-10-08",
      "expire_date": "2030-11-30"
    },
    {
      "name": "株式会社　神尾金上",
      "name_kana": "カンノオカネジョウ",
      "business_type": "㉑ 製茶業",
      "address": "静岡県菊川市神尾１２４８－１",
      "lat": 34.738638,
      "lng": 138.118158,
      "geocoding_level": null,
      "phone": "0537-36-3981",
      "license_no": "",
      "license_date": null,
      "expire_date": null
    },
    {
      "name": "ドルコーヒー",
      "name_kana": "ドルコーヒー",
      "business_type": "① 飲食店営業",
      "address": "静岡県菊川市本所県保健所管内一円",
      "lat": 34.746924,
      "lng": 138.09772,
      "geocoding_level": null,
      "phone": "",
      "license_no": "S76202100178",
      "license_date": "2021-11-11",
      "expire_date": "2026-11-30"
    },
    {
      "name": "ドラッグコスモス半済店",
      "name_kana": "ドラッグコスモスハンセイテン",
      "business_type": "⑪ 百貨店、総合スーパー",
      "address": "静岡県菊川市半済2604",
      "lat": 34.751614,
      "lng": 138.094087,
      "geocoding_level": null,
      "phone": "0537-64-3444",
      "license_no": "",
      "license_date": null,
      "expire_date": null
    },
    {
      "name": "片山製茶工場有限会社",
      "name_kana": "カタヤマセイチャコウジョウユウゲンガイシャ",
      "business_type": "㉑ 製茶業",
      "address": "静岡県菊川市古谷１４７番地の２",
      "lat": 34.710424,
      "lng": 138.124579,
      "geocoding_level": null,
      "phone": "0537-73-2310",
      "license_no": "",
      "license_date": null,
      "expire_date": null
    },
    {
      "name": "遠州夢咲農業協同組合　茶業振興センター",
      "name_kana": "エンシュウユメサキノウギョウキョウドウクミアイ　チャギョウシンコウセンター",
      "business_type": "㉑ 製茶業",
      "address": "静岡県菊川市和田1057-3",
      "lat": 34.758773,
      "lng": 138.108564,
      "geocoding_level": null,
      "phone": "0537-35-3021",
      "license_no": "",
      "license_date": null,
      "expire_date": null
    },
    {
      "name": "酒処蔵",
      "name_kana": "サケドコロクラ",
      "business_type": "① 飲食店営業",
      "address": "静岡県菊川市下平川７９０－１",
      "lat": 34.700187,
      "lng": 138.083395,
      "geocoding_level": null,
      "phone": "",
      "license_no": "S66200100346",
      "license_date": "2021-11-30",
      "expire_date": "2026-11-30"
    },
    {
      "name": "有限会社山城屋",
      "name_kana": "ユウゲンガイシャヤマシロヤ",
      "business_type": "⑦ 野菜果物販売業",
      "address": "静岡県菊川市西方４３６９－３",
      "lat": 34.7642,
      "lng": 138.068462,
      "geocoding_level": null,
      "phone": "0537-35-5017",
      "license_no": "",
      "license_date": null,
      "expire_date": null
    },
    {
      "name": "画禅庵",
      "name_kana": "ガゼンアン",
      "business_type": "① 飲食店営業",
      "address": "静岡県菊川市本所２２２１－５",
      "lat": 34.746183,
      "lng": 138.095491,
      "geocoding_level": null,
      "phone": "0537-35-4559",
      "license_no": "S69201100254",
      "license_date": "2021-11-30",
      "expire_date": "2026-11-30"
    },
    {
      "name": "向日葵",
      "name_kana": "ヒマワリ",
      "business_type": "① 飲食店営業",
      "address": "静岡県菊川市下平川1600-4",
      "lat": 34.702267,
      "lng": 138.088166,
      "geocoding_level": null,
      "phone": "09076113431",
      "license_no": "S76202100198",
      "license_date": "2021-11-29",
      "expire_date": "2026-11-30"
    },
    {
      "name": "ローソン菊川高橋店",
      "name_kana": "ローソンキクガワタカハシテン",
      "business_type": "⑩ コンビニエンスストア",
      "address": "静岡県菊川市高橋２４８２－１",
      "lat": 34.67831,
      "lng": 138.10344,
      "geocoding_level": null,
      "phone": "0537-73-6639",
      "license_no": "",
      "license_date": null,
      "expire_date": null
    },
    {
      "name": "ローソン菊川高橋店",
      "name_kana": "ローソンキクガワタカハシテン",
      "business_type": "① 飲食店営業",
      "address": "静岡県菊川市高橋２４８２－１",
      "lat": 34.67831,
      "lng": 138.10344,
      "geocoding_level": null,
      "phone": "0537-73-6639",
      "license_no": "S00584080525",
      "license_date": "2021-11-30",
      "expire_date": "2026-11-30"
    },
    {
      "name": "ジャンボエンチョー菊川店",
      "name_kana": "ジャンボエンチョーキクガワテン",
      "business_type": "⑧ 米穀類販売業",
      "address": "静岡県菊川市土橋306",
      "lat": 34.729001,
      "lng": 138.090115,
      "geocoding_level": null,
      "phone": "",
      "license_no": "",
      "license_date": null,
      "expire_date": null
    },
    {
      "name": "ＮＰＯ法人　菊川まちいき",
      "name_kana": "エヌピーオーホウジンキクガワマチイキ",
      "business_type": "① 飲食店営業",
      "address": "静岡県菊川市県保健所管内一円県保健所管内一円",
      "lat": 34.756141,
      "lng": 138.086104,
      "geocoding_level": null,
      "phone": "090-1099-6540",
      "license_no": "S69201600237",
      "license_date": "2021-11-30",
      "expire_date": "2026-11-30"
    },
    {
      "name": "岩沢園製茶",
      "name_kana": "イワサワエンセイチャ",
      "business_type": "⑦ 野菜果物販売業",
      "address": "静岡県菊川市倉沢58",
      "lat": 34.785885,
      "lng": 138.125393,
      "geocoding_level": null,
      "phone": "0537361013",
      "license_no": "",
      "license_date": null,
      "expire_date": null
    },
    {
      "name": "岩沢園製茶",
      "name_kana": "イワサワエンセイチャ",
      "business_type": "⑧ 米穀類販売業",
      "address": "静岡県菊川市倉沢58",
      "lat": 34.785885,
      "lng": 138.125393,
      "geocoding_level": null,
      "phone": "0537361013",
      "license_no": "",
      "license_date": null,
      "expire_date": null
    },
    {
      "name": "岩沢園製茶",
      "name_kana": "イワサワエンセイチャ",
      "business_type": "㉑ 製茶業",
      "address": "静岡県菊川市倉沢58",
      "lat": 34.785885,
      "lng": 138.125393,
      "geocoding_level": null,
      "phone": "0537361013",
      "license_no": "",
      "license_date": null,
      "expire_date": null
    },
    {
      "name": "ファミリーマート小笠赤土店",
      "name_kana": "ファミリーマートオガサアカツチテン",
      "business_type": "⑩ コンビニエンスストア",
      "address": "静岡県菊川市赤土1170-4",
      "lat": 34.69055,
      "lng": 138.095797,
      "geocoding_level": null,
      "phone": "0537750666",
      "license_no": "",
      "license_date": null,
      "expire_date": null
    },
    {
      "name": "ファミリーマート小笠赤土店",
      "name_kana": "ファミリーマートオガサアカツチテン",
      "business_type": "① 飲食店営業",
      "address": "静岡県菊川市赤土１１７０－４",
      "lat": 34.69055,
      "lng": 138.095797,
      "geocoding_level": null,
      "phone": "0537-75-0666",
      "license_no": "S66200400213",
      "license_date": "2024-11-05",
      "expire_date": "2029-11-30"
    },
    {
      "name": "株式会社服部蒟蒻",
      "name_kana": "カブシキガイシャハットリコンニャク",
      "business_type": "㉔ その他の食料品製造・加工業",
      "address": "静岡県菊川市潮海寺2770-1",
      "lat": 34.768294,
      "lng": 138.092273,
      "geocoding_level": null,
      "phone": "0537353329",
      "license_no": "",
      "license_date": null,
      "expire_date": null
    },
    {
      "name": "株式会社服部蒟蒻",
      "name_kana": "カブシキガイシャハットリコンニャク",
      "business_type": "㉚ 密封包装食品製造業",
      "address": "静岡県菊川市潮海寺2770-１",
      "lat": 34.768294,
      "lng": 138.092273,
      "geocoding_level": null,
      "phone": "0537-35-3329",
      "license_no": "S76202500216",
      "license_date": "2025-09-17",
      "expire_date": "2030-11-30"
    },
    {
      "name": "有限会社丸正渡辺製茶工場",
      "name_kana": "ユウゲンガイシャマルショウワタナベセイチャコウジョウ",
      "business_type": "㉑ 製茶業",
      "address": "静岡県菊川市棚草１１２９－１",
      "lat": 34.705142,
      "lng": 138.101094,
      "geocoding_level": null,
      "phone": "0537-73-2262",
      "license_no": "",
      "license_date": null,
      "expire_date": null
    },
    {
      "name": "有限会社八木製茶",
      "name_kana": "ユウゲンガイシャヤギセイチャ",
      "business_type": "㉑ 製茶業",
      "address": "静岡県菊川市加茂1047-1",
      "lat": 34.742649,
      "lng": 138.076438,
      "geocoding_level": null,
      "phone": "",
      "license_no": "",
      "license_date": null,
      "expire_date": null
    },
    {
      "name": "ヤマニ新田園",
      "name_kana": "ヤマニニッタエン",
      "business_type": "㉑ 製茶業",
      "address": "静岡県菊川市潮海寺５７５",
      "lat": 34.769287,
      "lng": 138.093785,
      "geocoding_level": null,
      "phone": "0537-35-4720",
      "license_no": "",
      "license_date": null,
      "expire_date": null
    },