{
  "meta": {
    "updated": 1783568789,
    "sources": [
      {
        "source": "厚生労働省 食品衛生申請等システム（オープンデータ）",
        "license": "公共データ利用規約（第1.0版, PDL1.0）"
      }
    ]
  },
  "data": [
    {
      "name": "Ｖ・drug　大塩店",
      "name_kana": "ブイ・ドラッグ　オオシオテン",
      "business_type": "⑪ 百貨店、総合スーパー",
      "address": "兵庫県姫路市大塩町宮前4",
      "lat": 34.777686,
      "lng": 134.758654,
      "geocoding_level": null,
      "phone": "079-280-8612",
      "license_no": "",
      "license_date": null,
      "expire_date": null
    },
    {
      "name": "ダイセル網干売店入口",
      "name_kana": "ダイセルアボシバイテンイリグチ",
      "business_type": "③ 乳類販売業",
      "address": "兵庫県姫路市網干区新在家1239",
      "lat": 34.780389,
      "lng": 134.594771,
      "geocoding_level": null,
      "phone": "",
      "license_no": "",
      "license_date": null,
      "expire_date": null
    },
    {
      "name": "株式会社九州屋　山陽姫路店",
      "name_kana": "カブシキガイシャキュウシュウヤ　サンヨウヒメジテン",
      "business_type": "⑦ 野菜果物販売業",
      "address": "兵庫県姫路市南町1 山陽百貨店　B1F",
      "lat": 34.828028,
      "lng": 134.689452,
      "geocoding_level": null,
      "phone": "079-223-5374",
      "license_no": "",
      "license_date": null,
      "expire_date": null
    },
    {
      "name": "株式会社九州屋　山陽姫路ギフト店",
      "name_kana": "カブシキガイシャキュウシュウヤ　サンヨウヒメジギフトテン",
      "business_type": "⑦ 野菜果物販売業",
      "address": "兵庫県姫路市南町1 山陽百貨店　B1F",
      "lat": 34.828658,
      "lng": 134.68975,
      "geocoding_level": null,
      "phone": "079-223-4889",
      "license_no": "",
      "license_date": null,
      "expire_date": null
    },
    {
      "name": "グランフィット姫路",
      "name_kana": "グランフィットヒメジ",
      "business_type": "⑫ 自動販売機による販売業（コップ式自動販売機（自動洗浄・屋内設置）及び営業許可の対象となる自動販売機を除く）",
      "address": "兵庫県姫路市南駅前町125 ビエラ姫路",
      "lat": 34.826084,
      "lng": 134.690575,
      "geocoding_level": null,
      "phone": "",
      "license_no": "",
      "license_date": null,
      "expire_date": null
    },
    {
      "name": "スポーツクラブルネサンス姫路",
      "name_kana": "スポーツクラブルネサンスヒメジ",
      "business_type": "⑤ コップ式自動販売機（自動洗浄・屋内設置）",
      "address": "兵庫県姫路市東郷町１４５４－３ リオス4F",
      "lat": 34.827164,
      "lng": 134.715272,
      "geocoding_level": null,
      "phone": "079-284-4188",
      "license_no": "",
      "license_date": null,
      "expire_date": null
    },
    {
      "name": "ハイパーフィット姫路今宿",
      "name_kana": "ハイパーフィットヒメジイマジュク",
      "business_type": "⑫ 自動販売機による販売業（コップ式自動販売機（自動洗浄・屋内設置）及び営業許可の対象となる自動販売機を除く）",
      "address": "兵庫県姫路市北今宿１丁目2-11",
      "lat": 34.842751,
      "lng": 134.669859,
      "geocoding_level": null,
      "phone": "",
      "license_no": "",
      "license_date": null,
      "expire_date": null
    },
    {
      "name": "ハイパーフィット姫路東山",
      "name_kana": "ハイパーフィットヒメジヒガシヤマ",
      "business_type": "⑫ 自動販売機による販売業（コップ式自動販売機（自動洗浄・屋内設置）及び営業許可の対象となる自動販売機を除く）",
      "address": "兵庫県姫路市東山25番地2",
      "lat": 34.791913,
      "lng": 134.718406,
      "geocoding_level": null,
      "phone": "",
      "license_no": "",
      "license_date": null,
      "expire_date": null
    },
    {
      "name": "ドン・キホーテ姫路広畑",
      "name_kana": "ドン・キホーテヒメジヒロハタ",
      "business_type": "⑤ コップ式自動販売機（自動洗浄・屋内設置）",
      "address": "兵庫県姫路市広畑区夢前町1丁目1-1",
      "lat": 34.796725,
      "lng": 134.63692,
      "geocoding_level": null,
      "phone": "",
      "license_no": "",
      "license_date": null,
      "expire_date": null
    },
    {
      "name": "朝日スポーツクラブ　BIG-S姫路",
      "name_kana": "アサヒスーポーツクラブ　ビックエスヒメジ",
      "business_type": "⑫ 自動販売機による販売業（コップ式自動販売機（自動洗浄・屋内設置）及び営業許可の対象となる自動販売機を除く）",
      "address": "兵庫県姫路市大津区大津町3-3-1",
      "lat": 34.805442,
      "lng": 134.608074,
      "geocoding_level": null,
      "phone": "079-238-5502",
      "license_no": "",
      "license_date": null,
      "expire_date": null
    },
    {
      "name": "北野エース　ピオレ姫路店",
      "name_kana": "キタノエース　ピオレヒメジテン",
      "business_type": "⑬ その他の食料・飲料販売業",
      "address": "兵庫県姫路市駅前町188-1 ピオレ1地下1階",
      "lat": 34.827331,
      "lng": 134.691047,
      "geocoding_level": null,
      "phone": "0792230701",
      "license_no": "",
      "license_date": null,
      "expire_date": null
    },
    {
      "name": "成田珈琲株式会社",
      "name_kana": "ナリタコーヒーカブシキガイシャ",
      "business_type": "⑯ コーヒー製造・加工業（飲料の製造を除く。）",
      "address": "兵庫県姫路市北条口５丁目３番地",
      "lat": 34.830802,
      "lng": 134.700907,
      "geocoding_level": null,
      "phone": "",
      "license_no": "",
      "license_date": null,
      "expire_date": null
    },
    {
      "name": "スーパードラッグひまわり香寺店",
      "name_kana": "スーパードラッグヒマワリコウデラテン",
      "business_type": "⑬ その他の食料・飲料販売業",
      "address": "兵庫県姫路市香寺町中仁野301-1",
      "lat": 34.909025,
      "lng": 134.738802,
      "geocoding_level": null,
      "phone": "079-280-6954",
      "license_no": "",
      "license_date": null,
      "expire_date": null
    },
    {
      "name": "スーパードラッグひまわり三条店",
      "name_kana": "スーパードラッグヒマワリサンジョウテン",
      "business_type": "⑬ その他の食料・飲料販売業",
      "address": "兵庫県姫路市三条町１丁目24番",
      "lat": 34.810846,
      "lng": 134.686824,
      "geocoding_level": null,
      "phone": "079-222-6555",
      "license_no": "",
      "license_date": null,
      "expire_date": null
    },
    {
      "name": "スーパードラッグひまわり西今宿店",
      "name_kana": "スーパードラッグヒマワリニシイマジュクテン",
      "business_type": "⑧ 米穀類販売業",
      "address": "兵庫県姫路市西今宿8丁目6-38",
      "lat": 34.847602,
      "lng": 134.664398,
      "geocoding_level": null,
      "phone": "079-299-2038",
      "license_no": "",
      "license_date": null,
      "expire_date": null
    },
    {
      "name": "スーパードラッグひまわり今宿店",
      "name_kana": "スーパードラッグヒマワリイマジュクテン",
      "business_type": "⑬ その他の食料・飲料販売業",
      "address": "兵庫県姫路市神子岡前1丁目9‐19",
      "lat": 34.837649,
      "lng": 134.670465,
      "geocoding_level": null,
      "phone": "079-299-5711",
      "license_no": "",
      "license_date": null,
      "expire_date": null
    },
    {
      "name": "スーパードラッグひまわり材木町店",
      "name_kana": "スーパードラッグヒマワリザイモクマチテン",
      "business_type": "⑬ その他の食料・飲料販売業",
      "address": "兵庫県姫路市材木町35番6",
      "lat": 34.837849,
      "lng": 134.686587,
      "geocoding_level": null,
      "phone": "079-290-5655",
      "license_no": "",
      "license_date": null,
      "expire_date": null
    },
    {
      "name": "くすりのレデイ　城北新町店",
      "name_kana": "クスリノレデイ　ジョウホクシンマチテン",
      "business_type": "⑬ その他の食料・飲料販売業",
      "address": "兵庫県姫路市城北新町一丁目１０番３号",
      "lat": 34.853614,
      "lng": 134.697149,
      "geocoding_level": null,
      "phone": "079-280-7030",
      "license_no": "",
      "license_date": null,
      "expire_date": null
    },
    {
      "name": "くすりのレデイ　広畑店",
      "name_kana": "クスリノレデイ　ヒロハタテン",
      "business_type": "⑬ その他の食料・飲料販売業",
      "address": "兵庫県姫路市広畑区才739番地",
      "lat": 34.815417,
      "lng": 134.68555,
      "geocoding_level": null,
      "phone": "079-263-8070",
      "license_no": "",
      "license_date": null,
      "expire_date": null
    },
    {
      "name": "くすりのレデイ 網干店",
      "name_kana": "クスリノレデイ アボシテン",
      "business_type": "⑬ その他の食料・飲料販売業",
      "address": "兵庫県姫路市網干区高田195番地1",
      "lat": 34.811315,
      "lng": 134.581953,
      "geocoding_level": null,
      "phone": "079-240-5017",
      "license_no": "",
      "license_date": null,
      "expire_date": null
    },
    {
      "name": "くすりのレデイ 書写店",
      "name_kana": "クスリノレデイ ショシャテン",
      "business_type": "⑬ その他の食料・飲料販売業",
      "address": "兵庫県姫路市書写1019番地615",
      "lat": 34.866612,
      "lng": 134.663356,
      "geocoding_level": null,
      "phone": "079-290-5671",
      "license_no": "",
      "license_date": null,
      "expire_date": null
    },
    {
      "name": "カルディコーヒーファーム　イオンモール姫路大津店",
      "name_kana": "カルディコーヒーファーム　イオンモールヒメジオオツテン",
      "business_type": "⑬ その他の食料・飲料販売業",
      "address": "兵庫県姫路市大津区大津町2丁目5 イオンモール姫路大津 1F",
      "lat": 34.806557,
      "lng": 134.606672,
      "geocoding_level": null,
      "phone": "079-230-6907",
      "license_no": "",
      "license_date": null,
      "expire_date": null
    },
    {
      "name": "カルディコーヒーファーム　グランフェスタ姫路店",
      "name_kana": "カルディコーヒーファーム　グランフェスタヒメジテン",
      "business_type": "⑬ その他の食料・飲料販売業",
      "address": "兵庫県姫路市駅前町188-1 グランフェスタ2番街",
      "lat": 34.827331,
      "lng": 134.691047,
      "geocoding_level": null,
      "phone": "079-287-1131",
      "license_no": "",
      "license_date": null,
      "expire_date": null
    },
    {
      "name": "菅原乳業株式会社",
      "name_kana": "スガハラニュウギョウカブシキガイシャ",
      "business_type": "③ 乳類販売業",
      "address": "兵庫県姫路市宮西町4丁目22",
      "lat": 34.826565,
      "lng": 134.704185,
      "geocoding_level": null,
      "phone": "",
      "license_no": "",
      "license_date": null,
      "expire_date": null
    },
    {
      "name": "山陽百貨店西館地下従業員休憩所",
      "name_kana": "サンヨウヒャッカテンニシカンチカジュウギョウインキュウケイショ",
      "business_type": "③ 乳類販売業",
      "address": "兵庫県姫路市南町1",
      "lat": 34.828028,
      "lng": 134.689452,
      "geocoding_level": null,
      "phone": "",
      "license_no": "",
      "license_date": null,
      "expire_date": null
    },
    {
      "name": "介護付有料老人ホーム東姫路",
      "name_kana": "カイゴツキユウリョウロウジンホームヒガシヒメジ",
      "business_type": "③ 乳類販売業",
      "address": "兵庫県姫路市花田町一本松345-1",
      "lat": 34.825666,
      "lng": 134.721619,
      "geocoding_level": null,
      "phone": "0792510025",
      "license_no": "",
      "license_date": null,
      "expire_date": null
    },
    {
      "name": "ダイソー　網干店",
      "name_kana": "ダイソー　アボシテン",
      "business_type": "⑬ その他の食料・飲料販売業",
      "address": "兵庫県姫路市網干区北新在家２０５",
      "lat": 34.790037,
      "lng": 134.591737,
      "geocoding_level": null,
      "phone": "",
      "license_no": "",
      "license_date": null,
      "expire_date": null
    },
    {
      "name": "ダイソー　マルナカ広畑店",
      "name_kana": "ダイソー　マルナカヒロハタテン",
      "business_type": "⑬ その他の食料・飲料販売業",
      "address": "兵庫県姫路市広畑区吾妻町３丁目２９－２ マルナカ広畑店内２階",
      "lat": 34.79532,
      "lng": 134.619922,
      "geocoding_level": null,
      "phone": "",
      "license_no": "",
      "license_date": null,
      "expire_date": null
    },
    {
      "name": "ダイソー　ひめじ飾西店",
      "name_kana": "ダイソー　ヒメジシキサイテン",
      "business_type": "⑬ その他の食料・飲料販売業",
      "address": "兵庫県姫路市飾西８４－１",
      "lat": 34.863224,
      "lng": 134.637567,
      "geocoding_level": null,
      "phone": "",
      "license_no": "",
      "license_date": null,
      "expire_date": null
    },
    {
      "name": "ダイソー　ひめじ岡田店",
      "name_kana": "ダイソー　ヒメジオカダテン",
      "business_type": "⑬ その他の食料・飲料販売業",
      "address": "兵庫県姫路市岡田３６０－１",
      "lat": 34.82527,
      "lng": 134.664301,
      "geocoding_level": null,
      "phone": "",
      "license_no": "",
      "license_date": null,
      "expire_date": null
    },
    {
      "name": "ダイソー　エディオン姫路花田店",
      "name_kana": "ダイソー　エディオンヒメジハナダテン",
      "business_type": "⑬ その他の食料・飲料販売業",
      "address": "兵庫県姫路市飾東町庄字宮ノ前２７３番地２階",
      "lat": 34.815417,
      "lng": 134.68555,
      "geocoding_level": null,
      "phone": "",
      "license_no": "",
      "license_date": null,
      "expire_date": null
    },
    {
      "name": "ダイソー　ＭＥＧＡドン・キホーテ姫路広畑店",
      "name_kana": "ダイソー　メガドンキホーテヒメジヒロハタテン",
      "business_type": "⑬ その他の食料・飲料販売業",
      "address": "兵庫県姫路市広畑区夢前町１－１",
      "lat": 34.796725,
      "lng": 134.63692,
      "geocoding_level": null,
      "phone": "",
      "license_no": "",
      "license_date": null,
      "expire_date": null
    },
    {
      "name": "ダイソー　ゆめタウン姫路店",
      "name_kana": "ダイソー　ユメタウンヒメジテン",
      "business_type": "⑬ その他の食料・飲料販売業",
      "address": "兵庫県姫路市神子岡前３丁目１２－１７ ゆめタウン姫路４階",
      "lat": 34.840724,
      "lng": 134.669658,
      "geocoding_level": null,
      "phone": "",
      "license_no": "",
      "license_date": null,
      "expire_date": null
    },
    {
      "name": "ダイソー　姫路城北店",
      "name_kana": "ダイソー　ヒメジジョウホクテン",
      "business_type": "⑬ その他の食料・飲料販売業",
      "address": "兵庫県姫路市城北本町１８－１",
      "lat": 34.852337,
      "lng": 134.697313,
      "geocoding_level": null,
      "phone": "",
      "license_no": "",
      "license_date": null,
      "expire_date": null
    },
    {
      "name": "ダイソー　ボンマルシェ姫路店",
      "name_kana": "ダイソー　ボンマルシェヒメジテン",
      "business_type": "⑬ その他の食料・飲料販売業",
      "address": "兵庫県姫路市南町31 ボンマルシェ姫路店２階",
      "lat": 34.829135,
      "lng": 134.689649,
      "geocoding_level": null,
      "phone": "",
      "license_no": "",
      "license_date": null,
      "expire_date": null
    },
    {
      "name": "ダイソー　イオンタウン姫路別所店",
      "name_kana": "ダイソー　イオンタウンヒメジベッショテン",
      "business_type": "⑬ その他の食料・飲料販売業",
      "address": "兵庫県姫路市別所町別所２丁目６６ イオンタウン姫路別所内",
      "lat": 34.810186,
      "lng": 134.74915,
      "geocoding_level": null,
      "phone": "",
      "license_no": "",
      "license_date": null,
      "expire_date": null
    },
    {
      "name": "ダイソー　姫路みゆき通り店",
      "name_kana": "ダイソー　ヒメジミユキドオリテン",
      "business_type": "⑬ その他の食料・飲料販売業",
      "address": "兵庫県姫路市亀井町５２番地 外川ビル",
      "lat": 34.829992,
      "lng": 134.691732,
      "geocoding_level": null,
      "phone": "",
      "license_no": "",
      "license_date": null,
      "expire_date": null
    },
    {
      "name": "ダイソー　姫路白浜店",
      "name_kana": "ダイソー　ヒメジシラハマテン",
      "business_type": "⑬ その他の食料・飲料販売業",
      "address": "兵庫県姫路市白浜町乙３７２－１",
      "lat": 34.78586,
      "lng": 134.710216,
      "geocoding_level": null,
      "phone": "",
      "license_no": "",
      "license_date": null,
      "expire_date": null
    },
    {
      "name": "ダイソー　姫路下手野店",
      "name_kana": "ダイソー　ヒメジシモテノテン",
      "business_type": "⑬ その他の食料・飲料販売業",
      "address": "兵庫県姫路市下手野４丁目５８８－８",
      "lat": 34.851489,
      "lng": 134.649652,
      "geocoding_level": null,
      "phone": "",
      "license_no": "",
      "license_date": null,
      "expire_date": null
    },
    {
      "name": "ダイソー　イオンタウン姫路店",
      "name_kana": "ダイソー　イオンタウンヒメジテン",
      "business_type": "⑬ その他の食料・飲料販売業",
      "address": "兵庫県姫路市延末４３５－３ イオンタウン姫路ＳＣ　２階",
      "lat": 34.825764,
      "lng": 134.68238,
      "geocoding_level": null,
      "phone": "",
      "license_no": "",
      "license_date": null,
      "expire_date": null
    },
    {
      "name": "ダイソー　イオンモール姫路リバーシティー店",
      "name_kana": "ダイソー　イオンモールヒメジリバーシティーテン",
      "business_type": "⑬ その他の食料・飲料販売業",
      "address": "兵庫県姫路市飾磨区細江２５６０番地 イオンモール姫路リバーシティー３階",
      "lat": 34.798119,
      "lng": 134.668631,
      "geocoding_level": null,
      "phone": "",
      "license_no": "",
      "license_date": null,
      "expire_date": null
    },
    {
      "name": "ダイソー　ヤマダストアー新青山店",
      "name_kana": "ダイソー　ヤマダストアーシンアオヤマテン",
      "business_type": "⑬ その他の食料・飲料販売業",
      "address": "兵庫県姫路市広畑区蒲田４",
      "lat": 34.827668,
      "lng": 134.641326,
      "geocoding_level": null,
      "phone": "",
      "license_no": "",
      "license_date": null,
      "expire_date": null
    },
    {
      "name": "平野屋米穀店",
      "name_kana": "ヒラノヤベイコクテン",
      "business_type": "⑧ 米穀類販売業",
      "address": "兵庫県姫路市大黒壱丁町７１",
      "lat": 34.834474,
      "lng": 134.700118,
      "geocoding_level": null,
      "phone": "0792221439",
      "license_no": "",
      "license_date": null,
      "expire_date": null
    },
    {
      "name": "白バラ牛乳　姫路西販売所",
      "name_kana": "シロバラギュウニュウヒメジニシハンバイショ",
      "business_type": "③ 乳類販売業",
      "address": "兵庫県姫路市広畑区小松町4-8",
      "lat": 34.804336,
      "lng": 134.617264,
      "geocoding_level": null,
      "phone": "",
      "license_no": "",
      "license_date": null,
      "expire_date": null
    },
    {
      "name": "(株)後藤孵卵場　関西たまごセンター",
      "name_kana": "カブ　ゴトウフランジョウ　カンサイタマゴセンター",
      "business_type": "㉓ 卵選別包装業",
      "address": "兵庫県姫路市花田町勅旨36-1",
      "lat": 34.833589,
      "lng": 134.720555,
      "geocoding_level": null,
      "phone": "079-253-1071",
      "license_no": "",
      "license_date": null,
      "expire_date": null
    },
    {
      "name": "コーナンホームストック夢前店",
      "name_kana": "コーナンホームストックユメサキテン",
      "business_type": "⑪ 百貨店、総合スーパー",
      "address": "兵庫県姫路市夢前町菅生澗457番地",
      "lat": 34.910513,
      "lng": 134.640476,
      "geocoding_level": null,
      "phone": "079-337-2466",
      "license_no": "",
      "license_date": null,
      "expire_date": null
    },
    {
      "name": "コーナン今宿店",
      "name_kana": "コーナンイマジュクテン",
      "business_type": "⑪ 百貨店、総合スーパー",
      "address": "兵庫県姫路市東今宿1丁目2-1",
      "lat": 34.836884,
      "lng": 134.668512,
      "geocoding_level": null,
      "phone": "079-295-8957",
      "license_no": "",
      "license_date": null,
      "expire_date": null
    },
    {
      "name": "広畑あおぞら保育園",
      "name_kana": "ヒロハタアオゾラホイクエン",
      "business_type": "㉖ 集団給食施設",
      "address": "兵庫県姫路市広畑区高浜町3丁目82番地1",
      "lat": 34.797942,
      "lng": 134.621848,
      "geocoding_level": null,
      "phone": "079-240-8061",
      "license_no": "",
      "license_date": null,
      "expire_date": null
    },
    {
      "name": "ヘラマンタイトン株式会社　1F　第一工場",
      "name_kana": "ヘラマンタイトンカブシキガイシャイチエフダイイチコウジョウ",
      "business_type": "⑤ コップ式自動販売機（自動洗浄・屋内設置）",
      "address": "兵庫県姫路市安富町安志766",
      "lat": 34.989674,
      "lng": 134.584977,
      "geocoding_level": null,
      "phone": "",
      "license_no": "",
      "license_date": null,
      "expire_date": null
    },
    {
      "name": "ヘラマンタイトン株式会社　1F　第二工場",
      "name_kana": "ヘラマンタイトンカブシキガイシャイチカイダイニコウジョウ",
      "business_type": "⑤ コップ式自動販売機（自動洗浄・屋内設置）",
      "address": "兵庫県姫路市安富町安志766",
      "lat": 34.989674,
      "lng": 134.584977,
      "geocoding_level": null,
      "phone": "",
      "license_no": "",
      "license_date": null,
      "expire_date": null
    },
    {
      "name": "ヘラマンタイトン株式会社　2F　食堂",
      "name_kana": "ヘラマンタイトンカブシキガイシャニカイショクドウ",
      "business_type": "⑤ コップ式自動販売機（自動洗浄・屋内設置）",
      "address": "兵庫県姫路市安富町安志766",
      "lat": 34.989674,
      "lng": 134.584977,
      "geocoding_level": null,
      "phone": "",
      "license_no": "",
      "license_date": null,
      "expire_date": null
    },
    {
      "name": "快活CLUB　FiT24　姫路北条店",
      "name_kana": "カイカツクラブフィットヒメジホウジョウ",
      "business_type": "⑫ 自動販売機による販売業（コップ式自動販売機（自動洗浄・屋内設置）及び営業許可の対象となる自動販売機を除く）",
      "address": "兵庫県姫路市北条宮の町403",
      "lat": 34.82017,
      "lng": 134.692749,
      "geocoding_level": null,
      "phone": "",
      "license_no": "",
      "license_date": null,
      "expire_date": null
    },
    {
      "name": "FIT PLACE 24 姫路今宿",
      "name_kana": "フィットプレイスニジュウヨンヒメジイマジュク",
      "business_type": "⑫ 自動販売機による販売業（コップ式自動販売機（自動洗浄・屋内設置）及び営業許可の対象となる自動販売機を除く）",
      "address": "兵庫県姫路市北今宿2丁目4-60",
      "lat": 34.844832,
      "lng": 134.670282,
      "geocoding_level": null,
      "phone": "",
      "license_no": "",
      "license_date": null,
      "expire_date": null
    },
    {
      "name": "FiT24姫路飾磨",
      "name_kana": "フィットニジュウヨンヒメジシカマ",
      "business_type": "⑫ 自動販売機による販売業（コップ式自動販売機（自動洗浄・屋内設置）及び営業許可の対象となる自動販売機を除く）",
      "address": "兵庫県姫路市飾磨区中島483",
      "lat": 34.793471,
      "lng": 134.67971,
      "geocoding_level": null,
      "phone": "",
      "license_no": "",
      "license_date": null,
      "expire_date": null
    },
    {
      "name": "ザグザグ姫路大津店",
      "name_kana": "ザグザグヒメジオオツテン",
      "business_type": "⑬ その他の食料・飲料販売業",
      "address": "兵庫県姫路市大津区恵美酒町2丁目113",
      "lat": 34.792449,
      "lng": 134.609596,
      "geocoding_level": null,
      "phone": "079-239-8666",
      "license_no": "",
      "license_date": null,
      "expire_date": null
    },
    {
      "name": "ザグザグ姫路新在家店",
      "name_kana": "ザグザグヒメジシンザイケテン",
      "business_type": "⑬ その他の食料・飲料販売業",
      "address": "兵庫県姫路市新在家中の町18番42号",
      "lat": 34.847501,
      "lng": 134.685505,
      "geocoding_level": null,
      "phone": "079-291-2539",
      "license_no": "",
      "license_date": null,
      "expire_date": null
    },
    {
      "name": "ザグザグ姫路土山店",
      "name_kana": "ザグザグヒメジツチヤマテン",
      "business_type": "⑬ その他の食料・飲料販売業",
      "address": "兵庫県姫路市土山３丁目3番25号",
      "lat": 34.833775,
      "lng": 134.674356,
      "geocoding_level": null,
      "phone": "079-297-2539",
      "license_no": "",
      "license_date": null,
      "expire_date": null
    },
    {
      "name": "ザグザグ砥堀店",
      "name_kana": "ザグザグトホリテン",
      "business_type": "⑬ その他の食料・飲料販売業",
      "address": "兵庫県姫路市砥堀188番地",
      "lat": 34.868284,
      "lng": 134.728809,
      "geocoding_level": null,
      "phone": "",
      "license_no": "",
      "license_date": null,
      "expire_date": null
    },
    {
      "name": "セブンイレブン姫路上余部店",
      "name_kana": "セブンイレブンヒメジカミヨベテン",
      "business_type": "① 魚介類販売業（包装済みの魚介類のみの販売）",
      "address": "兵庫県姫路市余部区上余部658－1",
      "lat": 34.800766,
      "lng": 134.573655,
      "geocoding_level": null,
      "phone": "",
      "license_no": "",
      "license_date": null,
      "expire_date": null
    },
    {
      "name": "セブンイレブン姫路上余部店",
      "name_kana": "セブンイレブンヒメジカミヨベテン",
      "business_type": "② 食肉販売業（包装済みの食肉のみの販売）",
      "address": "兵庫県姫路市余部区上余部658－1",
      "lat": 34.800766,
      "lng": 134.573655,
      "geocoding_level": null,
      "phone": "",
      "license_no": "",
      "license_date": null,
      "expire_date": null
    },
    {
      "name": "セブンイレブン姫路上余部店",
      "name_kana": "セブンイレブンヒメジカミヨベテン",
      "business_type": "③ 乳類販売業",
      "address": "兵庫県姫路市余部区上余部658－1",
      "lat": 34.800766,
      "lng": 134.573655,
      "geocoding_level": null,
      "phone": "",
      "license_no": "",
      "license_date": null,
      "expire_date": null
    },
    {
      "name": "三菱電機　姫路第1工場1F東",
      "name_kana": "ミツビシデンキ　ヒメジダイイチコウジョウイッカイヒガシ",
      "business_type": "③ 乳類販売業",
      "address": "兵庫県姫路市千代田町840",
      "lat": 34.829849,
      "lng": 134.677582,
      "geocoding_level": null,
      "phone": "",
      "license_no": "",
      "license_date": null,
      "expire_date": null
    },
    {
      "name": "三菱電機　共研（１Ｆ）",
      "name_kana": "ミツビシデンキ　キョウケン　イッカイ",
      "business_type": "③ 乳類販売業",
      "address": "兵庫県姫路市土山１丁目１５",
      "lat": 34.830731,
      "lng": 134.675381,
      "geocoding_level": null,
      "phone": "",
      "license_no": "",
      "license_date": null,
      "expire_date": null
    },
    {
      "name": "メグミルク・白バラ牛乳　大塩販売所　伊藤牛乳店",
      "name_kana": "メグミルク・シロバラギュウニュウ　オオシオハンバイショ　イトウギュウニュウテン",
      "business_type": "③ 乳類販売業",
      "address": "兵庫県姫路市大塩町2206-45",
      "lat": 34.780695,
      "lng": 134.752419,
      "geocoding_level": null,
      "phone": "079-254-0410",
      "license_no": "",
      "license_date": null,
      "expire_date": null
    },
    {
      "name": "マエカワテイスト株式会社姫路工場",
      "name_kana": "マエカワテイストカブシキガイシャヒメジコウジョウ",
      "business_type": "⑯ 水産製品製造業",
      "address": "兵庫県姫路市土山6丁目4番1号",
      "lat": 34.833073,
      "lng": 134.665955,
      "geocoding_level": null,
      "phone": "0792963927",
      "license_no": "70076708",
      "license_date": "2024-05-27",
      "expire_date": "2030-05-31"
    },
    {
      "name": "マエカワテイスト株式会社姫路工場",
      "name_kana": "マエカワテイストカブシキガイシャヒメジコウジョウ",
      "business_type": "⑱ 調味料製造・加工業",
      "address": "兵庫県姫路市土山6丁目4番1号",
      "lat": 34.833062,
      "lng": 134.665952,
      "geocoding_level": null,
      "phone": "0792963927",
      "license_no": "",
      "license_date": null,
      "expire_date": null
    },
    {
      "name": "ローソン飾磨阿成店",
      "name_kana": "ローソンシカマアナセミセ",
      "business_type": "① 魚介類販売業（包装済みの魚介類のみの販売）",
      "address": "兵庫県姫路市飾磨区阿成植木835",
      "lat": 34.800889,
      "lng": 134.688681,
      "geocoding_level": null,
      "phone": "0792-31-5582",
      "license_no": "",
      "license_date": null,
      "expire_date": null
    },
    {
      "name": "ローソン飾磨阿成店",
      "name_kana": "ローソンシカマアナセミセ",
      "business_type": "② 食肉販売業（包装済みの食肉のみの販売）",
      "address": "兵庫県姫路市飾磨区阿成植木835",
      "lat": 34.800889,
      "lng": 134.688681,
      "geocoding_level": null,
      "phone": "0792-31-5582",
      "license_no": "",
      "license_date": null,
      "expire_date": null
    },
    {
      "name": "ローソン飾磨阿成店",
      "name_kana": "ローソンシカマアナセミセ",
      "business_type": "③ 乳類販売業",
      "address": "兵庫県姫路市飾磨区阿成植木835",
      "lat": 34.800889,
      "lng": 134.688681,
      "geocoding_level": null,
      "phone": "0792-31-5582",
      "license_no": "",
      "license_date": null,
      "expire_date": null
    },
    {
      "name": "ローソン飾磨阿成店",
      "name_kana": "ローソンシカマアナセミセ",
      "business_type": "⑩ コンビニエンスストア",
      "address": "兵庫県姫路市飾磨区阿成植木835",
      "lat": 34.800889,
      "lng": 134.688681,
      "geocoding_level": null,
      "phone": "0792-31-5582",
      "license_no": "",
      "license_date": null,
      "expire_date": null
    },
    {
      "name": "スターバックスコーヒーピオレ姫路1階店",
      "name_kana": "スターバックスコーヒーピオレヒメジイチカイテン",
      "business_type": "⑬ その他の食料・飲料販売業",
      "address": "兵庫県姫路市豆腐町222 ピオレ姫路２",
      "lat": 34.826608,
      "lng": 134.690249,
      "geocoding_level": null,
      "phone": "079-226-6505",
      "license_no": "",
      "license_date": null,
      "expire_date": null
    },
    {
      "name": "スターバックスコーヒー姫路飾磨店",
      "name_kana": "スターバックスコーヒーヒメジシカマテン",
      "business_type": "⑬ その他の食料・飲料販売業",
      "address": "兵庫県姫路市飾磨区恵美酒236",
      "lat": 34.803922,
      "lng": 134.671727,
      "geocoding_level": null,
      "phone": "079-243-2115",
      "license_no": "",
      "license_date": null,
      "expire_date": null
    },
    {
      "name": "スターバックスコーヒーイオン姫路大津店",
      "name_kana": "スターバックスコーヒーイオンヒメジオオツテン",
      "business_type": "⑬ その他の食料・飲料販売業",
      "address": "兵庫県姫路市大津区大津町2-5 イオン姫路大津ショッピングセンター　１F-137",
      "lat": 34.806492,
      "lng": 134.60651,
      "geocoding_level": null,
      "phone": "079-230-6912",
      "license_no": "",
      "license_date": null,
      "expire_date": null
    },
    {
      "name": "スターバックスコーヒーイオンモール姫路リバーシティー店",
      "name_kana": "スターバックスコーヒーイオンモールヒメジリバーシティーテン",
      "business_type": "⑬ その他の食料・飲料販売業",
      "address": "兵庫県姫路市飾磨区細江2560",
      "lat": 34.798119,
      "lng": 134.668631,
      "geocoding_level": null,
      "phone": "079-231-4311",
      "license_no": "",
      "license_date": null,
      "expire_date": null
    },
    {
      "name": "スターバックスコーヒー姫路南店",
      "name_kana": "スターバックスコーヒーヒメジミナミテン",
      "business_type": "⑬ その他の食料・飲料販売業",
      "address": "兵庫県姫路市飾磨区三宅3-3",
      "lat": 34.809547,
      "lng": 134.680926,
      "geocoding_level": null,
      "phone": "079-231-5900",
      "license_no": "",
      "license_date": null,
      "expire_date": null
    },
    {
      "name": "スターバックスコーヒーピオレ姫路店",
      "name_kana": "スターバックスコーヒーピオレヒメジテン",
      "business_type": "⑬ その他の食料・飲料販売業",
      "address": "兵庫県姫路市駅前町188-1 ピオレ姫路　４F",
      "lat": 34.827331,
      "lng": 134.691047,
      "geocoding_level": null,
      "phone": "079-223-4010",
      "license_no": "",
      "license_date": null,
      "expire_date": null
    },
    {
      "name": "スターバックスコーヒー  姫路市川橋通店",
      "name_kana": "スターバックスコーヒー  ヒメジイチカワバシドオリテン",
      "business_type": "⑬ その他の食料・飲料販売業",
      "address": "兵庫県姫路市市川橋通１丁目２０",
      "lat": 34.828127,
      "lng": 134.712099,
      "geocoding_level": null,
      "phone": "079-240-7747",
      "license_no": "",
      "license_date": null,
      "expire_date": null
    },
    {
      "name": "スターバックス ティー＆カフェ ピオレ姫路(地下1階)店",
      "name_kana": "スターバックスティーアンドカフェピオレヒメジチカイッカイテン",
      "business_type": "① 飲食店営業",
      "address": "兵庫県姫路市駅前町188-1 ピオレ姫路 ピオレ1 地下1階",
      "lat": 34.827331,
      "lng": 134.691047,
      "geocoding_level": null,
      "phone": "079-280-6270",
      "license_no": "70079045",
      "license_date": "2026-04-15",
      "expire_date": "2032-05-31"
    },
    {
      "name": "スターバックス ティー＆カフェ ピオレ姫路(地下1階)店",
      "name_kana": "スターバックスティーアンドカフェピオレヒメジチカイッカイテン",
      "business_type": "⑬ その他の食料・飲料販売業",
      "address": "兵庫県姫路市駅前町188-1 ピオレ姫路 ピオレ1 地下1階",
      "lat": 34.827331,
      "lng": 134.691047,
      "geocoding_level": null,
      "phone": "079-280-6270",
      "license_no": "",
      "license_date": null,
      "expire_date": null
    },
    {
      "name": "クスリキリン堂　姫路網干店",
      "name_kana": "クスリキリンドウ　ヒメジアボシテン",
      "business_type": "② 食肉販売業（包装済みの食肉のみの販売）",
      "address": "兵庫県姫路市網干区坂上29-1",
      "lat": 34.803213,
      "lng": 134.587441,
      "geocoding_level": null,
      "phone": "079-271-3255",
      "license_no": "",
      "license_date": null,
      "expire_date": null
    },
    {
      "name": "クスリキリン堂　姫路網干店",
      "name_kana": "クスリキリンドウ　ヒメジアボシテン",
      "business_type": "③ 乳類販売業",
      "address": "兵庫県姫路市網干区坂上29-1",
      "lat": 34.803213,
      "lng": 134.587441,
      "geocoding_level": null,
      "phone": "079-271-3255",
      "license_no": "",
      "license_date": null,
      "expire_date": null
    },
    {
      "name": "山陽姫路店　ＲＦ１",
      "name_kana": "サンヨウヒメジテン　アールエフワン",
      "business_type": "⑥ 弁当販売業",
      "address": "兵庫県姫路市南町1 山陽百貨店B1F",
      "lat": 34.828028,
      "lng": 134.689452,
      "geocoding_level": null,
      "phone": "0792235375",
      "license_no": "",
      "license_date": null,
      "expire_date": null
    },
    {
      "name": "山陽姫路店　ＲＦ１",
      "name_kana": "サンヨウヒメジテン　アールエフワン",
      "business_type": "① 飲食店営業",
      "address": "兵庫県姫路市南町１ 山陽百貨店　B1F",
      "lat": 34.828028,
      "lng": 134.689452,
      "geocoding_level": null,
      "phone": "0792-23-5375",
      "license_no": "70052438",
      "license_date": "2024-11-29",
      "expire_date": "2030-11-30"
    },
    {
      "name": "かっぱ寿司/ バンノウ水産 姫路野里店",
      "name_kana": "カッパズシヒメジノザトテンバンノウスイサンヒメジノザトテン",
      "business_type": "① 飲食店営業",
      "address": "兵庫県姫路市野里上野町2丁目3-18",
      "lat": 34.848269,
      "lng": 134.706484,
      "geocoding_level": null,
      "phone": "079-286-8141",
      "license_no": "70074968",
      "license_date": "2023-02-27",
      "expire_date": "2029-02-28"
    },
    {
      "name": "かっぱ寿司　姫路野里店",
      "name_kana": "カッパズシ　ヒメジノザトテン",
      "business_type": "⑬ その他の食料・飲料販売業",
      "address": "兵庫県姫路市野里上野町2丁目3-18",
      "lat": 34.848269,
      "lng": 134.706484,
      "geocoding_level": null,
      "phone": "079-286-8141",
      "license_no": "",
      "license_date": null,
      "expire_date": null
    },
    {
      "name": "山陽製粉株式会社本社工場",
      "name_kana": "サンヨウセイフンカブシキガイシャ ホンシャコウジョウ",
      "business_type": "⑳ 精穀・製粉業",
      "address": "兵庫県姫路市飾磨区細江字浜万才1296番地",
      "lat": 34.788754,
      "lng": 134.659531,
      "geocoding_level": null,
      "phone": "",
      "license_no": "",
      "license_date": null,
      "expire_date": null
    },
    {
      "name": "旬彩蔵　書写",
      "name_kana": "シュンサイグラショシャ",
      "business_type": "① 魚介類販売業（包装済みの魚介類のみの販売）",
      "address": "兵庫県姫路市書写875-8",
      "lat": 34.868904,
      "lng": 134.659725,
      "geocoding_level": null,
      "phone": "",
      "license_no": "",
      "license_date": null,
      "expire_date": null
    },
    {
      "name": "旬彩蔵　書写",
      "name_kana": "シュンサイグラショシャ",
      "business_type": "② 食肉販売業（包装済みの食肉のみの販売）",
      "address": "兵庫県姫路市書写875-8",
      "lat": 34.868904,
      "lng": 134.659725,
      "geocoding_level": null,
      "phone": "",
      "license_no": "",
      "license_date": null,
      "expire_date": null
    },
    {
      "name": "旬彩蔵　書写",
      "name_kana": "シュンサイグラショシャ",
      "business_type": "③ 乳類販売業",
      "address": "兵庫県姫路市書写875-8",
      "lat": 34.868904,
      "lng": 134.659725,
      "geocoding_level": null,
      "phone": "",
      "license_no": "",
      "license_date": null,
      "expire_date": null
    },
    {
      "name": "旬彩蔵　書写",
      "name_kana": "シュンサイグラショシャ",
      "business_type": "⑦ 野菜果物販売業",
      "address": "兵庫県姫路市書写875-8",
      "lat": 34.868904,
      "lng": 134.659725,
      "geocoding_level": null,
      "phone": "",
      "license_no": "",
      "license_date": null,
      "expire_date": null
    },
    {
      "name": "旬彩蔵飾磨",
      "name_kana": "シュンサイグラシカマ",
      "business_type": "⑬ その他の食料・飲料販売業",
      "address": "兵庫県姫路市飾磨区細江2706",
      "lat": 34.788754,
      "lng": 134.659531,
      "geocoding_level": null,
      "phone": "",
      "license_no": "",
      "license_date": null,
      "expire_date": null
    },
    {
      "name": "ヤマダストアー青山店",
      "name_kana": "ヤマダストアーアオヤマテン",
      "business_type": "⑫ 自動販売機による販売業（コップ式自動販売機（自動洗浄・屋内設置）及び営業許可の対象となる自動販売機を除く）",
      "address": "兵庫県姫路市広畑区西蒲田4番",
      "lat": 34.839263,
      "lng": 134.640371,
      "geocoding_level": null,
      "phone": "",
      "license_no": "",
      "license_date": null,
      "expire_date": null
    },
    {
      "name": "ヤマダストアー花田店",
      "name_kana": "ヤマダストアーハナダテン",
      "business_type": "⑫ 自動販売機による販売業（コップ式自動販売機（自動洗浄・屋内設置）及び営業許可の対象となる自動販売機を除く）",
      "address": "兵庫県姫路市花田町小川64-1",
      "lat": 34.840796,
      "lng": 134.721727,
      "geocoding_level": null,
      "phone": "",
      "license_no": "",
      "license_date": null,
      "expire_date": null
    },
    {
      "name": "ヤマダストアー新辻井店",
      "name_kana": "ヤマダストアーシンツジイテン",
      "business_type": "⑫ 自動販売機による販売業（コップ式自動販売機（自動洗浄・屋内設置）及び営業許可の対象となる自動販売機を除く）",
      "address": "兵庫県姫路市東辻井3丁目159-7",
      "lat": 34.84763,
      "lng": 134.678191,
      "geocoding_level": null,
      "phone": "",
      "license_no": "",
      "license_date": null,
      "expire_date": null
    },
    {
      "name": "ヤマダストアー網干店",
      "name_kana": "ヤマダストアーアボシテン",
      "business_type": "⑫ 自動販売機による販売業（コップ式自動販売機（自動洗浄・屋内設置）及び営業許可の対象となる自動販売機を除く）",
      "address": "兵庫県姫路市余部区下余部382-1",
      "lat": 34.792387,
      "lng": 134.578965,
      "geocoding_level": null,
      "phone": "",
      "license_no": "",
      "license_date": null,
      "expire_date": null
    },
    {
      "name": "有限会社藤橋家姫路夢前農園",
      "name_kana": "ユウゲンガイシャフジハシヤヒメジユメサキノウエン",
      "business_type": "㉓ 卵選別包装業",
      "address": "兵庫県姫路市相野107番地1",
      "lat": 34.864057,
      "lng": 134.607352,
      "geocoding_level": null,
      "phone": "079-268-9077",
      "license_no": "",
      "license_date": null,
      "expire_date": null
    },
    {
      "name": "株式会社寺尾製粉所　大塩工場",
      "name_kana": "テラオセイフンショ　オオシオコウジョウ",
      "business_type": "⑳ 精穀・製粉業",
      "address": "兵庫県姫路市大塩町818-2",
      "lat": 34.780457,
      "lng": 134.763429,
      "geocoding_level": null,
      "phone": "",
      "license_no": "",
      "license_date": null,
      "expire_date": null
    },
    {
      "name": "株式会社寺尾製粉所　大塩工場",
      "name_kana": "テラオセイフンショ　オオシオコウジョウ",
      "business_type": "㉑ 製茶業",
      "address": "兵庫県姫路市大塩町818-2",
      "lat": 34.780457,
      "lng": 134.763429,
      "geocoding_level": null,
      "phone": "",
      "license_no": "",
      "license_date": null,
      "expire_date": null
    },
    {
      "name": "株式会社寺尾製粉所　香寺工場",
      "name_kana": "テラオセイフンショ　コウデラコウジョウ",
      "business_type": "⑳ 精穀・製粉業",
      "address": "兵庫県姫路市香寺町須加院163-1",
      "lat": 34.894826,
      "lng": 134.727657,
      "geocoding_level": null,
      "phone": "",
      "license_no": "",
      "license_date": null,
      "expire_date": null
    },
    {
      "name": "サンドラッグ姫路みゆき通り店",
      "name_kana": "サンドラッグヒメジミユキドオリテン",
      "business_type": "⑪ 百貨店、総合スーパー",
      "address": "兵庫県姫路市亀井町62",
      "lat": 34.830157,
      "lng": 134.691746,
      "geocoding_level": null,
      "phone": "079-280-1948",
      "license_no": "",
      "license_date": null,
      "expire_date": null
    },
    {
      "name": "有限会社土方商店　坊勢店",
      "name_kana": "ユウゲンガイシャヒジカタショウテン　ボウゼテン",
      "business_type": "⑬ その他の食料・飲料販売業",
      "address": "兵庫県姫路市家島町坊勢一円",
      "lat": 34.654668,
      "lng": 134.514499,
      "geocoding_level": null,
      "phone": "",
      "license_no": "",
      "license_date": null,
      "expire_date": null
    },
    {
      "name": "有限会社土方商店　真浦店",
      "name_kana": "ユウゲンガイシャヒジカタショウテン　マウラテン",
      "business_type": "⑬ その他の食料・飲料販売業",
      "address": "兵庫県姫路市家島町真浦一円",
      "lat": 34.67542,
      "lng": 134.531862,
      "geocoding_level": null,
      "phone": "",
      "license_no": "",
      "license_date": null,
      "expire_date": null
    },
    {
      "name": "出光ユニテック株式会社　兵庫工場",
      "name_kana": "イデミツユニテックカブシキガイシャ　ヒョウゴコウジョウ",
      "business_type": "㉗ 器具、容器包装の製造・加工業（合成樹脂が使用された器具又は容器包装の製造、加工に限る。）",
      "address": "兵庫県姫路市白浜町甲841-3",
      "lat": 34.780226,
      "lng": 134.70011,
      "geocoding_level": null,
      "phone": "",
      "license_no": "",
      "license_date": null,
      "expire_date": null
    },
    {
      "name": "株式会社藤橋商店",
      "name_kana": "カブシキガイシャフジハシショウテン",
      "business_type": "⑬ その他の食料・飲料販売業",
      "address": "兵庫県姫路市相野１１５",
      "lat": 34.866537,
      "lng": 134.618412,
      "geocoding_level": null,
      "phone": "079-268-9535",
      "license_no": "",
      "license_date": null,
      "expire_date": null
    },
    {
      "name": "株式会社藤橋商店",
      "name_kana": "カブシキガイシャフジハシショウテン",
      "business_type": "② 食肉販売業（包装済みの食肉のみの販売）",
      "address": "兵庫県姫路市延末295番地",
      "lat": 34.821156,
      "lng": 134.679989,
      "geocoding_level": null,
      "phone": "079-268-9535",
      "license_no": "",
      "license_date": null,
      "expire_date": null
    },
    {
      "name": "株式会社藤橋商店",
      "name_kana": "カブシキガイシャフジハシショウテン",
      "business_type": "② 食肉販売業（包装済みの食肉のみの販売）",
      "address": "兵庫県姫路市相野１１５",
      "lat": 34.866537,
      "lng": 134.618412,
      "geocoding_level": null,
      "phone": "079-268-9535",
      "license_no": "",
      "license_date": null,
      "expire_date": null
    },
    {
      "name": "株式会社藤橋商店",
      "name_kana": "カブシキガイシャフジハシショウテン",
      "business_type": "⑦ 野菜果物販売業",
      "address": "兵庫県姫路市相野１１５",
      "lat": 34.866537,
      "lng": 134.618412,
      "geocoding_level": null,
      "phone": "079-268-9535",
      "license_no": "",
      "license_date": null,
      "expire_date": null
    },
    {
      "name": "株式会社藤橋商店",
      "name_kana": "カブシキガイシャフジハシショウテン",
      "business_type": "⑬ その他の食料・飲料販売業",
      "address": "兵庫県姫路市相野１１５",
      "lat": 34.866537,
      "lng": 134.618412,
      "geocoding_level": null,
      "phone": "079-268-9535",
      "license_no": "",
      "license_date": null,
      "expire_date": null
    },
    {
      "name": "株式会社藤橋商店",
      "name_kana": "カブシキガイシャフジハシショウテン",
      "business_type": "② 食肉販売業（包装済みの食肉のみの販売）",
      "address": "兵庫県姫路市延末295番地",
      "lat": 34.821156,
      "lng": 134.679989,
      "geocoding_level": null,
      "phone": "079-268-9535",
      "license_no": "",
      "license_date": null,
      "expire_date": null
    },
    {
      "name": "ドラッグストアマツモトキヨシ姫路青山店",
      "name_kana": "ドラッグストアマツモトキヨシヒメジアオヤマテン",
      "business_type": "⑬ その他の食料・飲料販売業",
      "address": "兵庫県姫路市広畑区西蒲田4",
      "lat": 34.839413,
      "lng": 134.640529,
      "geocoding_level": null,
      "phone": "079-263-7239",
      "license_no": "",
      "license_date": null,
      "expire_date": null
    },
    {
      "name": "くすりのラブ田寺店",
      "name_kana": "クスリノラブタデラテン",
      "business_type": "⑬ その他の食料・飲料販売業",
      "address": "兵庫県姫路市田寺東2-29-5",
      "lat": 34.859645,
      "lng": 134.672968,
      "geocoding_level": null,
      "phone": "079-260-7118",
      "license_no": "",
      "license_date": null,
      "expire_date": null
    },
    {
      "name": "ドラッグストアマツモトキヨシ網干店",
      "name_kana": "ドラッグストアマツモトキヨシアボシテン",
      "business_type": "⑬ その他の食料・飲料販売業",
      "address": "兵庫県姫路市余部区下余部中洲384-1",
      "lat": 34.797961,
      "lng": 134.577257,
      "geocoding_level": null,
      "phone": "079-271-2176",
      "license_no": "",
      "license_date": null,
      "expire_date": null
    },
    {
      "name": "株式会社 鵜鷹商店",
      "name_kana": "カブシキガイシャ ウタカショウテン",
      "business_type": "⑦ 野菜果物販売業",
      "address": "兵庫県姫路市延末295番地",
      "lat": 34.82117,
      "lng": 134.679985,
      "geocoding_level": null,
      "phone": "",
      "license_no": "",
      "license_date": null,
      "expire_date": null
    },
    {
      "name": "マックスバリュ英賀保店",
      "name_kana": "マックスバリュアガホテン",
      "business_type": "⑫ 自動販売機による販売業（コップ式自動販売機（自動洗浄・屋内設置）及び営業許可の対象となる自動販売機を除く）",
      "address": "兵庫県姫路市飾磨区城南町2丁目30",
      "lat": 34.809113,
      "lng": 134.647945,
      "geocoding_level": null,
      "phone": "079-238-4981",
      "license_no": "",
      "license_date": null,
      "expire_date": null
    },
    {
      "name": "株式会社旭パック",
      "name_kana": "カブシキガイシャ　アサヒパック",
      "business_type": "㉗ 器具、容器包装の製造・加工業（合成樹脂が使用された器具又は容器包装の製造、加工に限る。）",
      "address": "兵庫県姫路市北条宮の町385番地",
      "lat": 34.819385,
      "lng": 134.692079,
      "geocoding_level": null,
      "phone": "",
      "license_no": "",
      "license_date": null,
      "expire_date": null
    },
    {
      "name": "A-プライス姫路店",
      "name_kana": "エープライスヒメジテン",
      "business_type": "⑪ 百貨店、総合スーパー",
      "address": "兵庫県姫路市東雲町6丁目7-1",
      "lat": 34.83422,
      "lng": 134.676447,
      "geocoding_level": null,
      "phone": "079-292-4521",
      "license_no": "",
      "license_date": null,
      "expire_date": null
    },
    {
      "name": "フレッシュバザール夢前町店",
      "name_kana": "フレッシュバザールユメサキチョウテン",
      "business_type": "⑫ 自動販売機による販売業（コップ式自動販売機（自動洗浄・屋内設置）及び営業許可の対象となる自動販売機を除く）",
      "address": "兵庫県姫路市夢前町前之庄1148-3",
      "lat": 34.965539,
      "lng": 134.685037,
      "geocoding_level": null,
      "phone": "079-336-0055",
      "license_no": "",
      "license_date": null,
      "expire_date": null
    },
    {
      "name": "スギドラッグ　姫路広峰店",
      "name_kana": "スギドラッグ　ヒメジヒロミネテン",
      "business_type": "⑬ その他の食料・飲料販売業",
      "address": "兵庫県姫路市広峰一丁目7番39号",
      "lat": 34.852982,
      "lng": 134.699734,
      "geocoding_level": null,
      "phone": "0792876647",
      "license_no": "",
      "license_date": null,
      "expire_date": null
    },
    {
      "name": "スギドラッグ  姫路野里店",
      "name_kana": "スギドラッグ  ヒメジノザトテン",
      "business_type": "⑪ 百貨店、総合スーパー",
      "address": "兵庫県姫路市野里106番地3",
      "lat": 34.838473,
      "lng": 134.712271,
      "geocoding_level": null,
      "phone": "079-226-8800",
      "license_no": "",
      "license_date": null,
      "expire_date": null
    },
    {
      "name": "スギドラッグ  姫路広畑店",
      "name_kana": "スギドラッグ  ヒメジヒロハタテン",
      "business_type": "⑪ 百貨店、総合スーパー",
      "address": "兵庫県姫路市広畑区北野町一丁目１番地",
      "lat": 34.807243,
      "lng": 134.629879,
      "geocoding_level": null,
      "phone": "079-230-1237",
      "license_no": "",
      "license_date": null,
      "expire_date": null
    },
    {
      "name": "スギドラッグ  飾磨中島店",
      "name_kana": "スギドラッグ  シカマナカシマテン",
      "business_type": "⑪ 百貨店、総合スーパー",
      "address": "兵庫県姫路市飾磨区中島483番地",
      "lat": 34.793471,
      "lng": 134.67971,
      "geocoding_level": null,
      "phone": "079-231-5232",
      "license_no": "",
      "license_date": null,
      "expire_date": null
    },
    {
      "name": "スギドラッグ  飾磨中浜店",
      "name_kana": "スギドラッグ  シカマナカハマテン",
      "business_type": "⑪ 百貨店、総合スーパー",
      "address": "兵庫県姫路市飾磨区中浜町一丁目21番地",
      "lat": 34.805318,
      "lng": 134.649426,
      "geocoding_level": null,
      "phone": "079-230-0304",
      "license_no": "",
      "license_date": null,
      "expire_date": null
    },
    {
      "name": "スギドラッグ  夢前台店",
      "name_kana": "スギドラッグ  ユメサキダイテン",
      "business_type": "⑪ 百貨店、総合スーパー",
      "address": "兵庫県姫路市上手野309番地6",
      "lat": 34.861579,
      "lng": 134.658709,
      "geocoding_level": null,
      "phone": "079-269-8307",
      "license_no": "",
      "license_date": null,
      "expire_date": null
    },
    {
      "name": "スギドラッグ  姫路御着店",
      "name_kana": "スギドラッグ  ヒメジゴチャクテン",
      "business_type": "⑪ 百貨店、総合スーパー",
      "address": "兵庫県姫路市御国野町御着756番地",
      "lat": 34.818892,
      "lng": 134.73782,
      "geocoding_level": null,
      "phone": "079-240-9012",
      "license_no": "",
      "license_date": null,
      "expire_date": null
    },
    {
      "name": "スギ薬局  姫路中央店",
      "name_kana": "スギヤッキョク  ヒメジチュウオウテン",
      "business_type": "⑪ 百貨店、総合スーパー",
      "address": "兵庫県姫路市神屋町六丁目73番地",
      "lat": 34.828294,
      "lng": 134.699534,
      "geocoding_level": null,
      "phone": "079-262-6371",
      "license_no": "",
      "license_date": null,
      "expire_date": null
    },
    {
      "name": "スギドラッグ  東姫路店",
      "name_kana": "スギドラッグ  ヒガシヒメジテン",
      "business_type": "⑪ 百貨店、総合スーパー",
      "address": "兵庫県姫路市阿保甲７１番地１",
      "lat": 34.822135,
      "lng": 134.706012,
      "geocoding_level": null,
      "phone": "079-287-6366",
      "license_no": "",
      "license_date": null,
      "expire_date": null
    },
    {
      "name": "スギドラッグ  姫路花田店",
      "name_kana": "スギドラッグ  ヒメジハナダテン",
      "business_type": "⑪ 百貨店、総合スーパー",
      "address": "兵庫県姫路市花田町加納原田915番地",
      "lat": 34.83549,
      "lng": 134.72913,
      "geocoding_level": null,
      "phone": "079-287-8531",
      "license_no": "",
      "license_date": null,
      "expire_date": null
    },
    {
      "name": "スギドラッグ  姫路駅前店",
      "name_kana": "スギドラッグ  ヒメジエキマエテン",
      "business_type": "⑪ 百貨店、総合スーパー",
      "address": "兵庫県姫路市駅前町60番地 ホテルモントレ姫路2階",
      "lat": 34.827389,
      "lng": 134.692582,
      "geocoding_level": null,
      "phone": "079-280-6231",
      "license_no": "",
      "license_date": null,
      "expire_date": null
    },
    {
      "name": "スギドラッグ  網干和久店",
      "name_kana": "スギドラッグ  アボシワクテン",
      "business_type": "⑪ 百貨店、総合スーパー",
      "address": "兵庫県姫路市網干区和久5番地1",
      "lat": 34.809015,
      "lng": 134.585343,
      "geocoding_level": null,
      "phone": "079-280-6102",
      "license_no": "",
      "license_date": null,
      "expire_date": null
    },
    {
      "name": "ドラッグジャパン  香寺店",
      "name_kana": "ドラッグジャパン  コウデラテン",
      "business_type": "⑪ 百貨店、総合スーパー",
      "address": "兵庫県姫路市香寺町溝口字中嶋950-1",
      "lat": 34.931708,
      "lng": 134.745176,
      "geocoding_level": null,
      "phone": "079-232-4949",
      "license_no": "",
      "license_date": null,
      "expire_date": null
    },
    {
      "name": "スギドラッグ  姫路下手野店",
      "name_kana": "スギドラッグ  ヒメジシモテノテン",
      "business_type": "⑪ 百貨店、総合スーパー",
      "address": "兵庫県姫路市下手野四丁目13番63号",
      "lat": 34.851745,
      "lng": 134.650029,
      "geocoding_level": null,
      "phone": "079-262-9061",
      "license_no": "",
      "license_date": null,
      "expire_date": null
    },
    {
      "name": "スギドラッグ  姫路飾磨店",
      "name_kana": "スギドラッグ  ヒメジシカマテン",
      "business_type": "⑪ 百貨店、総合スーパー",
      "address": "兵庫県姫路市飾磨区細江101番地",
      "lat": 34.80541,
      "lng": 134.671395,
      "geocoding_level": null,
      "phone": "0792430501",
      "license_no": "",
      "license_date": null,
      "expire_date": null
    },
    {
      "name": "スギドラッグ　姫路辻井店",
      "name_kana": "スギドラッグ　ヒメジツジイテン",
      "business_type": "⑪ 百貨店、総合スーパー",
      "address": "兵庫県姫路市辻井四丁目１１番２３号",
      "lat": 34.853474,
      "lng": 134.670832,
      "geocoding_level": null,
      "phone": "079-260-6561",
      "license_no": "",
      "license_date": null,
      "expire_date": null
    },
    {
      "name": "スギドラッグ　姫路広畑南店",
      "name_kana": "スギドラッグ　ヒメジヒロハタミナミテン",
      "business_type": "⑪ 百貨店、総合スーパー",
      "address": "兵庫県姫路市広畑区長町一丁目３６番地",
      "lat": 34.796541,
      "lng": 134.631927,
      "geocoding_level": null,
      "phone": "0792809105",
      "license_no": "",
      "license_date": null,
      "expire_date": null
    },
    {
      "name": "COST　TRADER　MART姫路店",
      "name_kana": "コストトレーダーマートヒメジテン",
      "business_type": "⑪ 百貨店、総合スーパー",
      "address": "兵庫県姫路市延末435-3",
      "lat": 34.825461,
      "lng": 134.682864,
      "geocoding_level": null,
      "phone": "",
      "license_no": "",
      "license_date": null,
      "expire_date": null
    },
    {
      "name": "ファミリーマートうかいや阿成店",
      "name_kana": "ファミリーマートウカイヤアナセテン",
      "business_type": "⑩ コンビニエンスストア",
      "address": "兵庫県姫路市飾磨区阿成植木649番地",
      "lat": 34.798859,
      "lng": 134.688081,
      "geocoding_level": null,
      "phone": "",
      "license_no": "",
      "license_date": null,
      "expire_date": null
    },
    {
      "name": "株式会社フレッシュ青果　関西姫路営業所",
      "name_kana": "カブシキガイシャフレッシュセイカカンサイヒメジエイギョウショ",
      "business_type": "⑦ 野菜果物販売業",
      "address": "兵庫県姫路市継10-1",
      "lat": 34.79593,
      "lng": 134.720555,
      "geocoding_level": null,
      "phone": "079-253-2055",
      "license_no": "",
      "license_date": null,
      "expire_date": null
    },
    {
      "name": "セブンイレブン姫路東今宿2丁目店",
      "name_kana": "セブンイレブンヒメジヒガシイマジュクニチョウメ",
      "business_type": "① 魚介類販売業（包装済みの魚介類のみの販売）",
      "address": "兵庫県姫路市東今宿2丁目6-11",
      "lat": 34.839952,
      "lng": 134.668556,
      "geocoding_level": null,
      "phone": "079-294-9011",
      "license_no": "",
      "license_date": null,
      "expire_date": null
    },
    {
      "name": "セブンイレブン姫路東今宿2丁目店",
      "name_kana": "セブンイレブンヒメジヒガシイマジュクニチョウメ",
      "business_type": "② 食肉販売業（包装済みの食肉のみの販売）",
      "address": "兵庫県姫路市東今宿2丁目6-11",
      "lat": 34.839952,
      "lng": 134.668556,
      "geocoding_level": null,
      "phone": "079-294-9011",
      "license_no": "",
      "license_date": null,
      "expire_date": null
    },
    {
      "name": "セブンイレブン姫路東今宿2丁目店",
      "name_kana": "セブンイレブンヒメジヒガシイマジュクニチョウメ",
      "business_type": "③ 乳類販売業",
      "address": "兵庫県姫路市東今宿2丁目6-11",
      "lat": 34.839952,
      "lng": 134.668556,
      "geocoding_level": null,
      "phone": "079-294-9011",
      "license_no": "",
      "license_date": null,
      "expire_date": null
    },
    {
      "name": "セブンイレブン姫路東今宿2丁目店",
      "name_kana": "セブンイレブンヒメジヒガシイマジュクニチョウメ",
      "business_type": "⑩ コンビニエンスストア",
      "address": "兵庫県姫路市東今宿2丁目6-11",
      "lat": 34.839952,
      "lng": 134.668556,
      "geocoding_level": null,
      "phone": "079-294-9011",
      "license_no": "",
      "license_date": null,
      "expire_date": null
    },
    {
      "name": "ウエルシア姫路青山店",
      "name_kana": "ウエルシアヒメジアオヤマテン",
      "business_type": "⑪ 百貨店、総合スーパー",
      "address": "兵庫県姫路市青山西三丁目12番1号",
      "lat": 34.843222,
      "lng": 134.629855,
      "geocoding_level": null,
      "phone": "079-268-7255",
      "license_no": "",
      "license_date": null,
      "expire_date": null
    },
    {
      "name": "ウエルシア姫路今在家店",
      "name_kana": "ウエルシアヒメジイマザイケテン",
      "business_type": "⑪ 百貨店、総合スーパー",
      "address": "兵庫県姫路市飾磨区今在家1380番2",
      "lat": 34.799547,
      "lng": 134.65753,
      "geocoding_level": null,
      "phone": "079-231-5515",
      "license_no": "",
      "license_date": null,
      "expire_date": null
    },
    {
      "name": "ウエルシア姫路今在家店",
      "name_kana": "ウエルシアヒメジイマザイケテン",
      "business_type": "⑫ 自動販売機による販売業（コップ式自動販売機（自動洗浄・屋内設置）及び営業許可の対象となる自動販売機を除く）",
      "address": "兵庫県姫路市飾磨区今在家1380番2",
      "lat": 34.799547,
      "lng": 134.65753,
      "geocoding_level": null,
      "phone": "079-231-5515",
      "license_no": "",
      "license_date": null,
      "expire_date": null
    },
    {
      "name": "五百城ニュートリイ株式会社",
      "name_kana": "イオキニュートリイカブシキガイシャ",
      "business_type": "⑳ 精穀・製粉業",
      "address": "兵庫県姫路市亀山２０６番地",
      "lat": 34.80946,
      "lng": 134.676372,
      "geocoding_level": null,
      "phone": "079-235-1727",
      "license_no": "",
      "license_date": null,
      "expire_date": null
    },
    {
      "name": "もち吉　姫路店",
      "name_kana": "モチキチ　ヒメジテン",
      "business_type": "⑬ その他の食料・飲料販売業",
      "address": "兵庫県姫路市飾磨区三宅1-195",
      "lat": 34.81492,
      "lng": 134.683491,
      "geocoding_level": null,
      "phone": "079-283-3911",
      "license_no": "",
      "license_date": null,
      "expire_date": null
    },
    {
      "name": "西播米穀株式会社",
      "name_kana": "セイバンベイコクカブシキガイシャ",
      "business_type": "⑧ 米穀類販売業",
      "address": "兵庫県姫路市東今宿２-6-21",
      "lat": 34.840215,
      "lng": 134.668888,
      "geocoding_level": null,
      "phone": "079-298-7700",
      "license_no": "",
      "license_date": null,
      "expire_date": null
    },
    {
      "name": "MEGAドン・キホーテ姫路白浜店",
      "name_kana": "メガドン・キホーテヒメジシラハマテン",
      "business_type": "⑪ 百貨店、総合スーパー",
      "address": "兵庫県姫路市白浜町丙571-58",
      "lat": 34.782323,
      "lng": 134.707265,
      "geocoding_level": null,
      "phone": "0570-049-311",
      "license_no": "",
      "license_date": null,
      "expire_date": null
    },
    {
      "name": "ドン・キホーテ姫路RIOS店",
      "name_kana": "ドン・キホーテヒメジリオステン",
      "business_type": "⑪ 百貨店、総合スーパー",
      "address": "兵庫県姫路市東郷町1454-3 姫路RIOS　1F",
      "lat": 34.827164,
      "lng": 134.715272,
      "geocoding_level": null,
      "phone": "079-225-5711",
      "license_no": "",
      "license_date": null,
      "expire_date": null
    },
    {
      "name": "MEGAドン・キホーテ姫路広畑店",
      "name_kana": "メガドン・キホーテヒメジヒロハタテン",
      "business_type": "⑪ 百貨店、総合スーパー",
      "address": "兵庫県姫路市広畑区夢前町一丁目1-1",
      "lat": 34.797247,
      "lng": 134.637058,
      "geocoding_level": null,
      "phone": "079-230-1511",
      "license_no": "",
      "license_date": null,
      "expire_date": null
    },
    {
      "name": "MEGAドン・キホーテ姫路広畑店",
      "name_kana": "メガドン・キホーテヒメジヒロハタテン",
      "business_type": "⑫ 自動販売機による販売業（コップ式自動販売機（自動洗浄・屋内設置）及び営業許可の対象となる自動販売機を除く）",
      "address": "兵庫県姫路市広畑区夢前町一丁目1-1",
      "lat": 34.797247,
      "lng": 134.637058,
      "geocoding_level": null,
      "phone": "079-230-1511",
      "license_no": "",
      "license_date": null,
      "expire_date": null
    },
    {
      "name": "MEGAドン・キホーテ姫路広畑店",
      "name_kana": "メガドン・キホーテヒメジヒロハタテン",
      "business_type": "① 飲食店営業",
      "address": "兵庫県姫路市広畑区夢前町1丁目1-1",
      "lat": 34.797247,
      "lng": 134.637058,
      "geocoding_level": null,
      "phone": "0570-080-611",
      "license_no": "70067462",
      "license_date": "2024-02-29",
      "expire_date": "2030-02-28"
    },
    {
      "name": "MEGAドン・キホーテ姫路広畑店",
      "name_kana": "メガドン・キホーテヒメジヒロハタテン",
      "business_type": "③ 食肉販売業",
      "address": "兵庫県姫路市広畑区夢前町1丁目1-1",
      "lat": 34.797247,
      "lng": 134.637058,
      "geocoding_level": null,
      "phone": "0570-080-611",
      "license_no": "70067458",
      "license_date": "2024-02-29",
      "expire_date": "2030-02-28"
    },
    {
      "name": "MEGAドン・キホーテ姫路広畑店",
      "name_kana": "メガドン・キホーテヒメジヒロハタテン",
      "business_type": "④ 魚介類販売業",
      "address": "兵庫県姫路市広畑区夢前町1丁目1-1",
      "lat": 34.797247,
      "lng": 134.637058,
      "geocoding_level": null,
      "phone": "0570-080-611",
      "license_no": "70067459",
      "license_date": "2024-02-29",
      "expire_date": "2030-02-28"
    },
    {
      "name": "MEGAドン・キホーテ姫路広畑店",
      "name_kana": "メガドン・キホーテヒメジヒロハタテン",
      "business_type": "① 飲食店営業",
      "address": "兵庫県姫路市広畑区夢前町1丁目1-1",
      "lat": 34.797247,
      "lng": 134.637058,
      "geocoding_level": null,
      "phone": "0570-015-801",
      "license_no": "70067465",
      "license_date": "2024-02-29",
      "expire_date": "2030-02-28"
    },
    {
      "name": "MEGAドン・キホーテ姫路広畑店",
      "name_kana": "メガドン・キホーテヒメジヒロハタテン",
      "business_type": "① 飲食店営業",
      "address": "兵庫県姫路市広畑区夢前町1丁目1-1",
      "lat": 34.797247,
      "lng": 134.637058,
      "geocoding_level": null,
      "phone": "0570-015-801",
      "license_no": "70067464",
      "license_date": "2024-02-29",
      "expire_date": "2030-02-28"
    },
    {
      "name": "MEGAドン・キホーテ姫路広畑店",
      "name_kana": "メガドン・キホーテヒメジヒロハタテン",
      "business_type": "① 飲食店営業",
      "address": "兵庫県姫路市広畑区夢前町1丁目1-1",
      "lat": 34.797247,
      "lng": 134.637058,
      "geocoding_level": null,
      "phone": "0570-080-611",
      "license_no": "70067463",
      "license_date": "2024-02-29",
      "expire_date": "2030-02-28"
    },
    {
      "name": "MEGAドン・キホーテ姫路広畑店",
      "name_kana": "メガドン・キホーテヒメジヒロハタテン",
      "business_type": "① 飲食店営業",
      "address": "兵庫県姫路市広畑区夢前町1丁目1-1",
      "lat": 34.797247,
      "lng": 134.637058,
      "geocoding_level": null,
      "phone": "0570-080-611",
      "license_no": "70067466",
      "license_date": "2024-02-29",
      "expire_date": "2030-02-28"
    },
    {
      "name": "業務スーパー香寺店",
      "name_kana": "ギョウムスーパーコウデラテン",
      "business_type": "⑪ 百貨店、総合スーパー",
      "address": "兵庫県姫路市香寺町中仁野147-1",
      "lat": 34.907029,
      "lng": 134.738175,
      "geocoding_level": null,
      "phone": "0792652565",
      "license_no": "",
      "license_date": null,
      "expire_date": null
    },
    {
      "name": "業務スーパー花田店",
      "name_kana": "ギョウムスーパーハナダテン",
      "business_type": "⑪ 百貨店、総合スーパー",
      "address": "兵庫県姫路市花田町小川字東戸手90",
      "lat": 34.840796,
      "lng": 134.721727,
      "geocoding_level": null,
      "phone": "",
      "license_no": "",
      "license_date": null,
      "expire_date": null
    },
    {
      "name": "業務スーパー田寺店",
      "name_kana": "ギョウムスーパータデラテン",
      "business_type": "⑪ 百貨店、総合スーパー",
      "address": "兵庫県姫路市山吹2丁目12-1",
      "lat": 34.85597,
      "lng": 134.664199,
      "geocoding_level": null,
      "phone": "",
      "license_no": "",
      "license_date": null,
      "expire_date": null
    },
    {
      "name": "業務スーパー下手野店",
      "name_kana": "ギョウムスーパーシモテノテン",
      "business_type": "⑪ 百貨店、総合スーパー",
      "address": "兵庫県姫路市下手野2丁目411-3",
      "lat": 34.846609,
      "lng": 134.653072,
      "geocoding_level": null,
      "phone": "",
      "license_no": "",
      "license_date": null,
      "expire_date": null
    },
    {
      "name": "株式会社 水野グラビア印刷",
      "name_kana": "カブシキガイシャミズノグラビアインサツ",
      "business_type": "㉗ 器具、容器包装の製造・加工業（合成樹脂が使用された器具又は容器包装の製造、加工に限る。）",
      "address": "兵庫県姫路市広畑区西蒲田１３３７－６７",
      "lat": 34.833355,
      "lng": 134.630589,
      "geocoding_level": null,
      "phone": "",
      "license_no": "",
      "license_date": null,
      "expire_date": null
    },
    {
      "name": "業務スーパー網干店",
      "name_kana": "ギョウムスーパーアボシテン",
      "business_type": "⑪ 百貨店、総合スーパー",
      "address": "兵庫県姫路市網干区垣内東町180",
      "lat": 34.790049,
      "lng": 134.590784,
      "geocoding_level": null,
      "phone": "",
      "license_no": "",
      "license_date": null,
      "expire_date": null
    },
    {
      "name": "rail",
      "name_kana": "レイル",
      "business_type": "⑬ その他の食料・飲料販売業",
      "address": "兵庫県姫路市飾磨区上野田５丁目104",
      "lat": 34.806679,
      "lng": 134.690452,
      "geocoding_level": null,
      "phone": "0792353338",
      "license_no": "",
      "license_date": null,
      "expire_date": null
    },
    {
      "name": "尾家産業　姫路営業所",
      "name_kana": "オイエサンギョウ　ヒメジエイギョウショ",
      "business_type": "⑬ その他の食料・飲料販売業",
      "address": "兵庫県姫路市飾磨区今在家1046",
      "lat": 34.798815,
      "lng": 134.651494,
      "geocoding_level": null,
      "phone": "079-233-2221",
      "license_no": "",
      "license_date": null,
      "expire_date": null
    },
    {
      "name": "ごはんどき姫路店",
      "name_kana": "ゴハンドキヒメジテン",
      "business_type": "① 飲食店営業",
      "address": "兵庫県姫路市砥堀３０２－３",
      "lat": 34.862434,
      "lng": 134.723789,
      "geocoding_level": null,
      "phone": "0792-64-2014",
      "license_no": "70044542",
      "license_date": "2026-02-27",
      "expire_date": "2032-02-29"
    },
    {
      "name": "ファミリーマート　姫路駅南",
      "name_kana": "ファミリーマート　ヒメジエキミナミ",
      "business_type": "⑩ コンビニエンスストア",
      "address": "兵庫県姫路市南駅前町95",
      "lat": 34.825385,
      "lng": 134.690979,
      "geocoding_level": null,
      "phone": "0792868681",
      "license_no": "",
      "license_date": null,
      "expire_date": null
    },
    {
      "name": "ホテル日航姫路　従業員食堂",
      "name_kana": "ホテルニッコウヒメジ　ジュウギョウインショクドウ",
      "business_type": "① 飲食店営業",
      "address": "兵庫県姫路市南駅前町100",
      "lat": 34.825246,
      "lng": 134.69025,
      "geocoding_level": null,
      "phone": "09068926639",
      "license_no": "70078759",
      "license_date": "2025-12-11",
      "expire_date": "2033-02-28"
    },
    {
      "name": "しんきひかり保育園",
      "name_kana": "シンキヒカリホイクエン",
      "business_type": "㉖ 集団給食施設",
      "address": "兵庫県姫路市景福寺前12",
      "lat": 34.837852,
      "lng": 134.683451,
      "geocoding_level": null,
      "phone": "",
      "license_no": "",
      "license_date": null,
      "expire_date": null
    },
    {
      "name": "㈱正木牧場",
      "name_kana": "マサキボクジョウ",
      "business_type": "⑬ その他の食料・飲料販売業",
      "address": "兵庫県姫路市市内一円",
      "lat": 34.888982,
      "lng": 134.660503,
      "geocoding_level": null,
      "phone": "06-6715-6060",
      "license_no": "",
      "license_date": null,
      "expire_date": null
    },
    {
      "name": "ガスト　兵庫香寺店",
      "name_kana": "ガストヒョウゴコウデラテン",
      "business_type": "⑬ その他の食料・飲料販売業",
      "address": "兵庫県姫路市香寺町岩部字柳木８番５",
      "lat": 38.74406,
      "lng": 140.69441,
      "geocoding_level": null,
      "phone": "079-265-2222",
      "license_no": "",
      "license_date": null,
      "expire_date": null
    },
    {
      "name": "ガスト 姫路駅前店",
      "name_kana": "ガストヒメジエキマエテン",
      "business_type": "⑬ その他の食料・飲料販売業",
      "address": "兵庫県姫路市駅前町３６３－１ フェスタビル南館３Ｆ",
      "lat": 34.828202,
      "lng": 134.690944,
      "geocoding_level": null,
      "phone": "079-287-1511",
      "license_no": "",
      "license_date": null,
      "expire_date": null
    },
    {
      "name": "ガスト　姫路土山店",
      "name_kana": "ガストヒメジツチヤマテン",
      "business_type": "⑬ その他の食料・飲料販売業",
      "address": "兵庫県姫路市土山１丁目６－１５",
      "lat": 34.831437,
      "lng": 134.674978,
      "geocoding_level": null,
      "phone": "079-295-2036",
      "license_no": "",
      "license_date": null,
      "expire_date": null
    },
    {
      "name": "ガスト 姫路網干店",
      "name_kana": "ガストヒメジアボシテン",
      "business_type": "① 飲食店営業",
      "address": "兵庫県姫路市網干区和久１１４－１",
      "lat": 34.809665,
      "lng": 134.585158,
      "geocoding_level": null,
      "phone": "079-271-6752",
      "license_no": "70039964",
      "license_date": "2023-05-31",
      "expire_date": "2030-05-31"
    },
    {
      "name": "ガスト 姫路網干店",
      "name_kana": "ガストヒメジアボシテン",
      "business_type": "⑬ その他の食料・飲料販売業",
      "address": "兵庫県姫路市網干区和久１１４－１",
      "lat": 34.809665,
      "lng": 134.585158,
      "geocoding_level": null,
      "phone": "079-271-6752",
      "license_no": "",
      "license_date": null,
      "expire_date": null
    },
    {
      "name": "しゃぶ葉　姫路幸町店",
      "name_kana": "シャブヨウヒメジサイワイチョウテン",
      "business_type": "① 飲食店営業",
      "address": "兵庫県姫路市幸町１７番地",
      "lat": 34.830657,
      "lng": 134.70442,
      "geocoding_level": null,
      "phone": "079-240-7545",
      "license_no": "70068746",
      "license_date": "2026-02-27",
      "expire_date": "2033-02-28"
    },
    {
      "name": "しゃぶ葉　姫路幸町店",
      "name_kana": "シャブヨウヒメジサイワイチョウテン",
      "business_type": "⑬ その他の食料・飲料販売業",
      "address": "兵庫県姫路市幸町１７番地",
      "lat": 34.830654,
      "lng": 134.704416,
      "geocoding_level": null,
      "phone": "079-240-7545",
      "license_no": "",
      "license_date": null,
      "expire_date": null
    },
    {
      "name": "ガスト　姫路飾磨店",
      "name_kana": "ガストヒメジシカマテン",
      "business_type": "① 飲食店営業",
      "address": "兵庫県姫路市飾磨区中野田２丁目８９",
      "lat": 34.806645,
      "lng": 134.680772,
      "geocoding_level": null,
      "phone": "079-231-4160",
      "license_no": "70041581",
      "license_date": "2024-02-29",
      "expire_date": "2030-02-28"
    },
    {
      "name": "ガスト　姫路飾磨店",
      "name_kana": "ガストヒメジシカマテン",
      "business_type": "⑬ その他の食料・飲料販売業",
      "address": "兵庫県姫路市飾磨区中野田２丁目８９",
      "lat": 34.806645,
      "lng": 134.680772,
      "geocoding_level": null,
      "phone": "079-231-4160",
      "license_no": "",
      "license_date": null,
      "expire_date": null
    },
    {
      "name": "ガスト　姫路飾西店",
      "name_kana": "ガスト　ヒメジシキサイテン",
      "business_type": "① 飲食店営業",
      "address": "兵庫県姫路市飾西３９４－１",
      "lat": 34.85984,
      "lng": 134.642692,
      "geocoding_level": null,
      "phone": "079-268-2007",
      "license_no": "70020502",
      "license_date": "2023-05-31",
      "expire_date": "2030-05-31"
    },
    {
      "name": "ガスト　姫路飾西店",
      "name_kana": "ガスト　ヒメジシキサイテン",
      "business_type": "⑬ その他の食料・飲料販売業",
      "address": "兵庫県姫路市飾西３９４－１",
      "lat": 34.85984,
      "lng": 134.642692,
      "geocoding_level": null,
      "phone": "079-268-2007",
      "license_no": "",
      "license_date": null,
      "expire_date": null
    },
    {
      "name": "ガスト 姫路御国野店",
      "name_kana": "ガストヒメジミクニノテン",
      "business_type": "① 飲食店営業",
      "address": "兵庫県姫路市御国野町御着７６８－１",
      "lat": 34.819246,
      "lng": 134.738399,
      "geocoding_level": null,
      "phone": "079-251-2014",
      "license_no": "70021634",
      "license_date": "2024-11-29",
      "expire_date": "2031-11-30"
    },
    {
      "name": "ガスト 姫路御国野店",
      "name_kana": "ガストヒメジミクニノテン",
      "business_type": "⑬ その他の食料・飲料販売業",
      "address": "兵庫県姫路市御国野町御着７６８－１",
      "lat": 34.819246,
      "lng": 134.738399,
      "geocoding_level": null,
      "phone": "079-251-2014",
      "license_no": "",
      "license_date": null,
      "expire_date": null
    },
    {
      "name": "ガスト　姫路白浜店",
      "name_kana": "ガスト　ヒメジシラハマテン",
      "business_type": "① 飲食店営業",
      "address": "兵庫県姫路市白浜町宇佐崎中１丁目１１１",
      "lat": 34.783093,
      "lng": 134.716994,
      "geocoding_level": null,
      "phone": "079-247-2025",
      "license_no": "70037501",
      "license_date": "2026-02-27",
      "expire_date": "2032-02-29"
    },
    {
      "name": "ガスト　姫路白浜店",
      "name_kana": "ガスト　ヒメジシラハマテン",
      "business_type": "⑬ その他の食料・飲料販売業",
      "address": "兵庫県姫路市白浜町宇佐崎中１丁目１１１",
      "lat": 34.783141,
      "lng": 134.71702,
      "geocoding_level": null,
      "phone": "079-247-2025",
      "license_no": "",
      "license_date": null,
      "expire_date": null
    },
    {
      "name": "イーティーズ飾磨店",
      "name_kana": "イーティーズシカマテン",
      "business_type": "① 飲食店営業",
      "address": "兵庫県姫路市飾磨区細江2633 ダイレックス飾磨店内",
      "lat": 34.799132,
      "lng": 134.67116,
      "geocoding_level": null,
      "phone": "079-280-2278",
      "license_no": "70070111",
      "license_date": "2026-02-27",
      "expire_date": "2032-02-29"
    },
    {
      "name": "小樽飯櫃",
      "name_kana": "オタルボンキ",
      "business_type": "㉕ 行商",
      "address": "兵庫県姫路市藤井寺市2560番地 イオンモール姫路リバーシティ",
      "lat": 34.770816,
      "lng": 134.591608,
      "geocoding_level": null,
      "phone": "",
      "license_no": "",
      "license_date": null,
      "expire_date": null
    },
    {
      "name": "大姫産業株式会社",
      "name_kana": "ダイキサンギヨウ",
      "business_type": "㉗ 器具、容器包装の製造・加工業（合成樹脂が使用された器具又は容器包装の製造、加工に限る。）",
      "address": "兵庫県姫路市町田８番地",
      "lat": 34.866193,
      "lng": 134.637061,
      "geocoding_level": null,
      "phone": "079-267-0481",
      "license_no": "",
      "license_date": null,
      "expire_date": null
    },
    {
      "name": "ＨＯＰ　ＴＨＥＡＴＲＥ",
      "name_kana": "ホップシアター",
      "business_type": "① 飲食店営業",
      "address": "兵庫県姫路市駅前町247 御幸苑ビルＢ１Ｆ",
      "lat": 34.828249,
      "lng": 134.691263,
      "geocoding_level": null,
      "phone": "079-283-7650",
      "license_no": "70071814",
      "license_date": "2021-06-08",
      "expire_date": "2028-08-31"
    },
    {
      "name": "株式会社白鷺堂本舗",
      "name_kana": "カブシキガイシャシラサギドウホンポ",
      "business_type": "⑬ その他の食料・飲料販売業",
      "address": "兵庫県姫路市本町68番地 （家老屋敷跡）",
      "lat": 34.833871,
      "lng": 134.691941,
      "geocoding_level": null,
      "phone": "0792232157",
      "license_no": "",
      "license_date": null,
      "expire_date": null
    },
    {
      "name": "ラ・ムー姫路花田店（惣菜）",
      "name_kana": "ラムーヒメジハナダテン　ソウザイ",
      "business_type": "① 飲食店営業",
      "address": "兵庫県姫路市花田町上原田193番地1",
      "lat": 34.836941,
      "lng": 134.733307,
      "geocoding_level": null,
      "phone": "",
      "license_no": "70075952",
      "license_date": "2023-10-23",
      "expire_date": "2029-10-23"
    },
    {
      "name": "ラ・ムー姫路花田店（パクパク）",
      "name_kana": "ラムーヒメジハナダテン　パクパク",
      "business_type": "① 飲食店営業",
      "address": "兵庫県姫路市花田町上原田193番地1",
      "lat": 34.836941,
      "lng": 134.733307,
      "geocoding_level": null,
      "phone": "",
      "license_no": "70050225",
      "license_date": "2024-02-29",
      "expire_date": "2030-02-28"
    },
    {
      "name": "ラ・ムー姫路花田店",
      "name_kana": "ラムーヒメジハナダテン",
      "business_type": "③ 食肉販売業",
      "address": "兵庫県姫路市花田町上原田193番地1",
      "lat": 34.836941,
      "lng": 134.733307,
      "geocoding_level": null,
      "phone": "",
      "license_no": "70050223",
      "license_date": "2024-02-29",
      "expire_date": "2030-02-28"
    },
    {
      "name": "ラ・ムー姫路花田店",
      "name_kana": "ラムーヒメジハナダテン",
      "business_type": "④ 魚介類販売業",
      "address": "兵庫県姫路市花田町上原田193番地1",
      "lat": 34.836941,
      "lng": 134.733307,
      "geocoding_level": null,
      "phone": "",
      "license_no": "70050222",
      "license_date": "2024-02-29",
      "expire_date": "2030-02-28"
    },
    {
      "name": "ラ・ムー姫路南店",
      "name_kana": "ラムーヒメジミナミテン",
      "business_type": "③ 食肉販売業",
      "address": "兵庫県姫路市飾磨区中島1200番地",
      "lat": 34.794374,
      "lng": 134.675326,
      "geocoding_level": null,
      "phone": "",
      "license_no": "70048473",
      "license_date": "2025-11-28",
      "expire_date": "2031-11-30"
    },
    {
      "name": "ラ・ムー姫路南店（惣菜）",
      "name_kana": "ラムーヒメジミナミテン　ソウザイ",
      "business_type": "① 飲食店営業",
      "address": "兵庫県姫路市飾磨区中島1200番地",
      "lat": 34.794374,
      "lng": 134.675326,
      "geocoding_level": null,
      "phone": "",
      "license_no": "70048473",
      "license_date": "2025-11-28",
      "expire_date": "2031-11-30"
    },
    {
      "name": "ラ・ムー姫路南店（パクパク）",
      "name_kana": "ラムーヒメジミナミテン　パクパク",
      "business_type": "① 飲食店営業",
      "address": "兵庫県姫路市飾磨区中島1200番地",
      "lat": 34.794374,
      "lng": 134.675326,
      "geocoding_level": null,
      "phone": "",
      "license_no": "70048476",
      "license_date": "2025-11-28",
      "expire_date": "2031-11-30"
    },
    {
      "name": "まつおか",
      "name_kana": "マツオカ",
      "business_type": "① 飲食店営業",
      "address": "兵庫県姫路市南町１ 株式会社山陽百貨店　B１F",
      "lat": 34.828028,
      "lng": 134.689452,
      "geocoding_level": null,
      "phone": "0792235887",
      "license_no": "70060978",
      "license_date": "2025-05-30",
      "expire_date": "2031-05-31"
    },
    {
      "name": "イオンフードサプライ株式会社兵庫センター",
      "name_kana": "イオンフードサプライカブシキガイシャヒョウゴセンター",
      "business_type": "⑬ その他の食料・飲料販売業",
      "address": "兵庫県姫路市白浜町甲841-51",
      "lat": 34.77803,
      "lng": 134.705215,
      "geocoding_level": null,
      "phone": "0792472350",
      "license_no": "",
      "license_date": null,
      "expire_date": null
    },
    {
      "name": "憩自然農園",
      "name_kana": "イコルシゼンノウエン",
      "business_type": "㉑ 製茶業",
      "address": "兵庫県姫路市飾東町夕陽ケ丘115",
      "lat": 34.828216,
      "lng": 134.758745,
      "geocoding_level": null,
      "phone": "",
      "license_no": "",
      "license_date": null,
      "expire_date": null
    },
    {
      "name": "株式会社ハローズ東姫路店",
      "name_kana": "カブシキガイシャハローズヒガシヒメジテン",
      "business_type": "⑫ 自動販売機による販売業（コップ式自動販売機（自動洗浄・屋内設置）及び営業許可の対象となる自動販売機を除く）",
      "address": "兵庫県姫路市阿保66番地1",
      "lat": 34.821838,
      "lng": 134.705489,
      "geocoding_level": null,
      "phone": "079-287-0086",
      "license_no": "",
      "license_date": null,
      "expire_date": null
    },
    {
      "name": "株式会社ハローズ東姫路店",
      "name_kana": "カブシキガイシャハローズヒガシヒメジテン",
      "business_type": "③ 乳類販売業",
      "address": "兵庫県姫路市阿保66番地1",
      "lat": 34.821838,
      "lng": 134.705489,
      "geocoding_level": null,
      "phone": "079-287-0086",
      "license_no": "",
      "license_date": null,
      "expire_date": null
    },
    {
      "name": "株式会社ハローズ夢前台店",
      "name_kana": "カブシキガイシャハローズユメサキダイテン",
      "business_type": "③ 乳類販売業",
      "address": "兵庫県姫路市上手野310-8",
      "lat": 34.861231,
      "lng": 134.65843,
      "geocoding_level": null,
      "phone": "079-295-3786",
      "license_no": "",
      "license_date": null,
      "expire_date": null
    },
    {
      "name": "株式会社ハローズ夢前台店",
      "name_kana": "カブシキガイシャハローズユメサキダイテン",
      "business_type": "⑫ 自動販売機による販売業（コップ式自動販売機（自動洗浄・屋内設置）及び営業許可の対象となる自動販売機を除く）",
      "address": "兵庫県姫路市上手野310-8",
      "lat": 34.861231,
      "lng": 134.65843,
      "geocoding_level": null,
      "phone": "079-295-3786",
      "license_no": "",
      "license_date": null,
      "expire_date": null
    },
    {
      "name": "株式会社ハローズ香寺店",
      "name_kana": "カブシキガイシャハローズコウデラテン",
      "business_type": "③ 乳類販売業",
      "address": "兵庫県姫路市香寺町犬飼527-1",
      "lat": 34.898556,
      "lng": 134.734845,
      "geocoding_level": null,
      "phone": "079-265-0086",
      "license_no": "",
      "license_date": null,
      "expire_date": null
    },
    {
      "name": "株式会社ハローズ香寺店",
      "name_kana": "カブシキガイシャハローズコウデラテン",
      "business_type": "⑫ 自動販売機による販売業（コップ式自動販売機（自動洗浄・屋内設置）及び営業許可の対象となる自動販売機を除く）",
      "address": "兵庫県姫路市香寺町犬飼527-1",
      "lat": 34.898556,
      "lng": 134.734845,
      "geocoding_level": null,
      "phone": "079-265-0086",
      "license_no": "",
      "license_date": null,
      "expire_date": null
    },
    {
      "name": "株式会社ハローズ姫路飾磨店",
      "name_kana": "カブシキガイシャハローズヒメジシカマテン",
      "business_type": "③ 乳類販売業",
      "address": "兵庫県姫路市飾磨区加茂241-2",
      "lat": 34.800267,
      "lng": 134.659045,
      "geocoding_level": null,
      "phone": "079-243-0086",
      "license_no": "",
      "license_date": null,
      "expire_date": null
    },
    {
      "name": "株式会社ハローズ姫路飾磨店",
      "name_kana": "カブシキガイシャハローズヒメジシカマテン",
      "business_type": "⑫ 自動販売機による販売業（コップ式自動販売機（自動洗浄・屋内設置）及び営業許可の対象となる自動販売機を除く）",
      "address": "兵庫県姫路市飾磨区加茂241-2",
      "lat": 34.800267,
      "lng": 134.659045,
      "geocoding_level": null,
      "phone": "079-243-0086",
      "license_no": "",
      "license_date": null,
      "expire_date": null
    },
    {
      "name": "株式会社ハローズ　夢前台店",
      "name_kana": "カブシキガイシャハローズユメサキダイテン",
      "business_type": "④ 魚介類販売業",
      "address": "兵庫県姫路市上手野310-8",
      "lat": 34.861231,
      "lng": 134.65843,
      "geocoding_level": null,
      "phone": "079-295-3786",
      "license_no": "姫路市指令姫保　第70063384号",
      "license_date": "2022-02-28",
      "expire_date": "2029-02-28"
    },
    {
      "name": "株式会社ハローズ　夢前台店",
      "name_kana": "カブシキガイシャハローズユメサキダイテン",
      "business_type": "③ 食肉販売業",
      "address": "兵庫県姫路市上手野310-8",
      "lat": 34.861231,
      "lng": 134.65843,
      "geocoding_level": null,
      "phone": "079-295-3786",
      "license_no": "姫路市指令姫保　第70063385号",
      "license_date": "2022-02-28",
      "expire_date": "2029-02-28"
    },
    {
      "name": "株式会社ハローズ　夢前台店",
      "name_kana": "カブシキガイシャハローズユメサキダイテン",
      "business_type": "① 飲食店営業",
      "address": "兵庫県姫路市上手野310-8",
      "lat": 34.861231,
      "lng": 134.65843,
      "geocoding_level": null,
      "phone": "079-295-3786",
      "license_no": "姫路市指令姫保　第70063382号",
      "license_date": "2022-02-28",
      "expire_date": "2029-02-28"
    },
    {
      "name": "株式会社ハローズ　夢前台店",
      "name_kana": "カブシキガイシャハローズユメサキダイテン",
      "business_type": "⑪ 菓子製造業",
      "address": "兵庫県姫路市上手野310-8",
      "lat": 34.861231,
      "lng": 134.65843,
      "geocoding_level": null,
      "phone": "079-295-3786",
      "license_no": "姫路市指令姫保　第70063386号",
      "license_date": "2022-02-28",
      "expire_date": "2029-02-28"
    },
    {
      "name": "イオン姫路大津店",
      "name_kana": "イオン　ヒメジオオツテン",
      "business_type": "⑪ 百貨店、総合スーパー",
      "address": "兵庫県姫路市大津区大津町2-5",
      "lat": 34.806492,
      "lng": 134.60651,
      "geocoding_level": null,
      "phone": "",
      "license_no": "",
      "license_date": null,
      "expire_date": null
    },
    {
      "name": "株式会社ハローズ　東姫路店",
      "name_kana": "カブシキガイシャハローズヒガシヒメジテン",
      "business_type": "① 飲食店営業",
      "address": "兵庫県姫路市阿保甲66-1",
      "lat": 34.821838,
      "lng": 134.705489,
      "geocoding_level": null,
      "phone": "079-287-0086",
      "license_no": "姫路市指令　姫保　第70065165号",
      "license_date": "2022-05-31",
      "expire_date": "2029-05-31"
    },
    {
      "name": "株式会社ハローズ　東姫路店",
      "name_kana": "カブシキガイシャハローズヒガシヒメジテン",
      "business_type": "③ 食肉販売業",
      "address": "兵庫県姫路市阿保甲66-1",
      "lat": 34.821838,
      "lng": 134.705489,
      "geocoding_level": null,
      "phone": "079-287-0086",
      "license_no": "姫路市指令　姫保　第70065162号",
      "license_date": "2022-05-31",
      "expire_date": "2029-05-31"
    },
    {
      "name": "株式会社ハローズ　東姫路店",
      "name_kana": "カブシキガイシャハローズヒガシヒメジテン",
      "business_type": "④ 魚介類販売業",
      "address": "兵庫県姫路市阿保甲66-1",
      "lat": 34.821838,
      "lng": 134.705489,
      "geocoding_level": null,
      "phone": "079-287-0086",
      "license_no": "姫路市指令　姫保　第70065161号",
      "license_date": "2022-05-31",
      "expire_date": "2029-05-31"
    },
    {
      "name": "株式会社ハローズ　東姫路店",
      "name_kana": "カブシキガイシャハローズヒガシヒメジテン",
      "business_type": "⑪ 菓子製造業",
      "address": "兵庫県姫路市阿保甲66-1",
      "lat": 34.821838,
      "lng": 134.705489,
      "geocoding_level": null,
      "phone": "079-287-0086",
      "license_no": "姫路市指令　姫保　第70065164号",
      "license_date": "2022-05-31",
      "expire_date": "2029-05-31"
    },
    {
      "name": "株式会社ハローズ野里店",
      "name_kana": "カブシキガイシャハローズノザトテン",
      "business_type": "③ 食肉販売業",
      "address": "兵庫県姫路市西中島5番地1",
      "lat": 34.853038,
      "lng": 134.706928,
      "geocoding_level": null,
      "phone": "079-286-8686",
      "license_no": "70074944",
      "license_date": "2023-04-04",
      "expire_date": "2029-05-31"
    },
    {
      "name": "株式会社ハローズ野里店",
      "name_kana": "カブシキガイシャハローズノザトテン",
      "business_type": "① 飲食店営業",
      "address": "兵庫県姫路市西中島5番地1",
      "lat": 34.853038,
      "lng": 134.706928,
      "geocoding_level": null,
      "phone": "079-286-8686",
      "license_no": "70074943",
      "license_date": "2023-04-04",
      "expire_date": "2029-05-31"
    },
    {
      "name": "株式会社ハローズ野里店",
      "name_kana": "カブシキガイシャハローズノザトテン",
      "business_type": "④ 魚介類販売業",
      "address": "兵庫県姫路市西中島5番地1",
      "lat": 34.853038,
      "lng": 134.706928,
      "geocoding_level": null,
      "phone": "079-286-8686",
      "license_no": "70074942",
      "license_date": "2023-04-04",
      "expire_date": "2029-05-31"
    },
    {
      "name": "株式会社ハローズ野里店",
      "name_kana": "カブシキガイシャハローズノザトテン",
      "business_type": "⑪ 菓子製造業",
      "address": "兵庫県姫路市西中島5番地1",
      "lat": 34.853038,
      "lng": 134.706928,
      "geocoding_level": null,
      "phone": "079-286-8686",
      "license_no": "70074945",
      "license_date": "2023-04-04",
      "expire_date": "2029-05-31"
    },
    {
      "name": "株式会社ハローズ野里店",
      "name_kana": "カブシキガイシャハローズノザトテン",
      "business_type": "③ 乳類販売業",
      "address": "兵庫県姫路市西中島5番地1",
      "lat": 34.853038,
      "lng": 134.706928,
      "geocoding_level": null,
      "phone": "079-286-8686",
      "license_no": "",
      "license_date": null,
      "expire_date": null
    },
    {
      "name": "株式会社ハローズ砥堀店",
      "name_kana": "カブシキガイシャハローズトホリテン",
      "business_type": "① 飲食店営業",
      "address": "兵庫県姫路市砥堀185番地",
      "lat": 34.863886,
      "lng": 134.724562,
      "geocoding_level": null,
      "phone": "079-264-8600",
      "license_no": "70078465",
      "license_date": "2025-09-22",
      "expire_date": "2032-11-30"
    },
    {
      "name": "株式会社ハローズ砥堀店",
      "name_kana": "カブシキガイシャハローズトホリテン",
      "business_type": "③ 食肉販売業",
      "address": "兵庫県姫路市砥堀185番地",
      "lat": 34.863886,
      "lng": 134.724562,
      "geocoding_level": null,
      "phone": "079-264-8600",
      "license_no": "70078466",
      "license_date": "2025-09-22",
      "expire_date": "2032-11-30"
    },
    {
      "name": "株式会社ハローズ砥堀店",
      "name_kana": "カブシキガイシャハローズトホリテン",
      "business_type": "④ 魚介類販売業",
      "address": "兵庫県姫路市砥堀185番地",
      "lat": 34.863886,
      "lng": 134.724562,
      "geocoding_level": null,
      "phone": "079-264-8600",
      "license_no": "70078467",
      "license_date": "2025-09-22",
      "expire_date": "2032-11-30"
    },
    {
      "name": "株式会社ハローズ砥堀店",
      "name_kana": "カブシキガイシャハローズトホリテン",
      "business_type": "⑪ 菓子製造業",
      "address": "兵庫県姫路市砥堀185番地",
      "lat": 34.863886,
      "lng": 134.724562,
      "geocoding_level": null,
      "phone": "079-264-8600",
      "license_no": "70078468",
      "license_date": "2025-09-22",
      "expire_date": "2032-11-30"
    },
    {
      "name": "株式会社ハローズ砥堀店",
      "name_kana": "カブシキガイシャハローズトホリテン",
      "business_type": "⑪ 百貨店、総合スーパー",
      "address": "兵庫県姫路市砥堀185番地",
      "lat": 34.863886,
      "lng": 134.724562,
      "geocoding_level": null,
      "phone": "079-264-8600",
      "license_no": "",
      "license_date": null,
      "expire_date": null
    },
    {
      "name": "susu",
      "name_kana": "スス",
      "business_type": "① 飲食店営業",
      "address": "兵庫県姫路市駅前町261-2 オウレンビル２階",
      "lat": 34.828552,
      "lng": 134.691318,
      "geocoding_level": null,
      "phone": "079-222-5551",
      "license_no": "70077444",
      "license_date": "2024-10-31",
      "expire_date": "2030-11-30"
    },
    {
      "name": "uptoo cafe",
      "name_kana": "アップトゥーカフェ",
      "business_type": "① 飲食店営業",
      "address": "兵庫県姫路市駅前町261 オウレンビル1階",
      "lat": 34.828552,
      "lng": 134.691318,
      "geocoding_level": null,
      "phone": "079-224-5551",
      "license_no": "70077616",
      "license_date": "2024-12-25",
      "expire_date": "2031-02-28"
    },
    {
      "name": "",
      "name_kana": "",
      "business_type": "⑥ 弁当販売業",
      "address": "兵庫県姫路市南町1番地",
      "lat": 34.828658,
      "lng": 134.68975,
      "geocoding_level": null,
      "phone": "0792231238",
      "license_no": "",
      "license_date": null,
      "expire_date": null
    },
    {
      "name": "イオン姫路店",
      "name_kana": "イオンヒメジテン",
      "business_type": "⑪ 百貨店、総合スーパー",
      "address": "兵庫県姫路市増位本町２丁目１２－１０",
      "lat": 34.856664,
      "lng": 134.706333,
      "geocoding_level": null,
      "phone": "",
      "license_no": "",
      "license_date": null,
      "expire_date": null
    },
    {
      "name": "イオン姫路リバーシティ店",
      "name_kana": "イオンヒメジリバーシティテン",
      "business_type": "⑪ 百貨店、総合スーパー",
      "address": "兵庫県姫路市飾磨区細江2560番地",
      "lat": 34.798119,
      "lng": 134.668631,
      "geocoding_level": null,
      "phone": "0792312210",
      "license_no": "",
      "license_date": null,
      "expire_date": null
    },
    {
      "name": "日高食品工業(株)",
      "name_kana": "ヒダカショクヒンコウギョウカブシキカイシャ",
      "business_type": "㉒ 海藻製造・加工業",
      "address": "兵庫県姫路市花田町勅旨30-1",
      "lat": 34.834665,
      "lng": 134.720872,
      "geocoding_level": null,
      "phone": "0792511152",
      "license_no": "",
      "license_date": null,
      "expire_date": null
    },
    {
      "name": "ゴディバピオレ姫路２",
      "name_kana": "ゴディバピオレヒメジツー",
      "business_type": "⑬ その他の食料・飲料販売業",
      "address": "兵庫県姫路市豆腐町222",
      "lat": 34.827148,
      "lng": 134.689172,
      "geocoding_level": null,
      "phone": "079-226-6560",
      "license_no": "",
      "license_date": null,
      "expire_date": null
    },
    {
      "name": "ecoeat姫路二階町店",
      "name_kana": "エコイートヒメジニカイマチテン",
      "business_type": "⑬ その他の食料・飲料販売業",
      "address": "兵庫県姫路市二階町37",
      "lat": 34.831516,
      "lng": 134.692876,
      "geocoding_level": null,
      "phone": "",
      "license_no": "",
      "license_date": null,
      "expire_date": null
    },
    {
      "name": "ゆめタウン姫路",
      "name_kana": "ユメタウンヒメジ",
      "business_type": "⑪ 百貨店、総合スーパー",
      "address": "兵庫県姫路市神子岡前3丁目12-17",
      "lat": 34.841343,
      "lng": 134.669686,
      "geocoding_level": null,
      "phone": "079-299-1820",
      "license_no": "",
      "license_date": null,
      "expire_date": null
    },
    {
      "name": "びっくりドンキー姫路飾磨店",
      "name_kana": "ビックリドンキーヒメジシカマテン",
      "business_type": "⑧ 米穀類販売業",
      "address": "兵庫県姫路市飾磨区細江２５７９番地",
      "lat": 34.800259,
      "lng": 134.669574,
      "geocoding_level": null,
      "phone": "079-235-4120",
      "license_no": "",
      "license_date": null,
      "expire_date": null
    },
    {
      "name": "びっくりドンキー姫路飾磨店",
      "name_kana": "ビックリドンキーヒメジシカマテン",
      "business_type": "⑬ その他の食料・飲料販売業",
      "address": "兵庫県姫路市飾磨区細江２５７９番地",
      "lat": 34.800259,
      "lng": 134.669574,
      "geocoding_level": null,
      "phone": "079-235-4120",
      "license_no": "",
      "license_date": null,
      "expire_date": null
    },
    {
      "name": "びっくりドンキー姫路花影店",
      "name_kana": "ビックリドンキーヒメジハナカゲテン",
      "business_type": "⑧ 米穀類販売業",
      "address": "兵庫県姫路市花影町１丁目４０番地",
      "lat": 34.83153,
      "lng": 134.681947,
      "geocoding_level": null,
      "phone": "079-299-0311",
      "license_no": "",
      "license_date": null,
      "expire_date": null
    },
    {
      "name": "びっくりドンキー姫路花影店",
      "name_kana": "ビックリドンキーヒメジハナカゲテン",
      "business_type": "⑬ その他の食料・飲料販売業",
      "address": "兵庫県姫路市花影町１丁目４０番地",
      "lat": 34.83153,
      "lng": 134.681947,
      "geocoding_level": null,
      "phone": "079-299-0311",
      "license_no": "",
      "license_date": null,
      "expire_date": null
    },
    {
      "name": "スーパーセンタートライアル姫路店",
      "name_kana": "スーパーセンタートライアルヒメジテン",
      "business_type": "⑪ 百貨店、総合スーパー",
      "address": "兵庫県姫路市別所町小林３４６番地",
      "lat": 34.799745,
      "lng": 134.76294,
      "geocoding_level": null,
      "phone": "079-251-1222",
      "license_no": "",
      "license_date": null,
      "expire_date": null
    },
    {
      "name": "スーパーセンタートライアル姫路店",
      "name_kana": "スーパーセンタートライアルヒメジテン",
      "business_type": "⑪ 菓子製造業",
      "address": "兵庫県姫路市別所町小林３４６番地",
      "lat": 34.799745,
      "lng": 134.76294,
      "geocoding_level": null,
      "phone": "079-251-1222",
      "license_no": "70078041",
      "license_date": "2025-05-01",
      "expire_date": "2032-05-31"
    },
    {
      "name": "スーパーセンタートライアル姫路四郷店",
      "name_kana": "スーパーセンタートライアルヒメジシゴウテン",
      "business_type": "① 飲食店営業",
      "address": "兵庫県姫路市四郷町見野788番地1",
      "lat": 34.803742,
      "lng": 134.727591,
      "geocoding_level": null,
      "phone": "079-280-7124",
      "license_no": "70079100",
      "license_date": "2026-04-21",
      "expire_date": "2033-05-31"
    },
    {
      "name": "スーパーセンタートライアル姫路四郷店",
      "name_kana": "スーパーセンタートライアルヒメジシゴウテン",
      "business_type": "③ 食肉販売業",
      "address": "兵庫県姫路市四郷町見野788番地1",
      "lat": 34.803742,
      "lng": 134.727591,
      "geocoding_level": null,
      "phone": "079-280-7124",
      "license_no": "70079101",
      "license_date": "2026-04-21",
      "expire_date": "2033-05-31"
    },
    {
      "name": "スーパーセンタートライアル姫路四郷店",
      "name_kana": "スーパーセンタートライアルヒメジシゴウテン",
      "business_type": "⑪ 菓子製造業",
      "address": "兵庫県姫路市四郷町見野788番地1",
      "lat": 34.803742,
      "lng": 134.727591,
      "geocoding_level": null,
      "phone": "079-280-7124",
      "license_no": "70079102",
      "license_date": "2026-04-21",
      "expire_date": "2033-05-31"
    },
    {
      "name": "スーパーセンタートライアル姫路四郷店",
      "name_kana": "スーパーセンタートライアルヒメジシゴウテン",
      "business_type": "⑪ 百貨店、総合スーパー",
      "address": "兵庫県姫路市四郷町見野788番地１",
      "lat": 34.803742,
      "lng": 134.727591,
      "geocoding_level": null,
      "phone": "079-280-7124",
      "license_no": "",
      "license_date": null,
      "expire_date": null
    },
    {
      "name": "ＪＲ姫路駅弁当販売店",
      "name_kana": "ジェイアールヒメジエキベントウハンバイテン",
      "business_type": "⑥ 弁当販売業",
      "address": "兵庫県姫路市駅前町１８８－１",
      "lat": 34.827331,
      "lng": 134.691047,
      "geocoding_level": null,
      "phone": "079-224-0255",
      "license_no": "",
      "license_date": null,
      "expire_date": null
    },
    {
      "name": "石田米穀",
      "name_kana": "イシダベイコク",
      "business_type": "⑧ 米穀類販売業",
      "address": "兵庫県姫路市姫路市車崎1-1-12",
      "lat": 34.836256,
      "lng": 134.676682,
      "geocoding_level": null,
      "phone": "0792930900",
      "license_no": "",
      "license_date": null,
      "expire_date": null
    },
    {
      "name": "丸源ラーメン 姫路今宿店",
      "name_kana": "マルゲンラーメンヒメジイマジュクテン",
      "business_type": "⑬ その他の食料・飲料販売業",
      "address": "兵庫県姫路市東今宿6-1-2",
      "lat": 34.84142,
      "lng": 134.6688,
      "geocoding_level": null,
      "phone": "",
      "license_no": "",
      "license_date": null,
      "expire_date": null
    },
    {
      "name": "丸源ラーメン 姫路宮田店",
      "name_kana": "マルゲンラーメンヒメジミヤタテン",
      "business_type": "⑬ その他の食料・飲料販売業",
      "address": "兵庫県姫路市勝原区宮田185-7",
      "lat": 34.807933,
      "lng": 134.598568,
      "geocoding_level": null,
      "phone": "",
      "license_no": "",
      "license_date": null,
      "expire_date": null
    },
    {
      "name": "丸源ラーメン 姫路保城店",
      "name_kana": "マルゲンラーメンヒメジホオジロテン",
      "business_type": "⑬ その他の食料・飲料販売業",
      "address": "兵庫県姫路市保城651-1",
      "lat": 34.856376,
      "lng": 134.720305,
      "geocoding_level": null,
      "phone": "",
      "license_no": "",
      "license_date": null,
      "expire_date": null
    },
    {
      "name": "丸源ラーメン姫路保城店",
      "name_kana": "マルゲンラーメンヒメジホウシロテン",
      "business_type": "① 飲食店営業",
      "address": "兵庫県姫路市保城651-1",
      "lat": 34.856376,
      "lng": 134.720305,
      "geocoding_level": null,
      "phone": "079-262-6260",
      "license_no": "70068779",
      "license_date": "2025-02-28",
      "expire_date": "2031-02-28"
    },
    {
      "name": "焼肉きんぐ姫路広畑店",
      "name_kana": "ヤキニクキングヒメジヒロハタテン",
      "business_type": "① 飲食店営業",
      "address": "兵庫県姫路市広畑区北野町1-11-1",
      "lat": 34.805955,
      "lng": 134.630752,
      "geocoding_level": null,
      "phone": "079-263-7061",
      "license_no": "70076467",
      "license_date": "2024-03-28",
      "expire_date": "2031-05-31"
    },
    {
      "name": "丸源ラーメン 姫路今宿店",
      "name_kana": "マルゲンラーメン　ヒメジイマジュクテン",
      "business_type": "① 飲食店営業",
      "address": "兵庫県姫路市東今宿6-1-2",
      "lat": 34.84142,
      "lng": 134.6688,
      "geocoding_level": null,
      "phone": "079-299-3551",
      "license_no": "70059717",
      "license_date": "2024-05-31",
      "expire_date": "2031-05-31"
    },
    {
      "name": "町のべんとうや",
      "name_kana": "マチノベントウヤ",
      "business_type": "⑥ 弁当販売業",
      "address": "兵庫県姫路市市内一円",
      "lat": 34.888982,
      "lng": 134.660503,
      "geocoding_level": null,
      "phone": "090-5665-1276",
      "license_no": "",
      "license_date": null,
      "expire_date": null
    },
    {
      "name": "酒のソクハイ姫路本店",
      "name_kana": "サケノソクハイヒメジホンテン",
      "business_type": "⑬ その他の食料・飲料販売業",
      "address": "兵庫県姫路市魚町31 白鷺ビル1階",
      "lat": 34.831888,
      "lng": 134.687596,
      "geocoding_level": null,
      "phone": "079-226-5400",
      "license_no": "",
      "license_date": null,
      "expire_date": null
    },
    {
      "name": "姫路タンメン 砥堀店",
      "name_kana": "ヒメジタンメン トホリテン",
      "business_type": "① 飲食店営業",
      "address": "兵庫県姫路市砥堀696-1",
      "lat": 34.867464,
      "lng": 134.728133,
      "geocoding_level": null,
      "phone": "",
      "license_no": "70074130",
      "license_date": "2022-06-20",
      "expire_date": "2028-08-31"
    },
    {
      "name": "むつみしょっぷ(姫路430さ6238）",
      "name_kana": "ムツミショップ",
      "business_type": "① 魚介類販売業（包装済みの魚介類のみの販売）",
      "address": "兵庫県姫路市市内一円",
      "lat": 34.888982,
      "lng": 134.660503,
      "geocoding_level": null,
      "phone": "0792710623",
      "license_no": "",
      "license_date": null,
      "expire_date": null
    },
    {
      "name": "姫路みたいファーム",
      "name_kana": "ヒメジミタイファーム",
      "business_type": "㉔ その他の食料品製造・加工業",
      "address": "兵庫県姫路市網干区宮内270-1",
      "lat": 34.79923,
      "lng": 134.593724,
      "geocoding_level": null,
      "phone": "080-6101-8616",
      "license_no": "",
      "license_date": null,
      "expire_date": null
    },
    {
      "name": "串家物語ピオレ姫路店",
      "name_kana": "クシヤモノガタリピオレヒメジテン",
      "business_type": "⑬ その他の食料・飲料販売業",
      "address": "兵庫県姫路市駅前町188-1 ピオレ姫路本館　B1F-0006",
      "lat": 34.827331,
      "lng": 134.691047,
      "geocoding_level": null,
      "phone": "",
      "license_no": "",
      "license_date": null,
      "expire_date": null
    },
    {
      "name": "サンドラッグ姫路田寺店",
      "name_kana": "サンドラッグヒメジタデラテン",
      "business_type": "⑪ 百貨店、総合スーパー",
      "address": "兵庫県姫路市田寺3-6-14",
      "lat": 34.854833,
      "lng": 134.666036,
      "geocoding_level": null,
      "phone": "079-299-5057",
      "license_no": "",
      "license_date": null,
      "expire_date": null
    },
    {
      "name": "三菱電機　姫路　食堂北",
      "name_kana": "ミツビシデンキ　ヒメジ　ショクドウキタ",
      "business_type": "③ 乳類販売業",
      "address": "兵庫県姫路市千代田町840",
      "lat": 34.829843,
      "lng": 134.677582,
      "geocoding_level": null,
      "phone": "",
      "license_no": "",
      "license_date": null,
      "expire_date": null
    },
    {
      "name": "三菱電機姫路製作所　第３工場8Ｆ西側",
      "name_kana": "ミツビシデンキヒメジセイサクシヨダイサンコウジョウハタエフニシガワ",
      "business_type": "③ 乳類販売業",
      "address": "兵庫県姫路市千代田町840",
      "lat": 34.82984,
      "lng": 134.677544,
      "geocoding_level": null,
      "phone": "079-293-1251",
      "license_no": "",
      "license_date": null,
      "expire_date": null
    },
    {
      "name": "三菱電機　労組姫路支部ＰＰ",
      "name_kana": "ミツビシデンキ　ロウクミヒメジシブピーピー",
      "business_type": "③ 乳類販売業",
      "address": "兵庫県姫路市千代田町840",
      "lat": 34.829843,
      "lng": 134.677582,
      "geocoding_level": null,
      "phone": "079-293-1251",
      "license_no": "",
      "license_date": null,
      "expire_date": null
    },
    {
      "name": "三菱電機モビリティ姫路　第２工場中食品",
      "name_kana": "ミツビシデンキモビリティダイニコウジョウナカショクヒン",
      "business_type": "⑬ その他の食料・飲料販売業",
      "address": "兵庫県姫路市千代田町840番地",
      "lat": 34.82984,
      "lng": 134.677544,
      "geocoding_level": null,
      "phone": "",
      "license_no": "",
      "license_date": null,
      "expire_date": null
    },
    {
      "name": "神姫バス姫路本社４階",
      "name_kana": "シンキバスヒメジホンシャビルヨンカイ",
      "business_type": "⑬ その他の食料・飲料販売業",
      "address": "兵庫県姫路市北条口1-17",
      "lat": 34.827694,
      "lng": 134.694873,
      "geocoding_level": null,
      "phone": "079-437-3390",
      "license_no": "",
      "license_date": null,
      "expire_date": null
    },
    {
      "name": "三菱電機モビリティ姫路　第２技術棟1Ｆ",
      "name_kana": "ミツビシデンキモビリティヒメジダイニギジュツトウイッカイ",
      "business_type": "⑬ その他の食料・飲料販売業",
      "address": "兵庫県姫路市千代田町840番地",
      "lat": 34.82984,
      "lng": 134.677544,
      "geocoding_level": null,
      "phone": "0792933548",
      "license_no": "",
      "license_date": null,
      "expire_date": null
    },
    {
      "name": "浜田運送本社ＷＳ",
      "name_kana": "ハマダウンソウホンシャダブルエス",
      "business_type": "⑬ その他の食料・飲料販売業",
      "address": "兵庫県姫路市白浜町乙221-5",
      "lat": 34.789482,
      "lng": 134.71207,
      "geocoding_level": null,
      "phone": "",
      "license_no": "",
      "license_date": null,
      "expire_date": null
    },
    {
      "name": "姫路魚類株式会社",
      "name_kana": "ヒメジギヨルイ",
      "business_type": "㉖ 集団給食施設",
      "address": "兵庫県姫路市延末２９５番地",
      "lat": 34.82117,
      "lng": 134.679985,
      "geocoding_level": null,
      "phone": "079-221-6071",
      "license_no": "",
      "license_date": null,
      "expire_date": null
    },
    {
      "name": "姫路めばえ保育園",
      "name_kana": "ヒメジメバエホイクエン",
      "business_type": "㉖ 集団給食施設",
      "address": "兵庫県姫路市本町68",
      "lat": 34.837675,
      "lng": 134.695682,
      "geocoding_level": null,
      "phone": "079-224-0016",
      "license_no": "",
      "license_date": null,
      "expire_date": null
    },
    {
      "name": "ヌードルツアーズ 英賀保店",
      "name_kana": "ヌードルツアーズアガホテン",
      "business_type": "⑫ 自動販売機による販売業（コップ式自動販売機（自動洗浄・屋内設置）及び営業許可の対象となる自動販売機を除く）",
      "address": "兵庫県姫路市飾磨区城南町１丁目６５",
      "lat": 34.811348,
      "lng": 134.646722,
      "geocoding_level": null,
      "phone": "",
      "license_no": "",
      "license_date": null,
      "expire_date": null
    },
    {
      "name": "ヌードルツアーズ　塩町店",
      "name_kana": "ヌードルツアーズシオマチテン",
      "business_type": "⑫ 自動販売機による販売業（コップ式自動販売機（自動洗浄・屋内設置）及び営業許可の対象となる自動販売機を除く）",
      "address": "兵庫県姫路市塩町２０１",
      "lat": 34.831261,
      "lng": 134.689051,
      "geocoding_level": null,
      "phone": "",
      "license_no": "",
      "license_date": null,
      "expire_date": null
    },
    {
      "name": "姫路中央保育園",
      "name_kana": "ヒメジチュウオウホイクエン",
      "business_type": "㉖ 集団給食施設",
      "address": "兵庫県姫路市飯田799",
      "lat": 34.815594,
      "lng": 134.67285,
      "geocoding_level": null,
      "phone": "0792282911",
      "license_no": "",
      "license_date": null,
      "expire_date": null
    },
    {
      "name": "姫路中央こども園",
      "name_kana": "ヒメジチュウオウコドモエン",
      "business_type": "㉖ 集団給食施設",
      "address": "兵庫県姫路市飯田522-4",
      "lat": 34.817211,
      "lng": 134.67135,
      "geocoding_level": null,
      "phone": "0792607731",
      "license_no": "",
      "license_date": null,
      "expire_date": null
    },
    {
      "name": "姫路市立障害者支援センター",
      "name_kana": "ヒメジシリツショウガイシャシエンセンター",
      "business_type": "㉖ 集団給食施設",
      "address": "兵庫県姫路市保城３０９番地１",
      "lat": 34.858999,
      "lng": 134.710769,
      "geocoding_level": null,
      "phone": "079-282-2384",
      "license_no": "",
      "license_date": null,
      "expire_date": null
    },
    {
      "name": "うたごえ保育園",
      "name_kana": "ウタゴエホイクエン",
      "business_type": "㉖ 集団給食施設",
      "address": "兵庫県姫路市井ノ口184-1",
      "lat": 34.826624,
      "lng": 134.664245,
      "geocoding_level": null,
      "phone": "079-260-7000",
      "license_no": "",
      "license_date": null,
      "expire_date": null
    },
    {
      "name": "姫路駅前保育園　ニコパらんど",
      "name_kana": "ヒメジエキマエホイクエン　ニコパランド",
      "business_type": "㉖ 集団給食施設",
      "address": "兵庫県姫路市西駅前町73番地 姫路ターミナルスクエア3階",
      "lat": 34.827696,
      "lng": 134.689001,
      "geocoding_level": null,
      "phone": "079-283-2221",
      "license_no": "",
      "license_date": null,
      "expire_date": null
    },
    {
      "name": "イオンモール姫路リバーシティ",
      "name_kana": "イオンモールヒメジリバーシティ",
      "business_type": "⑬ その他の食料・飲料販売業",
      "address": "兵庫県姫路市飾磨区細江2560番地",
      "lat": 34.798119,
      "lng": 134.668631,
      "geocoding_level": null,
      "phone": "",
      "license_no": "",
      "license_date": null,
      "expire_date": null
    },
    {
      "name": "白鳥南保育園",
      "name_kana": "ハクチョウミナミホイクエン",
      "business_type": "㉖ 集団給食施設",
      "address": "兵庫県姫路市青山北１丁目１１－２",
      "lat": 34.855041,
      "lng": 134.643877,
      "geocoding_level": null,
      "phone": "",
      "license_no": "",
      "license_date": null,
      "expire_date": null
    },
    {
      "name": "白鳥保育園",
      "name_kana": "ハクチョウホイクエン",
      "business_type": "㉖ 集団給食施設",
      "address": "兵庫県姫路市六角２０４番地",
      "lat": 34.877971,
      "lng": 134.638484,
      "geocoding_level": null,
      "phone": "",
      "license_no": "",
      "license_date": null,
      "expire_date": null
    },
    {
      "name": "青山保育園",
      "name_kana": "アオヤマホイクエン",
      "business_type": "㉖ 集団給食施設",
      "address": "兵庫県姫路市青山西５丁目８－５２",
      "lat": 34.840971,
      "lng": 134.623885,
      "geocoding_level": null,
      "phone": "",
      "license_no": "",
      "license_date": null,
      "expire_date": null
    },
    {
      "name": "青山保育園　市役所北分園",
      "name_kana": "アオヤマホイクエン　シヤクショキタブンエン",
      "business_type": "㉖ 集団給食施設",
      "address": "兵庫県姫路市三左衛門堀西の町33",
      "lat": 34.816478,
      "lng": 134.68804,
      "geocoding_level": null,
      "phone": "",
      "license_no": "",
      "license_date": null,
      "expire_date": null
    },