{
  "meta": {
    "updated": 1783568789,
    "sources": [
      {
        "source": "厚生労働省 食品衛生申請等システム（オープンデータ）",
        "license": "公共データ利用規約（第1.0版, PDL1.0）"
      }
    ]
  },
  "data": [
    {
      "name": "厚木市南部学校給食センター",
      "name_kana": "アツギシナンブガッコウキュウショクセンター",
      "business_type": "① 飲食店営業",
      "address": "神奈川県厚木市船子602-7",
      "lat": 35.430882,
      "lng": 139.356194,
      "geocoding_level": null,
      "phone": "09061998781",
      "license_no": "2022-001-0263",
      "license_date": "2022-08-26",
      "expire_date": "2029-08-25"
    },
    {
      "name": "湘南カトレア保育園",
      "name_kana": "ショウナンカトレアホイクエン",
      "business_type": "① 飲食店営業",
      "address": "神奈川県厚木市田村町2-20 三橋ビルアネックス１F",
      "lat": 35.439178,
      "lng": 139.357742,
      "geocoding_level": null,
      "phone": "09035343421",
      "license_no": "第2023-001-0212号",
      "license_date": "2023-09-13",
      "expire_date": "2030-09-25"
    },
    {
      "name": "厚木市立荻野小学校",
      "name_kana": "アツギシリツオギノショウガッコウ",
      "business_type": "① 飲食店営業",
      "address": "神奈川県厚木市上荻野8",
      "lat": 35.491737,
      "lng": 139.32083,
      "geocoding_level": null,
      "phone": "090-6307-2329",
      "license_no": "第2024-001-0124号",
      "license_date": "2024-05-23",
      "expire_date": "2031-05-22"
    },
    {
      "name": "厚木市立上依知小学校",
      "name_kana": "アツギシリツカミエチショウガッコウ",
      "business_type": "① 飲食店営業",
      "address": "神奈川県厚木市上依知1657",
      "lat": 35.510955,
      "lng": 139.364001,
      "geocoding_level": null,
      "phone": "090-1255-8536",
      "license_no": "第2024-001-0125号",
      "license_date": "2024-05-23",
      "expire_date": "2031-05-22"
    },
    {
      "name": "子中保育園",
      "name_kana": "コナカホイクエン",
      "business_type": "① 飲食店営業",
      "address": "神奈川県厚木市下荻野７２９－７",
      "lat": 35.486196,
      "lng": 139.334411,
      "geocoding_level": null,
      "phone": "080-5964-8640",
      "license_no": "第2024-001-0295号",
      "license_date": "2024-09-26",
      "expire_date": "2030-10-23"
    },
    {
      "name": "マーガレット保育園",
      "name_kana": "マーガレットホイクエン",
      "business_type": "① 飲食店営業",
      "address": "神奈川県厚木市中町4-9-14 アソルティ厚木中町１F",
      "lat": 35.436696,
      "lng": 139.360339,
      "geocoding_level": null,
      "phone": "070-3545-4812",
      "license_no": "第2024-001-0489号",
      "license_date": "2024-12-12",
      "expire_date": "2032-01-29"
    },
    {
      "name": "厚木市立南毛利保育所本園",
      "name_kana": "アツギシリツナンモウシホイクショホンエン",
      "business_type": "① 飲食店営業",
      "address": "神奈川県厚木市長谷1247番地",
      "lat": 35.434267,
      "lng": 139.335982,
      "geocoding_level": null,
      "phone": "046-225-2261",
      "license_no": "第2025-001-0103号",
      "license_date": "2025-05-29",
      "expire_date": "2032-05-28"
    },
    {
      "name": "厚木市立南毛利保育所分園",
      "name_kana": "アツギシリツナンモウシホイクショブンエン",
      "business_type": "① 飲食店営業",
      "address": "神奈川県厚木市長谷1246番地4",
      "lat": 35.434147,
      "lng": 139.33646,
      "geocoding_level": null,
      "phone": "046-225-2216",
      "license_no": "第2025-001-0104号",
      "license_date": "2025-05-29",
      "expire_date": "2031-05-28"
    },
    {
      "name": "フィットネス＆スパココカラ本厚木",
      "name_kana": "フィットネスアンドスパココカラホンアツギ",
      "business_type": "⑤ コップ式自動販売機（自動洗浄・屋内設置）",
      "address": "神奈川県厚木市中町2-6-20",
      "lat": 35.440959,
      "lng": 139.364442,
      "geocoding_level": null,
      "phone": "046-297-1005",
      "license_no": "",
      "license_date": null,
      "expire_date": null
    },
    {
      "name": "Rintosull本厚木",
      "name_kana": "リントスルホンアツギ",
      "business_type": "⑫ 自動販売機による販売業（コップ式自動販売機（自動洗浄・屋内設置）及び営業許可の対象となる自動販売機を除く）",
      "address": "神奈川県厚木市中町2-2-8 厚木センタービル3階",
      "lat": 35.43942,
      "lng": 139.36443,
      "geocoding_level": null,
      "phone": "",
      "license_no": "",
      "license_date": null,
      "expire_date": null
    },
    {
      "name": "ホットヨガスタジオLAVA本厚木",
      "name_kana": "ホットヨガスタジオラバホンアツギ",
      "business_type": "⑫ 自動販売機による販売業（コップ式自動販売機（自動洗浄・屋内設置）及び営業許可の対象となる自動販売機を除く）",
      "address": "神奈川県厚木市中町3-6-14 MIRAI　BLDG．　2F",
      "lat": 35.44125,
      "lng": 139.362419,
      "geocoding_level": null,
      "phone": "046-297-7122",
      "license_no": "",
      "license_date": null,
      "expire_date": null
    },
    {
      "name": "ドン・キホーテ厚木",
      "name_kana": "ドン・キホーテアツギ",
      "business_type": "⑤ コップ式自動販売機（自動洗浄・屋内設置）",
      "address": "神奈川県厚木市妻田南2丁目8-5",
      "lat": 35.454319,
      "lng": 139.357948,
      "geocoding_level": null,
      "phone": "",
      "license_no": "",
      "license_date": null,
      "expire_date": null
    },
    {
      "name": "カルディコーヒーファーム　本厚木ミロード店",
      "name_kana": "カルディコーヒーファーム　ホンアツギミロードテン",
      "business_type": "⑬ その他の食料・飲料販売業",
      "address": "神奈川県厚木市泉町1-1 本厚木ミロード1-B1",
      "lat": 35.439613,
      "lng": 139.363971,
      "geocoding_level": null,
      "phone": "046-230-3262",
      "license_no": "",
      "license_date": null,
      "expire_date": null
    },
    {
      "name": "ホームセンターコーナン厚木下荻野店",
      "name_kana": "ホームセンターコーナンアツギシモオギノテン",
      "business_type": "⑪ 百貨店、総合スーパー",
      "address": "神奈川県厚木市下荻野1200番地1",
      "lat": 35.47458,
      "lng": 139.346119,
      "geocoding_level": null,
      "phone": "046-243-3939",
      "license_no": "",
      "license_date": null,
      "expire_date": null
    },
    {
      "name": "ダイソー　フードワン厚木長谷店",
      "name_kana": "ダイソー　フードワンアツギハセテン",
      "business_type": "⑬ その他の食料・飲料販売業",
      "address": "神奈川県厚木市長谷６－２０ フードワン厚木長谷店２階",
      "lat": 35.428226,
      "lng": 139.343385,
      "geocoding_level": null,
      "phone": "",
      "license_no": "",
      "license_date": null,
      "expire_date": null
    },
    {
      "name": "ダイソー　アミューあつぎ店",
      "name_kana": "ダイソー　アミューアツギテン",
      "business_type": "⑬ その他の食料・飲料販売業",
      "address": "神奈川県厚木市中町２－１２－１５地下１階",
      "lat": 35.442477,
      "lng": 139.365711,
      "geocoding_level": null,
      "phone": "",
      "license_no": "",
      "license_date": null,
      "expire_date": null
    },
    {
      "name": "ダイソー　アツギトレリス店",
      "name_kana": "ダイソー　アツギトレリステン",
      "business_type": "⑬ その他の食料・飲料販売業",
      "address": "神奈川県厚木市戸室５－３１－１",
      "lat": 35.448236,
      "lng": 139.342632,
      "geocoding_level": null,
      "phone": "",
      "license_no": "",
      "license_date": null,
      "expire_date": null
    },
    {
      "name": "コーナン厚木戸室店",
      "name_kana": "コーナンアツギトムロテン",
      "business_type": "⑪ 百貨店、総合スーパー",
      "address": "神奈川県厚木市戸室1-29-15",
      "lat": 35.450688,
      "lng": 139.352386,
      "geocoding_level": null,
      "phone": "046-297-3838",
      "license_no": "",
      "license_date": null,
      "expire_date": null
    },
    {
      "name": "コーナンビーバートザン厚木店",
      "name_kana": "コーナンビーバートザンアツギテン",
      "business_type": "⑪ 百貨店、総合スーパー",
      "address": "神奈川県厚木市戸田24-1",
      "lat": 35.408484,
      "lng": 139.360975,
      "geocoding_level": null,
      "phone": "046-228-3324",
      "license_no": "",
      "license_date": null,
      "expire_date": null
    },
    {
      "name": "秘密基地24",
      "name_kana": "ヒミツキチニジュウヨン",
      "business_type": "⑤ コップ式自動販売機（自動洗浄・屋内設置）",
      "address": "神奈川県厚木市中町4丁目4-15 TMビル本厚木６F",
      "lat": 35.438277,
      "lng": 139.362342,
      "geocoding_level": null,
      "phone": "090-8082-6214",
      "license_no": "",
      "license_date": null,
      "expire_date": null
    },
    {
      "name": "FiT24厚木林",
      "name_kana": "フィットニジュウヨンアツギハヤシ",
      "business_type": "⑤ コップ式自動販売機（自動洗浄・屋内設置）",
      "address": "神奈川県厚木市林5-23-5",
      "lat": 35.461562,
      "lng": 139.349578,
      "geocoding_level": null,
      "phone": "",
      "license_no": "",
      "license_date": null,
      "expire_date": null
    },
    {
      "name": "サニーライフ本厚木",
      "name_kana": "サニーライフホンアツギ",
      "business_type": "㉖ 集団給食施設",
      "address": "神奈川県厚木市林３－６－６０",
      "lat": 35.457379,
      "lng": 139.347602,
      "geocoding_level": null,
      "phone": "046-294-2700",
      "license_no": "",
      "license_date": null,
      "expire_date": null
    },
    {
      "name": "サニーライフ厚木戸室",
      "name_kana": "サニーライフアツギトムロ",
      "business_type": "㉖ 集団給食施設",
      "address": "神奈川県厚木市戸室５丁目８番地９号",
      "lat": 35.449068,
      "lng": 139.345442,
      "geocoding_level": null,
      "phone": "046-223-3600",
      "license_no": "",
      "license_date": null,
      "expire_date": null
    },
    {
      "name": "キッチンオリジン　厚木林店",
      "name_kana": "キッチンオリジンアツギバヤシテン",
      "business_type": "① 飲食店営業",
      "address": "神奈川県厚木市林4-12-39",
      "lat": 35.457391,
      "lng": 139.350756,
      "geocoding_level": null,
      "phone": "046-297-5197",
      "license_no": "2022－001－0245",
      "license_date": "2022-08-12",
      "expire_date": "2029-09-14"
    },
    {
      "name": "キッチンオリジン　厚木林店",
      "name_kana": "キッチンオリジンアツギバヤシテン",
      "business_type": "⑬ その他の食料・飲料販売業",
      "address": "神奈川県厚木市林4-12-39",
      "lat": 35.457391,
      "lng": 139.350756,
      "geocoding_level": null,
      "phone": "046-297-5197",
      "license_no": "",
      "license_date": null,
      "expire_date": null
    },
    {
      "name": "スターバックスコーヒー本厚木店",
      "name_kana": "スターバックスコーヒーホンアツギテン",
      "business_type": "⑬ その他の食料・飲料販売業",
      "address": "神奈川県厚木市中町2-6-20",
      "lat": 35.440959,
      "lng": 139.364442,
      "geocoding_level": null,
      "phone": "046-221-0648",
      "license_no": "",
      "license_date": null,
      "expire_date": null
    },
    {
      "name": "スターバックスコーヒー厚木及川店",
      "name_kana": "スターバックスコーヒーアツギオイガワテン",
      "business_type": "⑬ その他の食料・飲料販売業",
      "address": "神奈川県厚木市及川1101-1",
      "lat": 35.469997,
      "lng": 139.340432,
      "geocoding_level": null,
      "phone": "046-243-5067",
      "license_no": "",
      "license_date": null,
      "expire_date": null
    },
    {
      "name": "スターバックスコーヒー本厚木ミロード店",
      "name_kana": "スターバックスコーヒーホンアツギミロードテン",
      "business_type": "⑬ その他の食料・飲料販売業",
      "address": "神奈川県厚木市泉町1-1",
      "lat": 35.439613,
      "lng": 139.363971,
      "geocoding_level": null,
      "phone": "046-230-3091",
      "license_no": "",
      "license_date": null,
      "expire_date": null
    },
    {
      "name": "スターバックスコーヒー日産自動車テクニカルセンターV1棟店",
      "name_kana": "スターバックスコーヒーニッサンジドウシャテクニカルセンターヴイワントウテン",
      "business_type": "⑬ その他の食料・飲料販売業",
      "address": "神奈川県厚木市岡津古久560-2",
      "lat": 35.424125,
      "lng": 139.316928,
      "geocoding_level": null,
      "phone": "046-270-3116",
      "license_no": "",
      "license_date": null,
      "expire_date": null
    },
    {
      "name": "スターバックスコーヒー　本厚木ミロード店",
      "name_kana": "スターバックスコーヒー　ホンアツギミロードテン",
      "business_type": "① 飲食店営業",
      "address": "神奈川県厚木市泉町１－１",
      "lat": 35.439173,
      "lng": 139.364284,
      "geocoding_level": null,
      "phone": "046-230-3091",
      "license_no": "第2025-001-0566号",
      "license_date": "2026-03-10",
      "expire_date": "2033-04-21"
    },
    {
      "name": "シモハナ物流株式会社　厚木営業所",
      "name_kana": "シモハナブツリュウカブシキガイシャ　アツギエイギョウショ",
      "business_type": "㉙ その他",
      "address": "神奈川県厚木市棚沢1165-2",
      "lat": 35.500264,
      "lng": 139.334067,
      "geocoding_level": null,
      "phone": "0462424087",
      "license_no": "",
      "license_date": null,
      "expire_date": null
    },
    {
      "name": "RF１",
      "name_kana": "アールエフワン",
      "business_type": "⑥ 弁当販売業",
      "address": "神奈川県厚木市泉町１－１ 本厚木ミロード　地下1階",
      "lat": 35.439613,
      "lng": 139.363971,
      "geocoding_level": null,
      "phone": "046-230-3023",
      "license_no": "",
      "license_date": null,
      "expire_date": null
    },
    {
      "name": "サンドラッグ厚木下荻野店",
      "name_kana": "サンドラッグアツギシモオギノテン",
      "business_type": "⑪ 百貨店、総合スーパー",
      "address": "神奈川県厚木市下荻野1394-1",
      "lat": 35.477708,
      "lng": 139.340365,
      "geocoding_level": null,
      "phone": "046-404-9373",
      "license_no": "",
      "license_date": null,
      "expire_date": null
    },
    {
      "name": "サンドラッグ厚木戸室店",
      "name_kana": "サンドラッグアツギトムロテン",
      "business_type": "⑪ 百貨店、総合スーパー",
      "address": "神奈川県厚木市戸室１ー２６－１８",
      "lat": 35.449943,
      "lng": 139.353119,
      "geocoding_level": null,
      "phone": "046-224-1315",
      "license_no": "",
      "license_date": null,
      "expire_date": null
    },
    {
      "name": "サンドラッグアツギトレリス店",
      "name_kana": "サンドラッグアツギトレリステン",
      "business_type": "⑪ 百貨店、総合スーパー",
      "address": "神奈川県厚木市戸室５－３１－１ アツギトレリス １Ｆ",
      "lat": 35.447725,
      "lng": 139.343115,
      "geocoding_level": null,
      "phone": "046-404-9432",
      "license_no": "",
      "license_date": null,
      "expire_date": null
    },
    {
      "name": "スーパー三和　厚木飯山店",
      "name_kana": "スーパーサンワアツギイイヤマテン",
      "business_type": "⑫ 自動販売機による販売業（コップ式自動販売機（自動洗浄・屋内設置）及び営業許可の対象となる自動販売機を除く）",
      "address": "神奈川県厚木市飯山南5-17-10",
      "lat": 35.461989,
      "lng": 139.334591,
      "geocoding_level": null,
      "phone": "",
      "license_no": "",
      "license_date": null,
      "expire_date": null
    },
    {
      "name": "スギドラッグ  厚木恩名店",
      "name_kana": "スギドラッグ  アツギオンナテン",
      "business_type": "⑬ その他の食料・飲料販売業",
      "address": "神奈川県厚木市恩名一丁目16番58号",
      "lat": 35.438251,
      "lng": 139.353075,
      "geocoding_level": null,
      "phone": "046-297-3831",
      "license_no": "",
      "license_date": null,
      "expire_date": null
    },
    {
      "name": "スギドラッグ  厚木愛甲店",
      "name_kana": "スギドラッグ アツギアイコウテン",
      "business_type": "⑪ 百貨店、総合スーパー",
      "address": "神奈川県厚木市愛甲二丁目13番17号",
      "lat": 35.420407,
      "lng": 139.342659,
      "geocoding_level": null,
      "phone": "046-270-2161",
      "license_no": "",
      "license_date": null,
      "expire_date": null
    },
    {
      "name": "スギドラッグ　厚木中町店",
      "name_kana": "スギドラッグ　アツギナカチョウテン",
      "business_type": "⑪ 百貨店、総合スーパー",
      "address": "神奈川県厚木市中町三丁目４番２２号 第二会田ビル１階",
      "lat": 35.440024,
      "lng": 139.363028,
      "geocoding_level": null,
      "phone": "046-204-7739",
      "license_no": "",
      "license_date": null,
      "expire_date": null
    },
    {
      "name": "スギドラッグ　厚木一番街店",
      "name_kana": "スギドラッグ　アツギイチバンガイテン",
      "business_type": "⑪ 百貨店、総合スーパー",
      "address": "神奈川県厚木市中町二丁目８番１号 会田興業ビル１階",
      "lat": 35.441359,
      "lng": 139.364937,
      "geocoding_level": null,
      "phone": "046-206-7018",
      "license_no": "",
      "license_date": null,
      "expire_date": null
    },
    {
      "name": "建デポ厚木金田店　カップ",
      "name_kana": "ケンデポアツギカネダテン　カップ",
      "business_type": "② 調理機能を有する自動販売機（要許可）",
      "address": "神奈川県厚木市下依知１丁目１１－２２",
      "lat": 35.471692,
      "lng": 139.368525,
      "geocoding_level": null,
      "phone": "046-204-1811",
      "license_no": "第2021-070-0001号",
      "license_date": "2021-12-28",
      "expire_date": "2026-12-27"
    },
    {
      "name": "（株）オーネックス厚木工場",
      "name_kana": "オーネックスアツギコウジョウ",
      "business_type": "② 調理機能を有する自動販売機（要許可）",
      "address": "神奈川県厚木市上依知３０１２－３",
      "lat": 35.511652,
      "lng": 139.355312,
      "geocoding_level": null,
      "phone": "0462850600",
      "license_no": "第2022-070-0006号",
      "license_date": "2022-04-27",
      "expire_date": "2027-05-14"
    },
    {
      "name": "ヴァレオカペックジャパン厚木",
      "name_kana": "ヴァレオカペックジャパンアツギ",
      "business_type": "⑤ コップ式自動販売機（自動洗浄・屋内設置）",
      "address": "神奈川県厚木市飯山2585",
      "lat": 35.459687,
      "lng": 139.330799,
      "geocoding_level": null,
      "phone": "046-402-3206",
      "license_no": "",
      "license_date": null,
      "expire_date": null
    },
    {
      "name": "ヴァレオカペックジャパン厚木2",
      "name_kana": "ヴァレオカペックジャパンアツギニ",
      "business_type": "⑤ コップ式自動販売機（自動洗浄・屋内設置）",
      "address": "神奈川県厚木市飯山2585",
      "lat": 35.459687,
      "lng": 139.330799,
      "geocoding_level": null,
      "phone": "046-402-3260",
      "license_no": "",
      "license_date": null,
      "expire_date": null
    },
    {
      "name": "ヴァレオカペックジャパン厚木休憩所",
      "name_kana": "ヴァレオカペックジャパンアツギキュウケイジョ",
      "business_type": "⑤ コップ式自動販売機（自動洗浄・屋内設置）",
      "address": "神奈川県厚木市飯山2585",
      "lat": 35.468329,
      "lng": 139.312033,
      "geocoding_level": null,
      "phone": "046-402-3260",
      "license_no": "",
      "license_date": null,
      "expire_date": null
    },
    {
      "name": "市光工業　厚木製造所　２Ｆ事務所",
      "name_kana": "イチコウコウギョウアツギセイゾウショニエフジムショ",
      "business_type": "⑤ コップ式自動販売機（自動洗浄・屋内設置）",
      "address": "神奈川県厚木市下古沢８５７",
      "lat": 35.453718,
      "lng": 139.314811,
      "geocoding_level": null,
      "phone": "046-290-4710",
      "license_no": "",
      "license_date": null,
      "expire_date": null
    },
    {
      "name": "サンインテルネット厚木第二センターカップ",
      "name_kana": "サンインテルネットアツギダイニセンターカップ",
      "business_type": "⑤ コップ式自動販売機（自動洗浄・屋内設置）",
      "address": "神奈川県厚木市長谷６３５－１",
      "lat": 35.43168,
      "lng": 139.329179,
      "geocoding_level": null,
      "phone": "046-210-3354",
      "license_no": "",
      "license_date": null,
      "expire_date": null
    },
    {
      "name": "オギノパン厚木店",
      "name_kana": "オギノパンアツギテン",
      "business_type": "② 調理機能を有する自動販売機（要許可）",
      "address": "神奈川県厚木市長谷１５４４－２",
      "lat": 35.43365,
      "lng": 139.329907,
      "geocoding_level": null,
      "phone": "046-258-6201",
      "license_no": "第2023-070-0004号",
      "license_date": "2023-06-27",
      "expire_date": "2028-06-26"
    },
    {
      "name": "ドン・キホーテOUTLET館",
      "name_kana": "ドン・キホーテ アウトレットカン",
      "business_type": "⑪ 百貨店、総合スーパー",
      "address": "神奈川県厚木市妻田南2-8-12",
      "lat": 35.454385,
      "lng": 139.358579,
      "geocoding_level": null,
      "phone": "046-297-7441",
      "license_no": "",
      "license_date": null,
      "expire_date": null
    },
    {
      "name": "MEGAドン・キホーテ厚木店",
      "name_kana": "メガドン・キホーテアツギテン",
      "business_type": "⑪ 百貨店、総合スーパー",
      "address": "神奈川県厚木市妻田南2-8-5",
      "lat": 35.454319,
      "lng": 139.357948,
      "geocoding_level": null,
      "phone": "0570-034-911",
      "license_no": "",
      "license_date": null,
      "expire_date": null
    },
    {
      "name": "MEGAドン・キホーテ厚木店　あつぎ産直館",
      "name_kana": "メガドン・キホーテアツギテン　アツギサンチョクカン",
      "business_type": "⑪ 百貨店、総合スーパー",
      "address": "神奈川県厚木市妻田南2-8-5",
      "lat": 35.454319,
      "lng": 139.357948,
      "geocoding_level": null,
      "phone": "046-296-1311",
      "license_no": "",
      "license_date": null,
      "expire_date": null
    },
    {
      "name": "MEGAドン・キホーテ厚木店　あつぎ産直館",
      "name_kana": "メガドン・キホーテアツギテン　アツギサンチョクカン",
      "business_type": "① 飲食店営業",
      "address": "神奈川県厚木市妻田南2-8-5",
      "lat": 35.454319,
      "lng": 139.357948,
      "geocoding_level": null,
      "phone": "0570-034-911",
      "license_no": "第2025-001-0083号",
      "license_date": "2025-05-23",
      "expire_date": "2032-06-23"
    },
    {
      "name": "なんでも酒やカクヤス　本厚木店",
      "name_kana": "ナンデモサカヤカクヤス　ホンアツギテン",
      "business_type": "⑬ その他の食料・飲料販売業",
      "address": "神奈川県厚木市恩名1-20-22 高橋ビル",
      "lat": 35.439632,
      "lng": 139.353656,
      "geocoding_level": null,
      "phone": "046-297-3161",
      "license_no": "",
      "license_date": null,
      "expire_date": null
    },
    {
      "name": "有限会社やまぼし山岸酒店",
      "name_kana": "ユウゲンガイシャヤマボシヤマギシサケテン",
      "business_type": "⑬ その他の食料・飲料販売業",
      "address": "神奈川県厚木市小野1091",
      "lat": 35.43376,
      "lng": 139.318852,
      "geocoding_level": null,
      "phone": "0462470026",
      "license_no": "",
      "license_date": null,
      "expire_date": null
    },
    {
      "name": "銀座あけぼの　本厚木ミロード店",
      "name_kana": "ギンザアケボノ　ホンアツギミロードテン",
      "business_type": "⑬ その他の食料・飲料販売業",
      "address": "神奈川県厚木市泉町1-1 本厚木ミロード",
      "lat": 35.439173,
      "lng": 139.364284,
      "geocoding_level": null,
      "phone": "046-230-3289",
      "license_no": "",
      "license_date": null,
      "expire_date": null
    },
    {
      "name": "だるまのめ 本厚木店",
      "name_kana": "ダルマノメ　ホンアツギテン",
      "business_type": "① 飲食店営業",
      "address": "神奈川県厚木市中町2-4-11 柏木ビル1階",
      "lat": 35.440583,
      "lng": 139.365433,
      "geocoding_level": null,
      "phone": "046-221-4707",
      "license_no": "第2024-001-0373号",
      "license_date": "2024-10-22",
      "expire_date": "2031-11-05"
    },
    {
      "name": "壱角家 本厚木店",
      "name_kana": "イチカクヤ　ホンアツギテン",
      "business_type": "① 飲食店営業",
      "address": "神奈川県厚木市中町2-7-23",
      "lat": 35.441473,
      "lng": 139.36453,
      "geocoding_level": null,
      "phone": "046-297-7411",
      "license_no": "第2024-001-0421号",
      "license_date": "2024-11-12",
      "expire_date": "2031-12-03"
    },
    {
      "name": "監視太郎の店",
      "name_kana": "カンシタロウノミセ",
      "business_type": "⑬ その他の食料・飲料販売業",
      "address": "神奈川県厚木市水引",
      "lat": 35.447268,
      "lng": 139.358969,
      "geocoding_level": null,
      "phone": "",
      "license_no": "",
      "license_date": null,
      "expire_date": null
    },
    {
      "name": "尾家産業　神奈川支店",
      "name_kana": "オイエサンギョウ　カナガワシテン",
      "business_type": "⑬ その他の食料・飲料販売業",
      "address": "神奈川県厚木市恩名5-2-33",
      "lat": 35.445054,
      "lng": 139.342288,
      "geocoding_level": null,
      "phone": "046-222-3361",
      "license_no": "",
      "license_date": null,
      "expire_date": null
    },
    {
      "name": "ファミリーマート厚木北マルハン店",
      "name_kana": "ファミリーマートアツギキタマルハンテン",
      "business_type": "⑩ コンビニエンスストア",
      "address": "神奈川県厚木市下荻野1200-13",
      "lat": 35.475724,
      "lng": 139.344483,
      "geocoding_level": null,
      "phone": "0462-43-2127",
      "license_no": "",
      "license_date": null,
      "expire_date": null
    },
    {
      "name": "ごはんどき厚木店",
      "name_kana": "ゴハンドキアツギテン",
      "business_type": "① 飲食店営業",
      "address": "神奈川県厚木市戸室5-31-2",
      "lat": 35.449519,
      "lng": 139.342743,
      "geocoding_level": null,
      "phone": "046-297-3305",
      "license_no": "第2024-001-0133号",
      "license_date": "2024-06-07",
      "expire_date": "2031-07-12"
    },
    {
      "name": "マルハン厚木店",
      "name_kana": "マルハンアツギテン",
      "business_type": "⑤ コップ式自動販売機（自動洗浄・屋内設置）",
      "address": "神奈川県厚木市戸室5-31-2",
      "lat": 35.449519,
      "lng": 139.342743,
      "geocoding_level": null,
      "phone": "",
      "license_no": "",
      "license_date": null,
      "expire_date": null
    },
    {
      "name": "ごはんどき厚木北店",
      "name_kana": "ゴハンドキアツギキタテン",
      "business_type": "① 飲食店営業",
      "address": "神奈川県厚木市下荻野１２００－１３",
      "lat": 35.475716,
      "lng": 139.344501,
      "geocoding_level": null,
      "phone": "046-243-1777",
      "license_no": "第2025-001-0490号",
      "license_date": "2026-02-27",
      "expire_date": "2033-03-12"
    },
    {
      "name": "カフェ・バンカレラ厚木北店",
      "name_kana": "カフェ・バンカレラアツギキタテン",
      "business_type": "① 飲食店営業",
      "address": "神奈川県厚木市下荻野１２００－１３",
      "lat": 35.475716,
      "lng": 139.344501,
      "geocoding_level": null,
      "phone": "",
      "license_no": "第2025-001-0491号",
      "license_date": "2026-02-27",
      "expire_date": "2033-02-26"
    },
    {
      "name": "ごはんどき厚木北店",
      "name_kana": "ゴハンドキアツギキタテン",
      "business_type": "⑤ コップ式自動販売機（自動洗浄・屋内設置）",
      "address": "神奈川県厚木市下荻野１２００－１３",
      "lat": 35.475648,
      "lng": 139.345236,
      "geocoding_level": null,
      "phone": "046-243-1777",
      "license_no": "",
      "license_date": null,
      "expire_date": null
    },
    {
      "name": "栁下園",
      "name_kana": "ヤギシタエン",
      "business_type": "㉙ その他",
      "address": "神奈川県厚木市長沼46",
      "lat": 35.396186,
      "lng": 139.353457,
      "geocoding_level": null,
      "phone": "",
      "license_no": "",
      "license_date": null,
      "expire_date": null
    },
    {
      "name": "アマリア",
      "name_kana": "アマリア",
      "business_type": "⑬ その他の食料・飲料販売業",
      "address": "神奈川県厚木市泉町1-1 本厚木ミロード　１階正面入口前催事",
      "lat": 35.439173,
      "lng": 139.364284,
      "geocoding_level": null,
      "phone": "",
      "license_no": "",
      "license_date": null,
      "expire_date": null
    },
    {
      "name": "第二森の里",
      "name_kana": "ダイニモリノサト",
      "business_type": "㉖ 集団給食施設",
      "address": "神奈川県厚木市飯山3425",
      "lat": 35.454756,
      "lng": 139.324635,
      "geocoding_level": null,
      "phone": "0462483888",
      "license_no": "",
      "license_date": null,
      "expire_date": null
    },
    {
      "name": "高齢者総合福祉サービスセンター森の里",
      "name_kana": "コウレイシャソウゴウフクシサービスセンターモリノサト",
      "business_type": "㉖ 集団給食施設",
      "address": "神奈川県厚木市下古沢193",
      "lat": 35.449502,
      "lng": 139.322779,
      "geocoding_level": null,
      "phone": "0462488080",
      "license_no": "",
      "license_date": null,
      "expire_date": null
    },
    {
      "name": "こだわりや本厚木店",
      "name_kana": "コダワリヤホンアツギテン",
      "business_type": "⑬ その他の食料・飲料販売業",
      "address": "神奈川県厚木市泉町1-1 本厚木ミロード１　地下1階",
      "lat": 35.439613,
      "lng": 139.363971,
      "geocoding_level": null,
      "phone": "0462303051",
      "license_no": "",
      "license_date": null,
      "expire_date": null
    },
    {
      "name": "バーミヤン　厚木松枝店",
      "name_kana": "バーミヤンアツギマツエテン",
      "business_type": "① 飲食店営業",
      "address": "神奈川県厚木市松枝２丁目５－３",
      "lat": 35.450414,
      "lng": 139.35662,
      "geocoding_level": null,
      "phone": "046-297-1157",
      "license_no": "第2023-001-0473号",
      "license_date": "2024-01-16",
      "expire_date": "2030-01-20"
    },
    {
      "name": "バーミヤン　厚木松枝店",
      "name_kana": "バーミヤンアツギマツエテン",
      "business_type": "⑬ その他の食料・飲料販売業",
      "address": "神奈川県厚木市松枝２丁目５－３",
      "lat": 35.450414,
      "lng": 139.35662,
      "geocoding_level": null,
      "phone": "046-297-1157",
      "license_no": "",
      "license_date": null,
      "expire_date": null
    },
    {
      "name": "夢庵　厚木小野店",
      "name_kana": "ユメアンアツギオノテン",
      "business_type": "① 飲食店営業",
      "address": "神奈川県厚木市小野２１６６－１",
      "lat": 35.434735,
      "lng": 139.316513,
      "geocoding_level": null,
      "phone": "046-248-4581",
      "license_no": "第2024-001-0576号",
      "license_date": "2025-02-13",
      "expire_date": "2031-02-12"
    },
    {
      "name": "夢庵　厚木小野店",
      "name_kana": "ユメアンアツギオノテン",
      "business_type": "⑬ その他の食料・飲料販売業",
      "address": "神奈川県厚木市小野２１６６－１",
      "lat": 35.434735,
      "lng": 139.316513,
      "geocoding_level": null,
      "phone": "046-248-4581",
      "license_no": "",
      "license_date": null,
      "expire_date": null
    },
    {
      "name": "夢庵　厚木林店",
      "name_kana": "ユメアンアツギハヤシテン",
      "business_type": "① 飲食店営業",
      "address": "神奈川県厚木市林４－１２－４１",
      "lat": 35.45717,
      "lng": 139.350796,
      "geocoding_level": null,
      "phone": "046-224-6461",
      "license_no": "第2024-001-0577号",
      "license_date": "2025-02-18",
      "expire_date": "2031-02-17"
    },
    {
      "name": "夢庵　厚木林店",
      "name_kana": "ユメアンアツギハヤシテン",
      "business_type": "⑬ その他の食料・飲料販売業",
      "address": "神奈川県厚木市林４丁目１２－４１",
      "lat": 35.45717,
      "lng": 139.350796,
      "geocoding_level": null,
      "phone": "046-224-6461",
      "license_no": "",
      "license_date": null,
      "expire_date": null
    },
    {
      "name": "夢庵　厚木下荻野店",
      "name_kana": "ユメアンアツギシモオギノテン",
      "business_type": "① 飲食店営業",
      "address": "神奈川県厚木市下荻野９７４－２",
      "lat": 35.489612,
      "lng": 139.339942,
      "geocoding_level": null,
      "phone": "046-241-8951",
      "license_no": "第2024-001-0003",
      "license_date": "2024-04-05",
      "expire_date": "2030-04-30"
    },
    {
      "name": "夢庵　厚木下荻野店",
      "name_kana": "ユメアンアツギシモオギノテン",
      "business_type": "⑬ その他の食料・飲料販売業",
      "address": "神奈川県厚木市下荻野９７４－２",
      "lat": 35.489174,
      "lng": 139.339974,
      "geocoding_level": null,
      "phone": "046-241-8951",
      "license_no": "",
      "license_date": null,
      "expire_date": null
    },
    {
      "name": "ガスト 厚木中荻野店",
      "name_kana": "ガストアツギナカオギノテン",
      "business_type": "① 飲食店営業",
      "address": "神奈川県厚木市中荻野１７２５－４",
      "lat": 35.48424,
      "lng": 139.331738,
      "geocoding_level": null,
      "phone": "046-243-1080",
      "license_no": "第2025-001-0297号",
      "license_date": "2025-10-08",
      "expire_date": "2032-10-27"
    },
    {
      "name": "ガスト 厚木中荻野店",
      "name_kana": "ガストアツギナカオギノテン",
      "business_type": "⑬ その他の食料・飲料販売業",
      "address": "神奈川県厚木市中荻野１７２５－４",
      "lat": 35.48424,
      "lng": 139.331738,
      "geocoding_level": null,
      "phone": "046-243-1080",
      "license_no": "",
      "license_date": null,
      "expire_date": null
    },
    {
      "name": "ラ・オハナ 厚木恩名店",
      "name_kana": "ラ・オハナアツギオンナテン",
      "business_type": "⑬ その他の食料・飲料販売業",
      "address": "神奈川県厚木市恩名１丁目９ー７",
      "lat": 35.435823,
      "lng": 139.356888,
      "geocoding_level": null,
      "phone": "046-297-1528",
      "license_no": "",
      "license_date": null,
      "expire_date": null
    },
    {
      "name": "ステーキガスト 厚木妻田店",
      "name_kana": "ステーキガストアツギツマダテン",
      "business_type": "① 飲食店営業",
      "address": "神奈川県厚木市妻田西１丁目１－２１",
      "lat": 35.45483,
      "lng": 139.35865,
      "geocoding_level": null,
      "phone": "046-296-2616",
      "license_no": "第2024-001-0594号",
      "license_date": "2025-02-26",
      "expire_date": "2032-04-05"
    },
    {
      "name": "ステーキガスト 厚木妻田店",
      "name_kana": "ステーキガストアツギツマダテン",
      "business_type": "⑬ その他の食料・飲料販売業",
      "address": "神奈川県厚木市妻田西１丁目１－２１",
      "lat": 35.45483,
      "lng": 139.35865,
      "geocoding_level": null,
      "phone": "046-296-2616",
      "license_no": "",
      "license_date": null,
      "expire_date": null
    },
    {
      "name": "ガスト　厚木愛甲店",
      "name_kana": "ガストアツギアイコウテン",
      "business_type": "① 飲食店営業",
      "address": "神奈川県厚木市愛甲３－４－１",
      "lat": 35.422993,
      "lng": 139.349075,
      "geocoding_level": null,
      "phone": "046-270-1054",
      "license_no": "第2024-001-0412号",
      "license_date": "2024-11-01",
      "expire_date": "2031-12-01"
    },
    {
      "name": "ガスト　厚木愛甲店",
      "name_kana": "ガストアツギアイコウテン",
      "business_type": "⑬ その他の食料・飲料販売業",
      "address": "神奈川県厚木市愛甲３丁目４－１",
      "lat": 35.422993,
      "lng": 139.349075,
      "geocoding_level": null,
      "phone": "046-270-1054",
      "license_no": "",
      "license_date": null,
      "expire_date": null
    },
    {
      "name": "しゃぶ葉 小田急マルシェ本厚木店",
      "name_kana": "シャブヨウオダキュウマルシェホンアツギテン",
      "business_type": "① 飲食店営業",
      "address": "神奈川県厚木市中町１丁目１番１号３階",
      "lat": 35.440696,
      "lng": 139.366616,
      "geocoding_level": null,
      "phone": "046-297-3621",
      "license_no": "第2024-001-0080号",
      "license_date": "2024-05-07",
      "expire_date": "2031-06-06"
    },
    {
      "name": "しゃぶ葉 小田急マルシェ本厚木店",
      "name_kana": "シャブヨウオダキュウマルシェホンアツギテン",
      "business_type": "⑬ その他の食料・飲料販売業",
      "address": "神奈川県厚木市中町１丁目１番１号３階",
      "lat": 35.440696,
      "lng": 139.366616,
      "geocoding_level": null,
      "phone": "046-297-3621",
      "license_no": "",
      "license_date": null,
      "expire_date": null
    },
    {
      "name": "ガスト　厚木白山店",
      "name_kana": "ガストアツギシラヤマテン",
      "business_type": "① 飲食店営業",
      "address": "神奈川県厚木市飯山南１－１３－３１",
      "lat": 35.452593,
      "lng": 139.330005,
      "geocoding_level": null,
      "phone": "046-290-5500",
      "license_no": "第2022-001-0408号",
      "license_date": "2022-11-04",
      "expire_date": "2028-12-03"
    },
    {
      "name": "ガスト　厚木白山店",
      "name_kana": "ガストアツギシラヤマテン",
      "business_type": "⑬ その他の食料・飲料販売業",
      "address": "神奈川県厚木市飯山南１－１３－３１",
      "lat": 35.452593,
      "lng": 139.330005,
      "geocoding_level": null,
      "phone": "046-290-5500",
      "license_no": "",
      "license_date": null,
      "expire_date": null
    },
    {
      "name": "バーミヤン 厚木小野店",
      "name_kana": "バーミヤンアツギオノテン",
      "business_type": "① 飲食店営業",
      "address": "神奈川県厚木市小野２１６６－７",
      "lat": 35.434588,
      "lng": 139.316918,
      "geocoding_level": null,
      "phone": "046-270-2432",
      "license_no": "第2024-001-0325号",
      "license_date": "2024-10-03",
      "expire_date": "2030-11-09"
    },
    {
      "name": "バーミヤン 厚木小野店",
      "name_kana": "バーミヤンアツギオノテン",
      "business_type": "⑬ その他の食料・飲料販売業",
      "address": "神奈川県厚木市小野２１６６－７",
      "lat": 35.434608,
      "lng": 139.316907,
      "geocoding_level": null,
      "phone": "046-270-2432",
      "license_no": "",
      "license_date": null,
      "expire_date": null
    },
    {
      "name": "ガスト 本厚木駅前店",
      "name_kana": "ガストホンアツギエキマエテン",
      "business_type": "⑬ その他の食料・飲料販売業",
      "address": "神奈川県厚木市中町２丁目６－２０",
      "lat": 35.440959,
      "lng": 139.364442,
      "geocoding_level": null,
      "phone": "046-297-0223",
      "license_no": "",
      "license_date": null,
      "expire_date": null
    },
    {
      "name": "バーミヤン 厚木岡田店",
      "name_kana": "バーミヤンアツギオカタテン",
      "business_type": "⑬ その他の食料・飲料販売業",
      "address": "神奈川県厚木市岡田３丁目１－２７",
      "lat": 35.424575,
      "lng": 139.365176,
      "geocoding_level": null,
      "phone": "046-226-1661",
      "license_no": "",
      "license_date": null,
      "expire_date": null
    },
    {
      "name": "ちょい長1号",
      "name_kana": "チョイナガイチゴウ",
      "business_type": "① 飲食店営業",
      "address": "神奈川県厚木市（主たる営業地）",
      "lat": 35.443094,
      "lng": 139.36254,
      "geocoding_level": null,
      "phone": "",
      "license_no": "第2025-001-7045号",
      "license_date": "2026-03-24",
      "expire_date": "2031-03-23"
    },
    {
      "name": "ぞうさん3号",
      "name_kana": "ゾウサンサンゴウ",
      "business_type": "① 飲食店営業",
      "address": "神奈川県厚木市中町（主たる営業地）",
      "lat": 35.44047,
      "lng": 139.363411,
      "geocoding_level": null,
      "phone": "",
      "license_no": "第2025-001-7047号",
      "license_date": "2026-03-30",
      "expire_date": "2031-03-29"
    },
    {
      "name": "㈱崎陽軒　小田急本厚木ミロード店",
      "name_kana": "カ　キヨウケン オダキュウホンアツギミロードテン",
      "business_type": "⑥ 弁当販売業",
      "address": "神奈川県厚木市泉町1-1 本厚木ミロード1　B1",
      "lat": 35.439613,
      "lng": 139.363971,
      "geocoding_level": null,
      "phone": "0462303279",
      "license_no": "",
      "license_date": null,
      "expire_date": null
    },
    {
      "name": "厚木はないろ保育園",
      "name_kana": "アツギハナイロホイクエン",
      "business_type": "㉖ 集団給食施設",
      "address": "神奈川県厚木市寿町2丁目8番20号 常盤ビル",
      "lat": 35.445455,
      "lng": 139.3663,
      "geocoding_level": null,
      "phone": "0462970250",
      "license_no": "",
      "license_date": null,
      "expire_date": null
    },
    {
      "name": "マックスバリュエクスプレス厚木下荻野店",
      "name_kana": "マックスバリュエクスプレスアツギシモオギノテン",
      "business_type": "⑪ 百貨店、総合スーパー",
      "address": "神奈川県厚木市下荻野453-1",
      "lat": 35.480357,
      "lng": 139.341329,
      "geocoding_level": null,
      "phone": "046-241-5177",
      "license_no": "",
      "license_date": null,
      "expire_date": null
    },
    {
      "name": "マックスバリュ厚木妻田店",
      "name_kana": "マックスバリュアツギツマダテン",
      "business_type": "⑪ 百貨店、総合スーパー",
      "address": "神奈川県厚木市妻田北2-13-16",
      "lat": 35.466019,
      "lng": 139.360167,
      "geocoding_level": null,
      "phone": "046-296-8600",
      "license_no": "",
      "license_date": null,
      "expire_date": null
    },
    {
      "name": "マックスバリュ厚木妻田店",
      "name_kana": "マックスバリュアツギツマダテン",
      "business_type": "⑫ 自動販売機による販売業（コップ式自動販売機（自動洗浄・屋内設置）及び営業許可の対象となる自動販売機を除く）",
      "address": "神奈川県厚木市妻田北2-13-16",
      "lat": 35.466019,
      "lng": 139.360167,
      "geocoding_level": null,
      "phone": "046-296-8600",
      "license_no": "",
      "license_date": null,
      "expire_date": null
    },
    {
      "name": "ユニオンチーズ株式会社",
      "name_kana": "ユニオンチーズカブシキガイシャ",
      "business_type": "⑬ その他の食料・飲料販売業",
      "address": "神奈川県厚木市旭町4丁目15番33号",
      "lat": 35.429849,
      "lng": 139.370473,
      "geocoding_level": null,
      "phone": "080-3656-8115",
      "license_no": "",
      "license_date": null,
      "expire_date": null
    },
    {
      "name": "くら寿司　厚木店",
      "name_kana": "クラズシ　アツギテン",
      "business_type": "① 飲食店営業",
      "address": "神奈川県厚木市恩名1-8-8",
      "lat": 35.43687,
      "lng": 139.356834,
      "geocoding_level": null,
      "phone": "046-294-0610",
      "license_no": "2025-001-0053",
      "license_date": "2025-05-01",
      "expire_date": "2031-05-25"
    },
    {
      "name": "くれよん保育室",
      "name_kana": "クレヨンホイクシツ",
      "business_type": "㉖ 集団給食施設",
      "address": "神奈川県厚木市飯山南5丁目28番10号",
      "lat": 35.461714,
      "lng": 139.33322,
      "geocoding_level": null,
      "phone": "0462818056",
      "license_no": "",
      "license_date": null,
      "expire_date": null
    },
    {
      "name": "ドラッグセイムス下川入店",
      "name_kana": "ドラッグセイムスシモカワイリテン",
      "business_type": "⑬ その他の食料・飲料販売業",
      "address": "神奈川県厚木市下川入227-1",
      "lat": 35.503825,
      "lng": 139.352779,
      "geocoding_level": null,
      "phone": "0462441261",
      "license_no": "",
      "license_date": null,
      "expire_date": null
    },
    {
      "name": "ドラッグセイムス厚木下川入店",
      "name_kana": "ドラッグセイムスアツギシモカワイリテン",
      "business_type": "⑬ その他の食料・飲料販売業",
      "address": "神奈川県厚木市下川入240-10",
      "lat": 35.504515,
      "lng": 139.353948,
      "geocoding_level": null,
      "phone": "046-281-7772",
      "license_no": "",
      "license_date": null,
      "expire_date": null
    },
    {
      "name": "ドラッグセイムス厚木岡田店",
      "name_kana": "ドラッグセイムスアツギオカダテン",
      "business_type": "⑬ その他の食料・飲料販売業",
      "address": "神奈川県厚木市岡田１－７－３８",
      "lat": 35.431288,
      "lng": 139.362419,
      "geocoding_level": null,
      "phone": "046-226-5079",
      "license_no": "",
      "license_date": null,
      "expire_date": null
    },
    {
      "name": "ウェルパーク厚木三田店",
      "name_kana": "ウェルパークアツギサンダテン",
      "business_type": "⑬ その他の食料・飲料販売業",
      "address": "神奈川県厚木市三田二丁目2番19号",
      "lat": 35.476562,
      "lng": 139.345657,
      "geocoding_level": null,
      "phone": "046-212-2743",
      "license_no": "",
      "license_date": null,
      "expire_date": null
    },
    {
      "name": "ザ・ビッグ厚木旭町店",
      "name_kana": "ザ・ビッグアツギアサヒチョウテン",
      "business_type": "⑪ 百貨店、総合スーパー",
      "address": "神奈川県厚木市旭町5-35-8",
      "lat": 35.431605,
      "lng": 139.363577,
      "geocoding_level": null,
      "phone": "046-227-0888",
      "license_no": "",
      "license_date": null,
      "expire_date": null
    },
    {
      "name": "岩井機械工業株式会社　厚木工場",
      "name_kana": "イワイキカイコウギョウ　アツギコウジョウ",
      "business_type": "㉗ 器具、容器包装の製造・加工業（合成樹脂が使用された器具又は容器包装の製造、加工に限る。）",
      "address": "神奈川県厚木市上依知3006-3",
      "lat": 35.514863,
      "lng": 139.354531,
      "geocoding_level": null,
      "phone": "046-286-0022",
      "license_no": "",
      "license_date": null,
      "expire_date": null
    },
    {
      "name": "大洋テクノ株式会社",
      "name_kana": "タイヨウテクノカブシキカイシャ",
      "business_type": "⑬ その他の食料・飲料販売業",
      "address": "神奈川県厚木市温水1998-10",
      "lat": 35.447585,
      "lng": 139.338092,
      "geocoding_level": null,
      "phone": "0462905222",
      "license_no": "",
      "license_date": null,
      "expire_date": null
    },
    {
      "name": "相州病院",
      "name_kana": "ソウシュウビョウイン",
      "business_type": "① 飲食店営業",
      "address": "神奈川県厚木市上荻野1682-3",
      "lat": 35.506228,
      "lng": 139.308664,
      "geocoding_level": null,
      "phone": "046-241-3351",
      "license_no": "第2023-001-0302号",
      "license_date": "2023-09-25",
      "expire_date": "2030-09-30"
    },
    {
      "name": "社会福祉法人　敬和会　けいわ保育園",
      "name_kana": "シャカイフクシホウジン　ケイワカイ　ケイワホイクエン",
      "business_type": "㉖ 集団給食施設",
      "address": "神奈川県厚木市中町3-3-9 アーバンプラザ3階",
      "lat": 35.440155,
      "lng": 139.360873,
      "geocoding_level": null,
      "phone": "046-221-4570",
      "license_no": "",
      "license_date": null,
      "expire_date": null
    },
    {
      "name": "白石商店合同会社",
      "name_kana": "シライシショウテンゴウドウガイシャ",
      "business_type": "⑥ 弁当販売業",
      "address": "神奈川県厚木市愛甲1-4-21 丸入ビル1階",
      "lat": 35.418279,
      "lng": 139.343462,
      "geocoding_level": null,
      "phone": "07050453548",
      "license_no": "",
      "license_date": null,
      "expire_date": null
    },
    {
      "name": "びっくりドンキー厚木妻田店",
      "name_kana": "ビックリドンキーアツギツマダテン",
      "business_type": "⑧ 米穀類販売業",
      "address": "神奈川県厚木市妻田南２丁目８番１９号",
      "lat": 35.453766,
      "lng": 139.358545,
      "geocoding_level": null,
      "phone": "046-296-5631",
      "license_no": "",
      "license_date": null,
      "expire_date": null
    },
    {
      "name": "びっくりドンキー厚木妻田店",
      "name_kana": "ビックリドンキーアツギツマダテン",
      "business_type": "⑬ その他の食料・飲料販売業",
      "address": "神奈川県厚木市妻田南２丁目８番１９号",
      "lat": 35.453766,
      "lng": 139.358545,
      "geocoding_level": null,
      "phone": "046-296-5631",
      "license_no": "",
      "license_date": null,
      "expire_date": null
    },
    {
      "name": "カネ美食品株式会社　横浜工場",
      "name_kana": "カネミショクヒンヨコハマコウジョウ",
      "business_type": "㉖ 複合型そうざい製造業",
      "address": "神奈川県厚木市上依知字上ノ原3007-2",
      "lat": 35.515644,
      "lng": 139.351432,
      "geocoding_level": null,
      "phone": "0462843580",
      "license_no": "第2024-074-0001号",
      "license_date": "2024-06-24",
      "expire_date": "2031-07-01"
    },
    {
      "name": "デニーズ厚木店",
      "name_kana": "デニーズアツギテン",
      "business_type": "① 飲食店営業",
      "address": "神奈川県厚木市田村町3-22",
      "lat": 35.4381,
      "lng": 139.35771,
      "geocoding_level": null,
      "phone": "080-3445-0399",
      "license_no": "第２０２２－００１－００４５号",
      "license_date": "2022-04-15",
      "expire_date": "2029-04-14"
    },
    {
      "name": "デニーズ厚木店",
      "name_kana": "デニーズアツギテン",
      "business_type": "⑬ その他の食料・飲料販売業",
      "address": "神奈川県厚木市田村町3-22",
      "lat": 35.4381,
      "lng": 139.35771,
      "geocoding_level": null,
      "phone": "080-3445-0399",
      "license_no": "",
      "license_date": null,
      "expire_date": null
    },
    {
      "name": "丸源ラーメン 厚木インター店",
      "name_kana": "マルゲンラーメンアツギインターテン",
      "business_type": "⑬ その他の食料・飲料販売業",
      "address": "神奈川県厚木市岡田3012",
      "lat": 35.423372,
      "lng": 139.358671,
      "geocoding_level": null,
      "phone": "046-258-6622",
      "license_no": "",
      "license_date": null,
      "expire_date": null
    },
    {
      "name": "イオン厚木店",
      "name_kana": "イオンアツギテン",
      "business_type": "⑪ 百貨店、総合スーパー",
      "address": "神奈川県厚木市中町1-5-10",
      "lat": 35.442181,
      "lng": 139.366658,
      "geocoding_level": null,
      "phone": "046-223-5311",
      "license_no": "",
      "license_date": null,
      "expire_date": null
    },
    {
      "name": "イオン厚木店（B1　ドリップカフェ）",
      "name_kana": "イオンアツギテン　チカ　ドリップカフェ",
      "business_type": "① 飲食店営業",
      "address": "神奈川県厚木市中町1-5-10",
      "lat": 35.442181,
      "lng": 139.366658,
      "geocoding_level": null,
      "phone": "046-223-5311",
      "license_no": "第2021-001-0555号",
      "license_date": "2022-01-27",
      "expire_date": "2028-02-08"
    },
    {
      "name": "イオンリテール㈱イオン厚木店　魚魚炎",
      "name_kana": "イオンリテールイオンアツギテントトエン",
      "business_type": "① 飲食店営業",
      "address": "神奈川県厚木市中町1-5-10",
      "lat": 35.442181,
      "lng": 139.366658,
      "geocoding_level": null,
      "phone": "046-223-5311",
      "license_no": "第2025-001-0546号",
      "license_date": "2026-03-11",
      "expire_date": "2033-03-10"
    },
    {
      "name": "玉ちゃんの家",
      "name_kana": "ダマチャンノイエ",
      "business_type": "⑦ 野菜果物販売業",
      "address": "神奈川県厚木市旭町1-20-6 YSDビル",
      "lat": 35.436286,
      "lng": 139.364184,
      "geocoding_level": null,
      "phone": "09098476740",
      "license_no": "",
      "license_date": null,
      "expire_date": null
    },
    {
      "name": "厚木ヤクルト販売㈱　荻野センター",
      "name_kana": "アツギヤクルトハンバイカブシキカイシャ　オギノセンター",
      "business_type": "⑬ その他の食料・飲料販売業",
      "address": "神奈川県厚木市下荻野1135-6",
      "lat": 35.479679,
      "lng": 139.342602,
      "geocoding_level": null,
      "phone": "046-241-8955",
      "license_no": "",
      "license_date": null,
      "expire_date": null
    },
    {
      "name": "厚木ヤクルト販売㈱　依知のぞみセンター",
      "name_kana": "アツギヤクルトハンバイカブシキカイシャ　イチノゾミセンター",
      "business_type": "⑬ その他の食料・飲料販売業",
      "address": "神奈川県厚木市山際588-1",
      "lat": 35.502609,
      "lng": 139.361051,
      "geocoding_level": null,
      "phone": "046-244-2362",
      "license_no": "",
      "license_date": null,
      "expire_date": null
    },
    {
      "name": "厚木ヤクルト販売㈱　厚木栄光センター",
      "name_kana": "アツギヤクルトハンバイカブシキカイシャ　アツギエイコウセンター",
      "business_type": "⑬ その他の食料・飲料販売業",
      "address": "神奈川県厚木市栄町1-15-11 カーサよねやま1F",
      "lat": 35.443433,
      "lng": 139.358196,
      "geocoding_level": null,
      "phone": "046-223-1366",
      "license_no": "",
      "license_date": null,
      "expire_date": null
    },
    {
      "name": "厚木ヤクルト販売㈱　荻野むつみセンター",
      "name_kana": "アツギヤクルトハンバイカブシキカイシヤ　オギノムツミセンター",
      "business_type": "⑬ その他の食料・飲料販売業",
      "address": "神奈川県厚木市下荻野1042-5",
      "lat": 35.484768,
      "lng": 139.341434,
      "geocoding_level": null,
      "phone": "046-241-8955",
      "license_no": "",
      "license_date": null,
      "expire_date": null
    },
    {
      "name": "ちょび３号",
      "name_kana": "チョビサンゴウ",
      "business_type": "① 飲食店営業",
      "address": "神奈川県厚木市（主たる営業地）",
      "lat": 35.443094,
      "lng": 139.36254,
      "geocoding_level": null,
      "phone": "",
      "license_no": "2025-001-7025",
      "license_date": "2025-10-01",
      "expire_date": "2030-09-30"
    },
    {
      "name": "アーバンサポーター3号",
      "name_kana": "アーバンサポーターサンゴウ",
      "business_type": "① 飲食店営業",
      "address": "神奈川県厚木市寿町３丁目４２４−１",
      "lat": 35.445688,
      "lng": 139.362142,
      "geocoding_level": null,
      "phone": "",
      "license_no": "2025-001-7028",
      "license_date": "2025-10-09",
      "expire_date": "2030-10-08"
    },
    {
      "name": "アイエイチロジスティクスサービス相模センター",
      "name_kana": "アイエイチロジスティクスサービスサガミセンター",
      "business_type": "㉙ その他",
      "address": "神奈川県厚木市酒井3041",
      "lat": 35.420696,
      "lng": 139.3575,
      "geocoding_level": null,
      "phone": "",
      "license_no": "",
      "license_date": null,
      "expire_date": null
    },
    {
      "name": "アイエイチロジスティクスサービス神奈川LC",
      "name_kana": "アイエイチロジスティクスサービスカナガワエルシー",
      "business_type": "㉙ その他",
      "address": "神奈川県厚木市愛甲東2丁目16-1",
      "lat": 35.417946,
      "lng": 139.349718,
      "geocoding_level": null,
      "phone": "",
      "license_no": "",
      "license_date": null,
      "expire_date": null
    },
    {
      "name": "肉汁餃子のダンダダン　 本厚木店",
      "name_kana": "ニクジュウギョウザノダンダダン　ホンアツギテン",
      "business_type": "① 飲食店営業",
      "address": "神奈川県厚木市中町2-5-3",
      "lat": 35.44096,
      "lng": 139.364853,
      "geocoding_level": null,
      "phone": "046-225-5450",
      "license_no": "第2022-001-0344号",
      "license_date": "2022-09-28",
      "expire_date": "2029-09-28"
    },
    {
      "name": "肉汁餃子のダンダダン　 本厚木店",
      "name_kana": "ニクジュウギョウザノダンダダン　ホンアツギテン",
      "business_type": "⑬ その他の食料・飲料販売業",
      "address": "神奈川県厚木市中町2-5-3",
      "lat": 35.44096,
      "lng": 139.364853,
      "geocoding_level": null,
      "phone": "046-225-5450",
      "license_no": "",
      "license_date": null,
      "expire_date": null
    },
    {
      "name": "健康フーズ株式会社 厚木工場",
      "name_kana": "ケンコウフーズカブシキガイシャ アツギコウジョウ",
      "business_type": "⑮ いわゆる健康食品の製造・加工業",
      "address": "神奈川県厚木市酒井932-1",
      "lat": 35.416873,
      "lng": 139.35941,
      "geocoding_level": null,
      "phone": "0462205211",
      "license_no": "",
      "license_date": null,
      "expire_date": null
    },
    {
      "name": "健康フーズ株式会社 厚木工場",
      "name_kana": "ケンコウフーズカブシキガイシャ アツギコウジョウ",
      "business_type": "㉔ その他の食料品製造・加工業",
      "address": "神奈川県厚木市酒井932-1",
      "lat": 35.416873,
      "lng": 139.35941,
      "geocoding_level": null,
      "phone": "0462205211",
      "license_no": "",
      "license_date": null,
      "expire_date": null
    },
    {
      "name": "健康フーズ株式会社 第二工場",
      "name_kana": "ケンコウフーズカブシキガイシャ ダイニコウジョウ",
      "business_type": "⑮ いわゆる健康食品の製造・加工業",
      "address": "神奈川県厚木市酒井3038",
      "lat": 35.42053,
      "lng": 139.356346,
      "geocoding_level": null,
      "phone": "0462205211",
      "license_no": "",
      "license_date": null,
      "expire_date": null
    },
    {
      "name": "健康フーズ株式会社 第二工場",
      "name_kana": "ケンコウフーズカブシキガイシャ ダイニコウジョウ",
      "business_type": "㉔ その他の食料品製造・加工業",
      "address": "神奈川県厚木市酒井3038",
      "lat": 35.42053,
      "lng": 139.356346,
      "geocoding_level": null,
      "phone": "0462205211",
      "license_no": "",
      "license_date": null,
      "expire_date": null
    },
    {
      "name": "健康フーズ株式会社 第三工場",
      "name_kana": "ケンコウフーズカブシキガイシャ ダイサンコウジョウ",
      "business_type": "⑮ いわゆる健康食品の製造・加工業",
      "address": "神奈川県厚木市酒井3020",
      "lat": 35.419889,
      "lng": 139.355691,
      "geocoding_level": null,
      "phone": "046-220-5211",
      "license_no": "",
      "license_date": null,
      "expire_date": null
    },
    {
      "name": "餃子の王将 本厚木店",
      "name_kana": "ギョウザノオウショウ　ホンアツギテン",
      "business_type": "⑬ その他の食料・飲料販売業",
      "address": "神奈川県厚木市中町2-4-1",
      "lat": 35.440472,
      "lng": 139.364809,
      "geocoding_level": null,
      "phone": "046-295-2211",
      "license_no": "",
      "license_date": null,
      "expire_date": null
    },
    {
      "name": "株式会社神奈川シジシー",
      "name_kana": "カブシキカイシャカナガワシジシー",
      "business_type": "③ 乳類販売業",
      "address": "神奈川県厚木市金田1456-1",
      "lat": 35.462307,
      "lng": 139.376725,
      "geocoding_level": null,
      "phone": "046-296-1401",
      "license_no": "",
      "license_date": null,
      "expire_date": null
    },
    {
      "name": "セブンーイレブン小田急本厚木店",
      "name_kana": "セブンーイレブンオダキュウホンアツギテン",
      "business_type": "⑩ コンビニエンスストア",
      "address": "神奈川県厚木市泉町１－１",
      "lat": 35.439613,
      "lng": 139.363971,
      "geocoding_level": null,
      "phone": "0462275111",
      "license_no": "",
      "license_date": null,
      "expire_date": null
    },
    {
      "name": "セブンーイレブン小田急本厚木ミロードイースト店",
      "name_kana": "セブンーイレブンオダキュウホンアツギミロードイーストテン",
      "business_type": "⑩ コンビニエンスストア",
      "address": "神奈川県厚木市泉町１－１",
      "lat": 35.439613,
      "lng": 139.363971,
      "geocoding_level": null,
      "phone": "0462307427",
      "license_no": "",
      "license_date": null,
      "expire_date": null
    },
    {
      "name": "セブンーイレブン小田急本厚木上りホーム店",
      "name_kana": "セブンーイレブンオダキュウホンアツギノボリホームテン",
      "business_type": "⑩ コンビニエンスストア",
      "address": "神奈川県厚木市泉町１－１",
      "lat": 35.439613,
      "lng": 139.363971,
      "geocoding_level": null,
      "phone": "0462261545",
      "license_no": "",
      "license_date": null,
      "expire_date": null
    },
    {
      "name": "セブンーイレブン小田急愛甲石田店",
      "name_kana": "セブンーイレブンオダキュウアイコウイシダテン",
      "business_type": "① 飲食店営業",
      "address": "神奈川県厚木市愛甲１－１－１",
      "lat": 35.417399,
      "lng": 139.343544,
      "geocoding_level": null,
      "phone": "0462302016",
      "license_no": "第2024-001-0454号",
      "license_date": "2024-11-27",
      "expire_date": "2031-01-09"
    },
    {
      "name": "セブンーイレブン小田急愛甲石田店",
      "name_kana": "セブンーイレブンオダキュウアイコウイシダテン",
      "business_type": "⑩ コンビニエンスストア",
      "address": "神奈川県厚木市愛甲１－１－１",
      "lat": 35.417399,
      "lng": 139.343544,
      "geocoding_level": null,
      "phone": "0462302016",
      "license_no": "",
      "license_date": null,
      "expire_date": null
    },
    {
      "name": "セブンーイレブン小田急本厚木店",
      "name_kana": "セブンーイレブンオダキュウホンアツギテン",
      "business_type": "① 飲食店営業",
      "address": "神奈川県厚木市泉町1-1 小田急線本厚木駅中央改札横",
      "lat": 35.439613,
      "lng": 139.363971,
      "geocoding_level": null,
      "phone": "046-227-5111",
      "license_no": "第2022-001-0423号",
      "license_date": "2022-10-28",
      "expire_date": "2028-11-10"
    },
    {
      "name": "Ｏｄａｋｙｕ　ＯＸ愛甲石田店",
      "name_kana": "オダキュウオーエック　アイコウイシダテン",
      "business_type": "⑪ 百貨店、総合スーパー",
      "address": "神奈川県厚木市愛甲1－９－１２",
      "lat": 35.419337,
      "lng": 139.34295,
      "geocoding_level": null,
      "phone": "046-247-5115",
      "license_no": "",
      "license_date": null,
      "expire_date": null
    },
    {
      "name": "セブン-イレブン小田急本厚木ミロードイースト店",
      "name_kana": "セブンイレブンオダキュウホンアツギミロードイーストテン",
      "business_type": "① 飲食店営業",
      "address": "神奈川県厚木市泉町１－１",
      "lat": 35.439878,
      "lng": 139.366901,
      "geocoding_level": null,
      "phone": "046-230-7427",
      "license_no": "第2025-001-0313号",
      "license_date": "2025-10-15",
      "expire_date": "2032-10-22"
    },
    {
      "name": "ATマシナリー株式会社",
      "name_kana": "エーティーマシナリーカブシキガイシャ",
      "business_type": "㉙ その他",
      "address": "神奈川県厚木市戸室1-9-1",
      "lat": 35.447839,
      "lng": 139.353001,
      "geocoding_level": null,
      "phone": "0462973577",
      "license_no": "",
      "license_date": null,
      "expire_date": null
    },
    {
      "name": "YMCAあつぎ保育園ホサナ",
      "name_kana": "ワイエムシーエーアツギホイクエンホサナ",
      "business_type": "㉖ 集団給食施設",
      "address": "神奈川県厚木市中町3-2-6 Tビル３階",
      "lat": 35.439564,
      "lng": 139.360912,
      "geocoding_level": null,
      "phone": "0462228619",
      "license_no": "",
      "license_date": null,
      "expire_date": null
    },
    {
      "name": "湘南倉庫ファクトリー",
      "name_kana": "ショウナンソウコファクトリー",
      "business_type": "㉙ 漬物製造業",
      "address": "神奈川県厚木市下津古久50",
      "lat": 35.412046,
      "lng": 139.353853,
      "geocoding_level": null,
      "phone": "0462104711",
      "license_no": "第2021-077-0001号",
      "license_date": "2021-12-08",
      "expire_date": "2027-12-07"
    },
    {
      "name": "湘南倉庫ファクトリー",
      "name_kana": "ショウナンソウコファクトリー",
      "business_type": "㉕ そうざい製造業",
      "address": "神奈川県厚木市下津古久50",
      "lat": 35.412043,
      "lng": 139.353865,
      "geocoding_level": null,
      "phone": "046-210-4711",
      "license_no": "第2023-032-0005号",
      "license_date": "2023-10-10",
      "expire_date": "2029-10-09"
    },
    {
      "name": "湘南倉庫ファクトリー",
      "name_kana": "ショウナンソウコファクトリー",
      "business_type": "⑮ 食肉製品製造業",
      "address": "神奈川県厚木市下津古久50",
      "lat": 35.412027,
      "lng": 139.35384,
      "geocoding_level": null,
      "phone": "046-210-4711",
      "license_no": "第2024-013-0003号",
      "license_date": "2024-10-09",
      "expire_date": "2030-10-08"
    },
    {
      "name": "ファミリーマート本厚木駅前店",
      "name_kana": "ファミリーマートホンアツギエキマエテン",
      "business_type": "⑩ コンビニエンスストア",
      "address": "神奈川県厚木市中町2ｰ6ｰ5",
      "lat": 35.440974,
      "lng": 139.363481,
      "geocoding_level": null,
      "phone": "0462977801",
      "license_no": "",
      "license_date": null,
      "expire_date": null
    },
    {
      "name": "ファミリーマート厚木中町三丁目店",
      "name_kana": "ファミリーマートアツギナカチョウサンチョウメテン",
      "business_type": "⑩ コンビニエンスストア",
      "address": "神奈川県厚木市中町3ｰ11ｰ20",
      "lat": 35.441746,
      "lng": 139.361849,
      "geocoding_level": null,
      "phone": "0462973376",
      "license_no": "",
      "license_date": null,
      "expire_date": null
    },
    {
      "name": "リンガーハットビバホーム厚木南インター店",
      "name_kana": "リンガーハットビバホームアツギミナミインターテン",
      "business_type": "⑬ その他の食料・飲料販売業",
      "address": "神奈川県厚木市酒井1601-4",
      "lat": 35.409929,
      "lng": 139.36077,
      "geocoding_level": null,
      "phone": "046-265-0853",
      "license_no": "",
      "license_date": null,
      "expire_date": null
    },
    {
      "name": "リンガーハット厚木妻田店",
      "name_kana": "リンガーハットアツギツマダテン",
      "business_type": "⑬ その他の食料・飲料販売業",
      "address": "神奈川県厚木市妻田北1-8-29",
      "lat": 35.462496,
      "lng": 139.357394,
      "geocoding_level": null,
      "phone": "046-297-3145",
      "license_no": "",
      "license_date": null,
      "expire_date": null
    },
    {
      "name": "神奈中タクシー（株）厚木営業所",
      "name_kana": "カナチュウタクシーカブシキカイシャ　アツギエイギョウショ",
      "business_type": "⑬ その他の食料・飲料販売業",
      "address": "神奈川県厚木市飯山2824－８　2Ｆ",
      "lat": 35.453921,
      "lng": 139.334663,
      "geocoding_level": null,
      "phone": "046-250-8685",
      "license_no": "",
      "license_date": null,
      "expire_date": null
    },
    {
      "name": "厚木市立依知北公民館",
      "name_kana": "アツギシリツエチキタコウミンカン",
      "business_type": "⑬ その他の食料・飲料販売業",
      "address": "神奈川県厚木市上依知1313－1",
      "lat": 35.507631,
      "lng": 139.358888,
      "geocoding_level": null,
      "phone": "046-225-2563",
      "license_no": "",
      "license_date": null,
      "expire_date": null
    },
    {
      "name": "老人保健施設　コミュニティケア北部",
      "name_kana": "ロウジンホケンシセツ　コミュニティケアホクブ",
      "business_type": "⑬ その他の食料・飲料販売業",
      "address": "神奈川県厚木市下荻野９４１－１",
      "lat": 35.490868,
      "lng": 139.338324,
      "geocoding_level": null,
      "phone": "046-291-2111",
      "license_no": "",
      "license_date": null,
      "expire_date": null
    },
    {
      "name": "東横交通（株）",
      "name_kana": "トウヨココオウツウカブシキカイシャ",
      "business_type": "⑬ その他の食料・飲料販売業",
      "address": "神奈川県厚木市中町４－１６－１６",
      "lat": 35.439187,
      "lng": 139.360498,
      "geocoding_level": null,
      "phone": "046-221-3218",
      "license_no": "",
      "license_date": null,
      "expire_date": null
    },
    {
      "name": "グレースジャパン株式会社",
      "name_kana": "グレースジャパンカブシキカイシャ",
      "business_type": "⑬ その他の食料・飲料販売業",
      "address": "神奈川県厚木市金田100",
      "lat": 35.46919,
      "lng": 139.367179,
      "geocoding_level": null,
      "phone": "046-225-8800",
      "license_no": "",
      "license_date": null,
      "expire_date": null
    },
    {
      "name": "日本チャールス・リバー（株）",
      "name_kana": "ニホンチャールスリバーカブシキカイシャ",
      "business_type": "⑬ その他の食料・飲料販売業",
      "address": "神奈川県厚木市下古沢795",
      "lat": 35.45743,
      "lng": 139.316238,
      "geocoding_level": null,
      "phone": "046-247-8381",
      "license_no": "",
      "license_date": null,
      "expire_date": null
    },
    {
      "name": "アクロスサービス（株）（リペアセンター５Ｆ）",
      "name_kana": "アクロスサービスカブシキカイシャ　リペアセンターゴカイ",
      "business_type": "⑬ その他の食料・飲料販売業",
      "address": "神奈川県厚木市愛甲東３－９－１",
      "lat": 35.415227,
      "lng": 139.350762,
      "geocoding_level": null,
      "phone": "046-230-2535",
      "license_no": "",
      "license_date": null,
      "expire_date": null
    },
    {
      "name": "総合福祉センター　６階",
      "name_kana": "ソウゴウフクシセンター",
      "business_type": "⑬ その他の食料・飲料販売業",
      "address": "神奈川県厚木市中町１－４－１",
      "lat": 35.441996,
      "lng": 139.36813,
      "geocoding_level": null,
      "phone": "046-225-2213",
      "license_no": "",
      "license_date": null,
      "expire_date": null
    },
    {
      "name": "トーカイパッケージングシステム株式会社  厚木事業所第３倉庫",
      "name_kana": "トーカイパッケージングシステムカブシキガイシャアツギジギョウショダイサンソウコ",
      "business_type": "⑫ 自動販売機による販売業（コップ式自動販売機（自動洗浄・屋内設置）及び営業許可の対象となる自動販売機を除く）",
      "address": "神奈川県厚木市金田８７１",
      "lat": 35.458685,
      "lng": 139.367509,
      "geocoding_level": null,
      "phone": "046-223-0256",
      "license_no": "",
      "license_date": null,
      "expire_date": null
    },
    {
      "name": "株式会社武部鉄工所事務棟２階",
      "name_kana": "カブシキガイシャタケベテッコウショジムトウニカイ",
      "business_type": "⑫ 自動販売機による販売業（コップ式自動販売機（自動洗浄・屋内設置）及び営業許可の対象となる自動販売機を除く）",
      "address": "神奈川県厚木市緑ケ丘５－１８－１",
      "lat": 35.451546,
      "lng": 139.336792,
      "geocoding_level": null,
      "phone": "046-221-5210",
      "license_no": "",
      "license_date": null,
      "expire_date": null
    },
    {
      "name": "日本生命保険相互会社　町田支社　本厚木営業部",
      "name_kana": "ニホンセイメイホケンソウゴガイシャ　マチダシシャ　ホンアツギエイギョウブ",
      "business_type": "⑫ 自動販売機による販売業（コップ式自動販売機（自動洗浄・屋内設置）及び営業許可の対象となる自動販売機を除く）",
      "address": "神奈川県厚木市旭町1-2-1 日本生命厚木ビル５階",
      "lat": 35.438761,
      "lng": 139.364452,
      "geocoding_level": null,
      "phone": "046-229-2150",
      "license_no": "",
      "license_date": null,
      "expire_date": null
    },
    {
      "name": "キヤノンシステムアンドサポート株式会社厚木営業所",
      "name_kana": "キヤノンシステムアンドサポートカブシキガイシャアツギエイギョウショ",
      "business_type": "⑫ 自動販売機による販売業（コップ式自動販売機（自動洗浄・屋内設置）及び営業許可の対象となる自動販売機を除く）",
      "address": "神奈川県厚木市中町2-6-10 東武太朋ビル３階",
      "lat": 35.440968,
      "lng": 139.364065,
      "geocoding_level": null,
      "phone": "046-223-8311",
      "license_no": "",
      "license_date": null,
      "expire_date": null
    },
    {
      "name": "薬樹薬局　厚木水引店",
      "name_kana": "ヤクジュヤッキョク　アツギミズヒキテン",
      "business_type": "⑫ 自動販売機による販売業（コップ式自動販売機（自動洗浄・屋内設置）及び営業許可の対象となる自動販売機を除く）",
      "address": "神奈川県厚木市水引1-17-6",
      "lat": 35.449039,
      "lng": 139.35905,
      "geocoding_level": null,
      "phone": "046-297-5103",
      "license_no": "",
      "license_date": null,
      "expire_date": null
    },
    {
      "name": "厚木ヤクルト販売株式会社　新和会",
      "name_kana": "アツギヤクルトハンバイカブシキガイシャシンワカイ",
      "business_type": "⑫ 自動販売機による販売業（コップ式自動販売機（自動洗浄・屋内設置）及び営業許可の対象となる自動販売機を除く）",
      "address": "神奈川県厚木市酒井2565",
      "lat": 35.412509,
      "lng": 139.365314,
      "geocoding_level": null,
      "phone": "046-228-8960",
      "license_no": "",
      "license_date": null,
      "expire_date": null
    },
    {
      "name": "コミュニティケア北部1階②",
      "name_kana": "コミュニティケアホクブイチカイニ",
      "business_type": "⑫ 自動販売機による販売業（コップ式自動販売機（自動洗浄・屋内設置）及び営業許可の対象となる自動販売機を除く）",
      "address": "神奈川県厚木市下荻野941-1",
      "lat": 35.490868,
      "lng": 139.338428,
      "geocoding_level": null,
      "phone": "046-291-2111",
      "license_no": "",
      "license_date": null,
      "expire_date": null
    },
    {
      "name": "神奈中厚木営業所3F自販機コーナー",
      "name_kana": "カナチュウアツギエイギョウショサンカイジハンキコーナー",
      "business_type": "⑬ その他の食料・飲料販売業",
      "address": "神奈川県厚木市下荻野1200-9",
      "lat": 35.473822,
      "lng": 139.346039,
      "geocoding_level": null,
      "phone": "",
      "license_no": "",
      "license_date": null,
      "expire_date": null
    },
    {
      "name": "神奈中厚木営業所4F食堂",
      "name_kana": "カナチュウアツギエイギョウショヨンカイショクドウ",
      "business_type": "⑬ その他の食料・飲料販売業",
      "address": "神奈川県厚木市下荻野1200-9",
      "lat": 35.473822,
      "lng": 139.346039,
      "geocoding_level": null,
      "phone": "",
      "license_no": "",
      "license_date": null,
      "expire_date": null
    },
    {
      "name": "ASD　遠州トラック店",
      "name_kana": "エーエスディーエンシュウトラックテン",
      "business_type": "⑫ 自動販売機による販売業（コップ式自動販売機（自動洗浄・屋内設置）及び営業許可の対象となる自動販売機を除く）",
      "address": "神奈川県厚木市小野2015-12",
      "lat": 35.43435,
      "lng": 139.315837,
      "geocoding_level": null,
      "phone": "046-290-1305",
      "license_no": "",
      "license_date": null,
      "expire_date": null
    },
    {
      "name": "カラオケ館本厚木店",
      "name_kana": "カラオケカンホンアツギテン",
      "business_type": "① 飲食店営業",
      "address": "神奈川県厚木市中町2-4-14 厚木シティホテルB1F.1F",
      "lat": 35.440512,
      "lng": 139.365095,
      "geocoding_level": null,
      "phone": "046-296-3323",
      "license_no": "2025-001-0328",
      "license_date": "2025-10-20",
      "expire_date": "2032-10-25"
    },
    {
      "name": "業務スーパー下荻野店",
      "name_kana": "ギョウムスーパーシモオギノテン",
      "business_type": "⑪ 百貨店、総合スーパー",
      "address": "神奈川県厚木市下荻野１４８７－１",
      "lat": 35.479302,
      "lng": 139.338956,
      "geocoding_level": null,
      "phone": "046-243-5841",
      "license_no": "",
      "license_date": null,
      "expire_date": null
    },
    {
      "name": "天丼てんや　本厚木店",
      "name_kana": "テンドンテンヤ　ホンアツギテン",
      "business_type": "⑬ その他の食料・飲料販売業",
      "address": "神奈川県厚木市中町２－４－１６ トキワヤビル1Ｆ",
      "lat": 35.440401,
      "lng": 139.364904,
      "geocoding_level": null,
      "phone": "046-224-1533",
      "license_no": "",
      "license_date": null,
      "expire_date": null
    },
    {
      "name": "ロイヤルホスト厚木栄町店",
      "name_kana": "ロイヤルホストアツギサカエチョウテン",
      "business_type": "⑬ その他の食料・飲料販売業",
      "address": "神奈川県厚木市栄町1-3-12",
      "lat": 35.4402,
      "lng": 139.357915,
      "geocoding_level": null,
      "phone": "046-225-6616",
      "license_no": "",
      "license_date": null,
      "expire_date": null
    },
    {
      "name": "サンライズキッズ保育園厚木園",
      "name_kana": "サンライズキッズホイクエンアツギエン",
      "business_type": "㉖ 集団給食施設",
      "address": "神奈川県厚木市関口４１８－2 アルビオンシティ厚木関口１０１",
      "lat": 35.489074,
      "lng": 139.364754,
      "geocoding_level": null,
      "phone": "050-5807-2304",
      "license_no": "",
      "license_date": null,
      "expire_date": null
    },
    {
      "name": "エスパティオ下川入店",
      "name_kana": "エスパティオシモカワイリテン",
      "business_type": "① 飲食店営業",
      "address": "神奈川県厚木市下川入378-1",
      "lat": 35.500056,
      "lng": 139.35697,
      "geocoding_level": null,
      "phone": "046-246-2160",
      "license_no": "第2025-001-0329号",
      "license_date": "2025-10-28",
      "expire_date": "2032-11-27"
    },
    {
      "name": "エスパティオ下川入店",
      "name_kana": "エスパティオシモカワイリテン",
      "business_type": "③ 食肉販売業",
      "address": "神奈川県厚木市下川入378-1",
      "lat": 35.500056,
      "lng": 139.35697,
      "geocoding_level": null,
      "phone": "046-246-2160",
      "license_no": "第2025-012-0008号",
      "license_date": "2025-10-28",
      "expire_date": "2032-11-27"
    },
    {
      "name": "ケンタッキーフライドチキン　本厚木ミロードイースト店",
      "name_kana": "ケンタッキーフライドチキン　ホンアツギミロードイーストテン",
      "business_type": "① 飲食店営業",
      "address": "神奈川県厚木市泉町1-1 本厚木ミロードイースト",
      "lat": 35.452708,
      "lng": 139.340905,
      "geocoding_level": null,
      "phone": "",
      "license_no": "第2023-001-0217号",
      "license_date": "2023-08-29",
      "expire_date": "2030-08-28"
    },
    {
      "name": "北王流通㈱厚木第2センター",
      "name_kana": "ホクオウリュウツウアツギダイニセンター",
      "business_type": "㉙ その他",
      "address": "神奈川県厚木市酒井3026",
      "lat": 35.421355,
      "lng": 139.356544,
      "geocoding_level": null,
      "phone": "046-281-7908",
      "license_no": "",
      "license_date": null,
      "expire_date": null
    },
    {
      "name": "北王流通㈱厚木センター",
      "name_kana": "ホクオウリュウツウアツギセンター",
      "business_type": "㉙ その他",
      "address": "神奈川県厚木市酒井3152",
      "lat": 35.416167,
      "lng": 139.363133,
      "geocoding_level": null,
      "phone": "046-258-9820",
      "license_no": "",
      "license_date": null,
      "expire_date": null
    },
    {
      "name": "ウエルシア本厚木ミロード地下１階店",
      "name_kana": "ウエルシアホンアツギミロードチカイッカイテン",
      "business_type": "⑪ 百貨店、総合スーパー",
      "address": "神奈川県厚木市泉町1-1 小田急本厚木ミロード地下1階",
      "lat": 35.439613,
      "lng": 139.363971,
      "geocoding_level": null,
      "phone": "0462261189",
      "license_no": "",
      "license_date": null,
      "expire_date": null
    },
    {
      "name": "ウエルシア本厚木ミロード南館店",
      "name_kana": "ウエルシアホンアツギミロードミナミカンテン",
      "business_type": "⑪ 百貨店、総合スーパー",
      "address": "神奈川県厚木市泉町1-1 小田急本厚木ミロード1南館1階",
      "lat": 35.439173,
      "lng": 139.364284,
      "geocoding_level": null,
      "phone": "046-228-6550",
      "license_no": "",
      "license_date": null,
      "expire_date": null
    },
    {
      "name": "ウエルシア　厚木中町店",
      "name_kana": "ウエルシア　アツギナカチョウテン",
      "business_type": "⑪ 百貨店、総合スーパー",
      "address": "神奈川県厚木市中町2-8-12 喜久屋ビル1階",
      "lat": 35.441568,
      "lng": 139.36583,
      "geocoding_level": null,
      "phone": "0462945361",
      "license_no": "",
      "license_date": null,
      "expire_date": null
    },
    {
      "name": "ウエルシア　厚木中町店",
      "name_kana": "ウエルシア　アツギナカチョウテン",
      "business_type": "⑫ 自動販売機による販売業（コップ式自動販売機（自動洗浄・屋内設置）及び営業許可の対象となる自動販売機を除く）",
      "address": "神奈川県厚木市中町2-8-12 喜久屋ビル1階",
      "lat": 35.441568,
      "lng": 139.36583,
      "geocoding_level": null,
      "phone": "0462945361",
      "license_no": "",
      "license_date": null,
      "expire_date": null
    },
    {
      "name": "株式会社富士エコー神奈川DC（神奈川センター内）",
      "name_kana": "カブシキカイシャフジエコーカナガワディーシー　カナガワセンターナイ",
      "business_type": "⑬ その他の食料・飲料販売業",
      "address": "神奈川県厚木市上依知3032",
      "lat": 35.513386,
      "lng": 139.349953,
      "geocoding_level": null,
      "phone": "046-286-2221",
      "license_no": "",
      "license_date": null,
      "expire_date": null
    },
    {
      "name": "株式会社久世　厚木DC",
      "name_kana": "カブシキカイシャクゼ　アツギディストリビューションセンター",
      "business_type": "㉙ その他",
      "address": "神奈川県厚木市酒井3026",
      "lat": 35.421383,
      "lng": 139.35655,
      "geocoding_level": null,
      "phone": "",
      "license_no": "",
      "license_date": null,
      "expire_date": null
    },
    {
      "name": "新鮮わくわく便",
      "name_kana": "シンセンワクワクビン",
      "business_type": "㉕ 行商",
      "address": "神奈川県厚木市（主たる営業地）",
      "lat": 35.443094,
      "lng": 139.36254,
      "geocoding_level": null,
      "phone": "",
      "license_no": "",
      "license_date": null,
      "expire_date": null
    },
    {
      "name": "スシロー厚木及川店",
      "name_kana": "スシローアツギオイカワテン",
      "business_type": "① 飲食店営業",
      "address": "神奈川県厚木市及川1053-1",
      "lat": 35.469415,
      "lng": 139.341677,
      "geocoding_level": null,
      "phone": "046-241-8880",
      "license_no": "第2023-001-0051号",
      "license_date": "2023-05-10",
      "expire_date": "2029-05-09"
    },
    {
      "name": "スシロー厚木及川店",
      "name_kana": "スシローアツギオイカワテン",
      "business_type": "① 魚介類販売業（包装済みの魚介類のみの販売）",
      "address": "神奈川県厚木市及川1053-1",
      "lat": 35.469415,
      "lng": 139.341677,
      "geocoding_level": null,
      "phone": "046-241-8880",
      "license_no": "",
      "license_date": null,
      "expire_date": null
    },
    {
      "name": "神奈川工科大学ブックセンター",
      "name_kana": "カナガワコウカダイガクブックセンター",
      "business_type": "⑩ コンビニエンスストア",
      "address": "神奈川県厚木市下荻野１０３０番地",
      "lat": 35.485724,
      "lng": 139.342583,
      "geocoding_level": null,
      "phone": "0462341077",
      "license_no": "",
      "license_date": null,
      "expire_date": null
    },
    {
      "name": "東名厚木　冷凍自販機　１",
      "name_kana": "トウメイアツギ　レイトウジハンキ　イチ",
      "business_type": "⑫ 自動販売機による販売業（コップ式自動販売機（自動洗浄・屋内設置）及び営業許可の対象となる自動販売機を除く）",
      "address": "神奈川県厚木市岡田３丁目17−６ ぎょうてん　らーめん　駐車場",
      "lat": 35.425602,
      "lng": 139.35772,
      "geocoding_level": null,
      "phone": "046271100",
      "license_no": "",
      "license_date": null,
      "expire_date": null
    },
    {
      "name": "東名厚木　冷凍自販機　２",
      "name_kana": "トウメイアツギ　レイトウジハンキ　ニ",
      "business_type": "⑫ 自動販売機による販売業（コップ式自動販売機（自動洗浄・屋内設置）及び営業許可の対象となる自動販売機を除く）",
      "address": "神奈川県厚木市岡田３丁目17−６ ぎょうてん　らーめん　駐車場",
      "lat": 35.425602,
      "lng": 139.35772,
      "geocoding_level": null,
      "phone": "0462271100",
      "license_no": "",
      "license_date": null,
      "expire_date": null
    },
    {
      "name": "東名厚木　冷凍自販機　３",
      "name_kana": "トウメイアツギ　レイトウジハンキ　サン",
      "business_type": "⑫ 自動販売機による販売業（コップ式自動販売機（自動洗浄・屋内設置）及び営業許可の対象となる自動販売機を除く）",
      "address": "神奈川県厚木市岡田３丁目17−６ ぎょうてん　らーめん　駐車場",
      "lat": 35.425602,
      "lng": 139.35772,
      "geocoding_level": null,
      "phone": "0462271100",
      "license_no": "",
      "license_date": null,
      "expire_date": null
    },
    {
      "name": "東名厚木　冷凍自販機　４",
      "name_kana": "トウメイアツギ　レイトウジハンキ　ヨン",
      "business_type": "⑫ 自動販売機による販売業（コップ式自動販売機（自動洗浄・屋内設置）及び営業許可の対象となる自動販売機を除く）",
      "address": "神奈川県厚木市岡田３丁目17−６ ぎょうてん　らーめん　駐車場",
      "lat": 35.425602,
      "lng": 139.35772,
      "geocoding_level": null,
      "phone": "0462271100",
      "license_no": "",
      "license_date": null,
      "expire_date": null
    },
    {
      "name": "東名厚木　冷凍自販機　５",
      "name_kana": "トウメイアツギ　レイトウジハンキ　ゴ",
      "business_type": "⑫ 自動販売機による販売業（コップ式自動販売機（自動洗浄・屋内設置）及び営業許可の対象となる自動販売機を除く）",
      "address": "神奈川県厚木市岡田３丁目17−６ ぎょうてん　らーめん　駐車場",
      "lat": 35.425602,
      "lng": 139.35772,
      "geocoding_level": null,
      "phone": "0462271100",
      "license_no": "",
      "license_date": null,
      "expire_date": null
    },
    {
      "name": "東名厚木　冷凍自販機　６",
      "name_kana": "トウメイアツギ　レイトウジハンキ　ロク",
      "business_type": "⑫ 自動販売機による販売業（コップ式自動販売機（自動洗浄・屋内設置）及び営業許可の対象となる自動販売機を除く）",
      "address": "神奈川県厚木市岡田３丁目17−６ ぎょうてん　らーめん　駐車場",
      "lat": 35.425602,
      "lng": 139.35772,
      "geocoding_level": null,
      "phone": "0462271100",
      "license_no": "",
      "license_date": null,
      "expire_date": null
    },
    {
      "name": "はま寿司　厚木IC店",
      "name_kana": "ハマズシ　アツギインターチェンジテン",
      "business_type": "① 飲食店営業",
      "address": "神奈川県厚木市岡田3024番地",
      "lat": 35.422862,
      "lng": 139.359466,
      "geocoding_level": null,
      "phone": "0570-040-580",
      "license_no": "第2024-001-0387号",
      "license_date": "2024-10-23",
      "expire_date": "2030-10-26"
    },
    {
      "name": "はま寿司  厚木IC店",
      "name_kana": "ハマズシ  アツギインターチェンジテン",
      "business_type": "⑬ その他の食料・飲料販売業",
      "address": "神奈川県厚木市岡田3024番地",
      "lat": 35.422862,
      "lng": 139.359466,
      "geocoding_level": null,
      "phone": "0570-040-580",
      "license_no": "",
      "license_date": null,
      "expire_date": null
    },
    {
      "name": "町田商店　山際店",
      "name_kana": "マチダショウテン　ヤマギワテン",
      "business_type": "① 飲食店営業",
      "address": "神奈川県厚木市山際５７１－１",
      "lat": 35.501076,
      "lng": 139.362193,
      "geocoding_level": null,
      "phone": "",
      "license_no": "第2024-001-0305号",
      "license_date": "2024-09-18",
      "expire_date": "2030-09-26"
    },
    {
      "name": "屋台屋　博多劇場　本厚木店",
      "name_kana": "ヤタイヤ　ハカタゲキジョウ　ホンアツギテン",
      "business_type": "① 飲食店営業",
      "address": "神奈川県厚木市中町4-16-6 厚木桐生ビル101",
      "lat": 35.438918,
      "lng": 139.361514,
      "geocoding_level": null,
      "phone": "046-240-7533",
      "license_no": "第2023-001-0151号",
      "license_date": "2023-07-18",
      "expire_date": "2030-07-17"
    },
    {
      "name": "ＰＩＡ厚木",
      "name_kana": "ピアアツギ",
      "business_type": "⑫ 自動販売機による販売業（コップ式自動販売機（自動洗浄・屋内設置）及び営業許可の対象となる自動販売機を除く）",
      "address": "神奈川県厚木市中町5-13-22",
      "lat": 35.44047,
      "lng": 139.363411,
      "geocoding_level": null,
      "phone": "",
      "license_no": "",
      "license_date": null,
      "expire_date": null
    },
    {
      "name": "マルハン厚木北",
      "name_kana": "マルハンアツギキタ",
      "business_type": "⑫ 自動販売機による販売業（コップ式自動販売機（自動洗浄・屋内設置）及び営業許可の対象となる自動販売機を除く）",
      "address": "神奈川県厚木市下荻野1200-13",
      "lat": 35.475627,
      "lng": 139.345169,
      "geocoding_level": null,
      "phone": "",
      "license_no": "",
      "license_date": null,
      "expire_date": null
    },
    {
      "name": "グランドオータ厚木",
      "name_kana": "グランドオータアツギ",
      "business_type": "⑫ 自動販売機による販売業（コップ式自動販売機（自動洗浄・屋内設置）及び営業許可の対象となる自動販売機を除く）",
      "address": "神奈川県厚木市船子1282-1 オータビル１・２階",
      "lat": 35.427279,
      "lng": 139.347296,
      "geocoding_level": null,
      "phone": "",
      "license_no": "",
      "license_date": null,
      "expire_date": null
    },
    {
      "name": "マルハン新厚木店",
      "name_kana": "マルハンシンアツギテン",
      "business_type": "⑫ 自動販売機による販売業（コップ式自動販売機（自動洗浄・屋内設置）及び営業許可の対象となる自動販売機を除く）",
      "address": "神奈川県厚木市戸室5-31-2",
      "lat": 35.449519,
      "lng": 139.342743,
      "geocoding_level": null,
      "phone": "",
      "license_no": "",
      "license_date": null,
      "expire_date": null
    },
    {
      "name": "厚木市立　萩野運動公園体育館１Ｆ",
      "name_kana": "アツギシリツ　ハギノウンドウコウエンタイイクカンイチエフ",
      "business_type": "⑫ 自動販売機による販売業（コップ式自動販売機（自動洗浄・屋内設置）及び営業許可の対象となる自動販売機を除く）",
      "address": "神奈川県厚木市中荻野1500",
      "lat": 35.481469,
      "lng": 139.321044,
      "geocoding_level": null,
      "phone": "",
      "license_no": "",
      "license_date": null,
      "expire_date": null
    },
    {
      "name": "ウエルシア厚木下荻野店",
      "name_kana": "ウエルシアアツギシモオギノテン",
      "business_type": "⑪ 百貨店、総合スーパー",
      "address": "神奈川県厚木市下荻野437-1",
      "lat": 35.480224,
      "lng": 139.339381,
      "geocoding_level": null,
      "phone": "046-241-0896",
      "license_no": "",
      "license_date": null,
      "expire_date": null
    },
    {
      "name": "亜木津工業株式会社",
      "name_kana": "アキツコウギョウカブシキガイシャ",
      "business_type": "㉗ 器具、容器包装の製造・加工業（合成樹脂が使用された器具又は容器包装の製造、加工に限る。）",
      "address": "神奈川県厚木市岡田4丁目4番10号",
      "lat": 35.428121,
      "lng": 139.366608,
      "geocoding_level": null,
      "phone": "046-258-5301",
      "license_no": "",
      "license_date": null,
      "expire_date": null
    },
    {
      "name": "宗家 源 吉兆庵　厚木妻田店",
      "name_kana": "ソウケミナモトキッチョウアン　アツギツマダテン",
      "business_type": "⑬ その他の食料・飲料販売業",
      "address": "神奈川県厚木市妻田西1-22-10",
      "lat": 35.458436,
      "lng": 139.357053,
      "geocoding_level": null,
      "phone": "046-294-3411",
      "license_no": "",
      "license_date": null,
      "expire_date": null
    },
    {
      "name": "まーちらんど・あつぎ",
      "name_kana": "マーチランド・アツギ",
      "business_type": "㉖ 集団給食施設",
      "address": "神奈川県厚木市岡津古久560-2 大山クラブ内",
      "lat": 35.423805,
      "lng": 139.318564,
      "geocoding_level": null,
      "phone": "046-282-8123",
      "license_no": "",
      "license_date": null,
      "expire_date": null
    },
    {
      "name": "ORD厚木冷凍ステーション",
      "name_kana": "オーアールディーアツギレイトウステーション",
      "business_type": "⑨ 通信販売・訪問販売による販売業",
      "address": "神奈川県厚木市上依知3007-7",
      "lat": 35.517201,
      "lng": 139.355425,
      "geocoding_level": null,
      "phone": "",
      "license_no": "",
      "license_date": null,
      "expire_date": null
    },
    {
      "name": "厚木市民朝市",
      "name_kana": "アツギシミンアサイチ",
      "business_type": "⑦ 野菜果物販売業",
      "address": "神奈川県厚木市恩名1-9-20",
      "lat": 35.435844,
      "lng": 139.356176,
      "geocoding_level": null,
      "phone": "046-225-2801",
      "license_no": "",
      "license_date": null,
      "expire_date": null
    },
    {
      "name": "厚木市民朝市",
      "name_kana": "アツギシミンアサイチ",
      "business_type": "⑬ その他の食料・飲料販売業",
      "address": "神奈川県厚木市恩名1-9-20",
      "lat": 35.435844,
      "lng": 139.356176,
      "geocoding_level": null,
      "phone": "046-225-2801",
      "license_no": "",
      "license_date": null,
      "expire_date": null
    },
    {
      "name": "ケアセンターあさひ",
      "name_kana": "ケアセンターアサヒ",
      "business_type": "㉖ 集団給食施設",
      "address": "神奈川県厚木市旭町2-3-13",
      "lat": 35.438484,
      "lng": 139.368045,
      "geocoding_level": null,
      "phone": "0462299110",
      "license_no": "",
      "license_date": null,
      "expire_date": null
    },
    {
      "name": "医療法人コスモス  米澤外科内科",
      "name_kana": "イリョウホウジンコスモス　ヨネザワゲカナイカ",
      "business_type": "㉖ 集団給食施設",
      "address": "神奈川県厚木市飯山172",
      "lat": 35.464656,
      "lng": 139.336626,
      "geocoding_level": null,
      "phone": "0462421111",
      "license_no": "",
      "license_date": null,
      "expire_date": null
    },
    {
      "name": "サントリーコーヒーロースタリー株式会社　大山厚木工場",
      "name_kana": "サントリーコーヒーロースタリーカブシキガイシャ　オオヤマアツギコウジョウ",
      "business_type": "⑯ コーヒー製造・加工業（飲料の製造を除く。）",
      "address": "神奈川県厚木市飯山２４５３－１６",
      "lat": 35.471277,
      "lng": 139.314489,
      "geocoding_level": null,
      "phone": "046-290-1600",
      "license_no": "",
      "license_date": null,
      "expire_date": null
    },
    {
      "name": "すき家　129号厚木山際店",
      "name_kana": "スキヤ　ヒャクニジュウキュウゴウアツギヤマギワテン",
      "business_type": "① 飲食店営業",
      "address": "神奈川県厚木市山際281-1",
      "lat": 35.496566,
      "lng": 139.36319,
      "geocoding_level": null,
      "phone": "",
      "license_no": "2025-001-0085",
      "license_date": "2025-05-20",
      "expire_date": "2031-06-06"
    },
    {
      "name": "すき家　129号厚木山際店",
      "name_kana": "スキヤ　ヒャクニジュウキュウゴウアツギヤマギワテン",
      "business_type": "⑬ その他の食料・飲料販売業",
      "address": "神奈川県厚木市山際281-1",
      "lat": 35.496566,
      "lng": 139.36319,
      "geocoding_level": null,
      "phone": "",
      "license_no": "",
      "license_date": null,
      "expire_date": null
    },
    {
      "name": "すき家　412号厚木林店",
      "name_kana": "スキヤ　ヨンヒャクジュウニゴウアツギハヤシテン",
      "business_type": "⑬ その他の食料・飲料販売業",
      "address": "神奈川県厚木市林4-12-34",
      "lat": 35.457741,
      "lng": 139.350595,
      "geocoding_level": null,
      "phone": "",
      "license_no": "",
      "license_date": null,
      "expire_date": null
    },
    {
      "name": "すき家　本厚木店",
      "name_kana": "スキヤ　ホンアツギテン",
      "business_type": "⑬ その他の食料・飲料販売業",
      "address": "神奈川県厚木市中町3-13-1",
      "lat": 35.441824,
      "lng": 139.362405,
      "geocoding_level": null,
      "phone": "",
      "license_no": "",
      "license_date": null,
      "expire_date": null
    },
    {
      "name": "すき家　厚木長谷店",
      "name_kana": "スキヤ　アツギハセテン",
      "business_type": "⑬ その他の食料・飲料販売業",
      "address": "神奈川県厚木市長谷642-3",
      "lat": 35.43111,
      "lng": 139.329021,
      "geocoding_level": null,
      "phone": "",
      "license_no": "",
      "license_date": null,
      "expire_date": null
    },
    {
      "name": "すき家　412号厚木中荻野店",
      "name_kana": "スキヤ　ヨンヒャクジュウニゴウアツギナカオギノテン",
      "business_type": "⑬ その他の食料・飲料販売業",
      "address": "神奈川県厚木市中荻野580-1",
      "lat": 35.486368,
      "lng": 139.327384,
      "geocoding_level": null,
      "phone": "",
      "license_no": "",
      "license_date": null,
      "expire_date": null
    },
    {
      "name": "すき家　129号厚木IC店",
      "name_kana": "スキヤ　ヒャクニジュウキュウゴウアツギインターチェンジテン",
      "business_type": "① 飲食店営業",
      "address": "神奈川県厚木市岡田3018",
      "lat": 35.423885,
      "lng": 139.358974,
      "geocoding_level": null,
      "phone": "",
      "license_no": "第2024-001-0169号",
      "license_date": "2024-06-20",
      "expire_date": "2030-07-08"
    },
    {
      "name": "すき家　129号厚木IC店",
      "name_kana": "スキヤ　ヒャクニジュウキュウゴウアツギインターチェンジテン",
      "business_type": "⑬ その他の食料・飲料販売業",
      "address": "神奈川県厚木市岡田3018",
      "lat": 35.423885,
      "lng": 139.358974,
      "geocoding_level": null,
      "phone": "",
      "license_no": "",
      "license_date": null,
      "expire_date": null
    },
    {
      "name": "すき家　厚木長谷店",
      "name_kana": "スキヤ　アツギハセテン",
      "business_type": "① 飲食店営業",
      "address": "神奈川県厚木市長谷642-3",
      "lat": 35.43111,
      "lng": 139.329021,
      "geocoding_level": null,
      "phone": "",
      "license_no": "第2021-001-0504号",
      "license_date": "2021-12-16",
      "expire_date": "2028-12-15"
    },
    {
      "name": "すき家　412号厚木中荻野店",
      "name_kana": "スキヤ　ヨンヒャクジュウニゴウアツギナカオギノテン",
      "business_type": "① 飲食店営業",
      "address": "神奈川県厚木市中荻野５８０－１",
      "lat": 35.486368,
      "lng": 139.327384,
      "geocoding_level": null,
      "phone": "",
      "license_no": "第2021-001-0639号",
      "license_date": "2022-02-18",
      "expire_date": "2029-02-24"
    },
    {
      "name": "すき家　本厚木駅南口店",
      "name_kana": "スキヤ　ホンアツギエキミナミグチテン",
      "business_type": "① 飲食店営業",
      "address": "神奈川県厚木市泉町2-11 第2東友ビル 1階",
      "lat": 35.439509,
      "lng": 139.365082,
      "geocoding_level": null,
      "phone": "",
      "license_no": "第2024-001-0419号",
      "license_date": "2024-11-22",
      "expire_date": "2030-11-21"
    },
    {
      "name": "すき家　本厚木駅南口店",
      "name_kana": "スキヤ　ホンアツギエキミナミグチテン",
      "business_type": "⑬ その他の食料・飲料販売業",
      "address": "神奈川県厚木市泉町2-11 第2東友ビル 1階",
      "lat": 35.439509,
      "lng": 139.365082,
      "geocoding_level": null,
      "phone": "",
      "license_no": "",
      "license_date": null,
      "expire_date": null
    },
    {
      "name": "愛の森学園",
      "name_kana": "アイノモリガクエン",
      "business_type": "㉖ 集団給食施設",
      "address": "神奈川県厚木市森の里青山14-2",
      "lat": 35.450441,
      "lng": 139.311498,
      "geocoding_level": null,
      "phone": "0462485211",
      "license_no": "",
      "license_date": null,
      "expire_date": null
    },
    {
      "name": "カミヤト凸凹保育園",
      "name_kana": "カミヤトデコボコホイクエン",
      "business_type": "㉖ 集団給食施設",
      "address": "神奈川県厚木市上依知425-1",
      "lat": 35.515355,
      "lng": 139.360712,
      "geocoding_level": null,
      "phone": "0462457878",
      "license_no": "",
      "license_date": null,
      "expire_date": null
    },
    {
      "name": "デイサービス　モック",
      "name_kana": "デイサービス　モック",
      "business_type": "㉖ 集団給食施設",
      "address": "神奈川県厚木市下荻野836-1",
      "lat": 35.485958,
      "lng": 139.339241,
      "geocoding_level": null,
      "phone": "0462433838",
      "license_no": "",
      "license_date": null,
      "expire_date": null
    },
    {
      "name": "吉川水産",
      "name_kana": "ヨシカワスイサン",
      "business_type": "⑬ その他の食料・飲料販売業",
      "address": "神奈川県厚木市泉町1-1 本厚木ミロードB1",
      "lat": 35.439613,
      "lng": 139.363971,
      "geocoding_level": null,
      "phone": "0462303272",
      "license_no": "",
      "license_date": null,
      "expire_date": null
    },
    {
      "name": "魚武",
      "name_kana": "ウオタケ",
      "business_type": "⑬ その他の食料・飲料販売業",
      "address": "神奈川県厚木市泉町1-1 本厚木ミロードB1",
      "lat": 35.439613,
      "lng": 139.363971,
      "geocoding_level": null,
      "phone": "0462303079",
      "license_no": "",
      "license_date": null,
      "expire_date": null
    },
    {
      "name": "モロゾフ　本厚木店",
      "name_kana": "モロゾフ　ホンアツギテン",
      "business_type": "⑬ その他の食料・飲料販売業",
      "address": "神奈川県厚木市泉町1-1　本厚木ミロードB1階",
      "lat": 35.439613,
      "lng": 139.363971,
      "geocoding_level": null,
      "phone": "046-230-3098",
      "license_no": "",
      "license_date": null,
      "expire_date": null
    },
    {
      "name": "モロゾフ　本厚木店　催事",
      "name_kana": "モロゾフ　ホンアツギテン　サイジ",
      "business_type": "⑬ その他の食料・飲料販売業",
      "address": "神奈川県厚木市泉町1-1　本厚木ミロード駅　1階コンコース",
      "lat": 35.439613,
      "lng": 139.363971,
      "geocoding_level": null,
      "phone": "",
      "license_no": "",
      "license_date": null,
      "expire_date": null
    },
    {
      "name": "株式会社サイゼリヤ厚木林店",
      "name_kana": "カブシキガイシャサイゼリヤアツギハヤシテン",
      "business_type": "⑬ その他の食料・飲料販売業",
      "address": "神奈川県厚木市林5-12-9",
      "lat": 35.460265,
      "lng": 139.349987,
      "geocoding_level": null,
      "phone": "046-222-3624",
      "license_no": "",
      "license_date": null,
      "expire_date": null
    },
    {
      "name": "株式会社サイゼリヤ厚木中町店",
      "name_kana": "カブシキガイシャサイゼリヤアツギナカマチテン",
      "business_type": "⑬ その他の食料・飲料販売業",
      "address": "神奈川県厚木市中町2-8-12 喜久屋ビル２Ｆ",
      "lat": 35.441558,
      "lng": 139.365875,
      "geocoding_level": null,
      "phone": "046-296-3155",
      "license_no": "",
      "license_date": null,
      "expire_date": null
    },
    {
      "name": "株式会社サイゼリヤ本厚木ミロード店",
      "name_kana": "カブシキガイシャサイゼリヤホンアツギミロードテン",
      "business_type": "⑬ その他の食料・飲料販売業",
      "address": "神奈川県厚木市泉町1-1 本厚木ミロード１　７Ｆ",
      "lat": 35.439613,
      "lng": 139.363971,
      "geocoding_level": null,
      "phone": "046-229-3325",
      "license_no": "",
      "license_date": null,
      "expire_date": null
    },
    {
      "name": "トーカイ・パッケージングシステム株式会社　飯山事業所",
      "name_kana": "トーカイ・パッケージングシステムカブシキカイシャ　イイヤマジギョウショ",
      "business_type": "⑯ コーヒー製造・加工業（飲料の製造を除く。）",
      "address": "神奈川県厚木市飯山南三丁目20番62号",
      "lat": 35.460796,
      "lng": 139.327464,
      "geocoding_level": null,
      "phone": "0462905081",
      "license_no": "",
      "license_date": null,
      "expire_date": null
    },
    {
      "name": "トーカイ・パッケージングシステム株式会社　　厚木事業所第二工場",
      "name_kana": "トーカイ・パッケージングシステムカブシキカイシャ　アツギジギョウショダイニコウジョウ",
      "business_type": "㉔ その他の食料品製造・加工業",
      "address": "神奈川県厚木市金田871",
      "lat": 35.458661,
      "lng": 139.36746,
      "geocoding_level": null,
      "phone": "0462244711",
      "license_no": "",
      "license_date": null,
      "expire_date": null
    },
    {
      "name": "トーカイ・パッケージングシステム株式会社　　厚木事業所第四工場",
      "name_kana": "トーカイ・パッケージングシステムカブシキカイシャ　アツギジギョウショダイヨンコウジョウ",
      "business_type": "㉔ その他の食料品製造・加工業",
      "address": "神奈川県厚木市金田848-4",
      "lat": 35.458784,
      "lng": 139.366782,
      "geocoding_level": null,
      "phone": "0462443095",
      "license_no": "",
      "license_date": null,
      "expire_date": null
    },
    {
      "name": "無印良品本厚木ミロード店",
      "name_kana": "ムジルシリョウヒンホンアツギミロードテン",
      "business_type": "⑬ その他の食料・飲料販売業",
      "address": "神奈川県厚木市中町2-2-1 本厚木ミロード2　3F",
      "lat": 35.440072,
      "lng": 139.363604,
      "geocoding_level": null,
      "phone": "0462266031",
      "license_no": "",
      "license_date": null,
      "expire_date": null
    },
    {
      "name": "株式会社ナゴヤグラビア",
      "name_kana": "カブシキガイシャ　ナゴヤグラビア",
      "business_type": "㉗ 器具、容器包装の製造・加工業（合成樹脂が使用された器具又は容器包装の製造、加工に限る。）",
      "address": "神奈川県厚木市岡田3丁目8－45",
      "lat": 35.426456,
      "lng": 139.361039,
      "geocoding_level": null,
      "phone": "09076871172",
      "license_no": "",
      "license_date": null,
      "expire_date": null
    },
    {
      "name": "厚木共配センター",
      "name_kana": "アツギキョウハイセンター",
      "business_type": "㉙ その他",
      "address": "神奈川県厚木市下津古久5番地",
      "lat": 35.41272,
      "lng": 139.353944,
      "geocoding_level": null,
      "phone": "046-258-9355",
      "license_no": "",
      "license_date": null,
      "expire_date": null
    },
    {
      "name": "小町山グリーンホーム",
      "name_kana": "コマチヤマグリーンホーム",
      "business_type": "㉖ 集団給食施設",
      "address": "神奈川県厚木市小野２２４０－1",
      "lat": 35.43675,
      "lng": 139.314034,
      "geocoding_level": null,
      "phone": "0462817466",
      "license_no": "",
      "license_date": null,
      "expire_date": null
    },
    {
      "name": "南蛮屋ガーデンコーヒー焙煎工場",
      "name_kana": "ナンバンヤガーデン　コーヒーバイセンコウジョウ",
      "business_type": "⑯ コーヒー製造・加工業（飲料の製造を除く。）",
      "address": "神奈川県厚木市下依知1-1-1 南蛮屋ガーデン内",
      "lat": 35.470757,
      "lng": 139.365255,
      "geocoding_level": null,
      "phone": "",
      "license_no": "",
      "license_date": null,
      "expire_date": null
    },
    {
      "name": "ドラッグコスモス戸室店",
      "name_kana": "ドラッグコスモストムロテン",
      "business_type": "⑪ 百貨店、総合スーパー",
      "address": "神奈川県厚木市戸室五丁目6番1号",
      "lat": 35.447118,
      "lng": 139.34475,
      "geocoding_level": null,
      "phone": "046-206-4554",
      "license_no": "",
      "license_date": null,
      "expire_date": null
    },
    {
      "name": "有限会社　ＫＫＩ製造部",
      "name_kana": "ユウゲンガイシャ　ケイケイアイセイゾウブ",
      "business_type": "㉗ 器具、容器包装の製造・加工業（合成樹脂が使用された器具又は容器包装の製造、加工に限る。）",
      "address": "神奈川県厚木市岡田３丁目８－４５",
      "lat": 35.426456,
      "lng": 139.361039,
      "geocoding_level": null,
      "phone": "05035081289",
      "license_no": "",
      "license_date": null,
      "expire_date": null
    },
    {
      "name": "保育園ViVi",
      "name_kana": "ホイクエンビビ",
      "business_type": "㉖ 集団給食施設",
      "address": "神奈川県厚木市水引2-12-29 YMビル1階",
      "lat": 35.449849,
      "lng": 139.356777,
      "geocoding_level": null,
      "phone": "0462943003",
      "license_no": "",
      "license_date": null,
      "expire_date": null
    },
    {
      "name": "シーグレイス",
      "name_kana": "シーグレイス",
      "business_type": "⑦ 野菜果物販売業",
      "address": "神奈川県厚木市妻田東1－2－1",
      "lat": 35.451788,
      "lng": 139.364887,
      "geocoding_level": null,
      "phone": "0464099512",
      "license_no": "",
      "license_date": null,
      "expire_date": null
    },
    {
      "name": "シーグレイス",
      "name_kana": "シーグレイス",
      "business_type": "⑧ 米穀類販売業",
      "address": "神奈川県厚木市妻田東1－2－1",
      "lat": 35.451788,
      "lng": 139.364887,
      "geocoding_level": null,
      "phone": "0464099512",
      "license_no": "",
      "license_date": null,
      "expire_date": null
    },
    {
      "name": "すし松　本厚木店",
      "name_kana": "スシマツ　ホンアツギテン",
      "business_type": "① 飲食店営業",
      "address": "神奈川県厚木市中町2-1-18",
      "lat": 35.440027,
      "lng": 139.364902,
      "geocoding_level": null,
      "phone": "090-3778-5460",
      "license_no": "2024－001－0208",
      "license_date": "2024-07-30",
      "expire_date": "2031-07-29"
    },
    {
      "name": "星製薬株式会社　厚木工場",
      "name_kana": "ホシセイヤクカブシキガイシャ　アツギコウジョウ",
      "business_type": "㉚ 密封包装食品製造業",
      "address": "神奈川県厚木市上依知3006",
      "lat": 35.514719,
      "lng": 139.355558,
      "geocoding_level": null,
      "phone": "0462850544",
      "license_no": "第2024-078-0003号",
      "license_date": "2024-05-24",
      "expire_date": "2031-05-23"
    },
    {
      "name": "星製薬株式会社　厚木工場",
      "name_kana": "ホシセイヤクカブシキガイシャ　アツギコウジョウ",
      "business_type": "⑮ いわゆる健康食品の製造・加工業",
      "address": "神奈川県厚木市上依知3006",
      "lat": 35.514738,
      "lng": 139.355544,
      "geocoding_level": null,
      "phone": "0462850544",
      "license_no": "",
      "license_date": null,
      "expire_date": null
    },
    {
      "name": "こひつじ愛児園",
      "name_kana": "コヒツジアイジエン",
      "business_type": "㉖ 集団給食施設",
      "address": "神奈川県厚木市温水西2-1-1",
      "lat": 35.441348,
      "lng": 139.336031,
      "geocoding_level": null,
      "phone": "046-280-5534",
      "license_no": "",
      "license_date": null,
      "expire_date": null
    },
    {
      "name": "有限会社フューチャーネット",
      "name_kana": "ユウゲンガイシャフューチャーネット",
      "business_type": "⑦ 野菜果物販売業",
      "address": "神奈川県厚木市戸田２１７－３",
      "lat": 35.405902,
      "lng": 139.358989,
      "geocoding_level": null,
      "phone": "0462281127",
      "license_no": "",
      "license_date": null,
      "expire_date": null
    },
    {
      "name": "ケンコーマヨネーズ株式会社　厚木工場",
      "name_kana": "ケンコーマヨネーズ　アツギコウジョウ",
      "business_type": "⑱ 調味料製造・加工業",
      "address": "神奈川県厚木市上依知3028番地ノ2",
      "lat": 35.517763,
      "lng": 139.351667,
      "geocoding_level": null,
      "phone": "046-286-1651",
      "license_no": "",
      "license_date": null,
      "expire_date": null
    },
    {
      "name": "特別養護老人ホーム　玉川グリーンホーム",
      "name_kana": "トクベツヨウゴロウジンホーム　タマガワグリーンホーム",
      "business_type": "㉖ 集団給食施設",
      "address": "神奈川県厚木市小野734番地の2",
      "lat": 35.433981,
      "lng": 139.31283,
      "geocoding_level": null,
      "phone": "0462487778",
      "license_no": "",
      "license_date": null,
      "expire_date": null
    },
    {
      "name": "岡田保育園",
      "name_kana": "オカダホイクエン",
      "business_type": "㉖ 集団給食施設",
      "address": "神奈川県厚木市岡田1丁目7番8号",
      "lat": 35.431056,
      "lng": 139.362996,
      "geocoding_level": null,
      "phone": "046-228-6480",
      "license_no": "",
      "license_date": null,
      "expire_date": null
    },
    {
      "name": "ポノ保育園",
      "name_kana": "ポノホイクエン",
      "business_type": "㉖ 集団給食施設",
      "address": "神奈川県厚木市田村町1-26 ヨークフーズ厚木店2階202区画",
      "lat": 35.439005,
      "lng": 139.359445,
      "geocoding_level": null,
      "phone": "0462257540",
      "license_no": "",
      "license_date": null,
      "expire_date": null
    },
    {
      "name": "NTC_中央店",
      "name_kana": "エヌティーシーチュウオウテン",
      "business_type": "⑬ その他の食料・飲料販売業",
      "address": "神奈川県厚木市岡津古久560番地2号",
      "lat": 35.424099,
      "lng": 139.316871,
      "geocoding_level": null,
      "phone": "046-247-4622",
      "license_no": "",
      "license_date": null,
      "expire_date": null
    },
    {
      "name": "Ｄ棟ファミリーマート自販機",
      "name_kana": "ディートウファミリーマートジハンキ",
      "business_type": "⑫ 自動販売機による販売業（コップ式自動販売機（自動洗浄・屋内設置）及び営業許可の対象となる自動販売機を除く）",
      "address": "神奈川県厚木市岡津古久560番地2号",
      "lat": 35.424099,
      "lng": 139.316871,
      "geocoding_level": null,
      "phone": "046-247-4622",
      "license_no": "",
      "license_date": null,
      "expire_date": null
    },
    {
      "name": "有料老人ホーム　ハピネスあずきの里",
      "name_kana": "ユウリョウロウジンホーム　ハピネスアズキノサト",
      "business_type": "㉖ 集団給食施設",
      "address": "神奈川県厚木市水引1-9-10",
      "lat": 35.446524,
      "lng": 139.359202,
      "geocoding_level": null,
      "phone": "0462598612",
      "license_no": "",
      "license_date": null,
      "expire_date": null
    },
    {
      "name": "有料老人ホーム　ハピネスぱんじーの里",
      "name_kana": "ユウリョウロウジンホーム　ハピネスパンジーノサト",
      "business_type": "㉖ 集団給食施設",
      "address": "神奈川県厚木市妻田北2丁目３-14",
      "lat": 35.466955,
      "lng": 139.360872,
      "geocoding_level": null,
      "phone": "0462595012",
      "license_no": "",
      "license_date": null,
      "expire_date": null
    },
    {
      "name": "小田急本厚木ミロード　イベントショップ",
      "name_kana": "オダキュウホンアツギミロード　イベントショップ",
      "business_type": "⑥ 弁当販売業",
      "address": "神奈川県厚木市泉町1丁目１",
      "lat": 35.43868,
      "lng": 139.364037,
      "geocoding_level": null,
      "phone": "",
      "license_no": "",
      "license_date": null,
      "expire_date": null
    },
    {
      "name": "小田急本厚木ミロード　イベントショップ",
      "name_kana": "オダキュウホンアツギミロード　イベントショップ",
      "business_type": "⑬ その他の食料・飲料販売業",
      "address": "神奈川県厚木市泉町1丁目１",
      "lat": 35.43868,
      "lng": 139.364037,
      "geocoding_level": null,
      "phone": "",
      "license_no": "",
      "license_date": null,
      "expire_date": null
    },
    {
      "name": "株式会社ＫＯＹＯ",
      "name_kana": "カブシキガイシャコウヨウ",
      "business_type": "⑬ その他の食料・飲料販売業",
      "address": "神奈川県厚木市恩名1-6-57 栄光ビル101",
      "lat": 35.439562,
      "lng": 139.355428,
      "geocoding_level": null,
      "phone": "0462970207",
      "license_no": "",
      "license_date": null,
      "expire_date": null
    },
    {
      "name": "金子ストアー",
      "name_kana": "カネコストアー",
      "business_type": "⑬ その他の食料・飲料販売業",
      "address": "神奈川県厚木市三田南１－１３－３２",
      "lat": 35.472714,
      "lng": 139.353978,
      "geocoding_level": null,
      "phone": "0462247257",
      "license_no": "",
      "license_date": null,
      "expire_date": null
    },
    {
      "name": "日産厚木アクスト店カリヨン",
      "name_kana": "ニッサンアツギアクストテンカリヨン",
      "business_type": "⑬ その他の食料・飲料販売業",
      "address": "神奈川県厚木市岡田3065",
      "lat": 35.422344,
      "lng": 139.360918,
      "geocoding_level": null,
      "phone": "046-220-4770",
      "license_no": "",
      "license_date": null,
      "expire_date": null
    },
    {
      "name": "株式会社ケーピージー",
      "name_kana": "カブシキガイシャケーピージー",
      "business_type": "㉔ その他の食料品製造・加工業",
      "address": "神奈川県厚木市厚木市台ノ岡２４５３番地２０",
      "lat": 35.46243,
      "lng": 139.32646,
      "geocoding_level": null,
      "phone": "0462819880",
      "license_no": "",
      "license_date": null,
      "expire_date": null
    },
    {
      "name": "でいから２４６号線厚木妻田店",
      "name_kana": "デイカラニヒャクヨンジュウロクゴウセンアツギツマダテン",
      "business_type": "① 飲食店営業",
      "address": "神奈川県厚木市妻田東３ー１－１",
      "lat": 35.458516,
      "lng": 139.359543,
      "geocoding_level": null,
      "phone": "046-294-5012",
      "license_no": "第2023-001-0521号",
      "license_date": "2024-02-07",
      "expire_date": "2030-02-24"
    },
    {
      "name": "生活協同組合ユーコープ 鳶尾店",
      "name_kana": "セイカツキョウドウクミアイユーコープ　トビオテン",
      "business_type": "⑪ 百貨店、総合スーパー",
      "address": "神奈川県厚木市鳶尾2-25-9",
      "lat": 35.491123,
      "lng": 139.326392,
      "geocoding_level": null,
      "phone": "046-241-0551",
      "license_no": "",
      "license_date": null,
      "expire_date": null
    },
    {
      "name": "生活協同組合ユーコープ 厚木戸室店",
      "name_kana": "セイカツキョウドウクミアイユーコープ　アツギトムロテン",
      "business_type": "⑪ 百貨店、総合スーパー",
      "address": "神奈川県厚木市戸室5-6-1",
      "lat": 35.447118,
      "lng": 139.34475,
      "geocoding_level": null,
      "phone": "046-295-6660",
      "license_no": "",
      "license_date": null,
      "expire_date": null
    },
    {
      "name": "本厚木ミロード",
      "name_kana": "ホンアツギミロード",
      "business_type": "⑬ その他の食料・飲料販売業",
      "address": "神奈川県厚木市泉町１−１",
      "lat": 35.439613,
      "lng": 139.363971,
      "geocoding_level": null,
      "phone": "",
      "license_no": "",
      "license_date": null,
      "expire_date": null
    },